"Long","Lat","Stn_Name","Clim_ID","Prov_or_Ter","Tm","DwTm","D","Tx","DwTx","Tn","DwTn","S","DwS","S%N","P","DwP","P%N","S_G","Pd","BS","DwBS","BS%","HDD","CDD"
"-123.742","48.935","CHEMAINUS","1011500","BC","4.3","0","NA","14.5","0","-3.5","0","38.0","0","NA","170.6","0","NA","0.0","17","","","NA","423.5","0.0"
"-124.133","48.824","COWICHAN LAKE FORESTRY","1012040","BC","3.0","11","-0.4","10.5","11","-7.0","11","41.5","0","152.0","264.7","0","74.0","0.0","18","","","NA","300.9","0.0"
"-124.052","48.829","LAKE COWICHAN","1012055","BC","3.3","18","-0.2","12.0","12","-9.0","12","14.4","11","NA","206.6","11","NA","0.0","15","","","NA","191.0","0.0"
"-123.225","48.424","DISCOVERY ISLAND","1012475","BC","5.6","0","NA","12.2","0","0.4","0","","","NA","","","NA","","","","","NA","383.3","0.0"
"-123.728","48.735","DUNCAN KELVIN CREEK","1012573","BC","3.2","0","-0.4","13.0","0","-7.0","0","53.2","0","231.0","206.0","0","83.0","0.0","18","","","NA","459.6","0.0"
"-123.439","48.432","ESQUIMALT HARBOUR","1012710","BC","4.6","0","NA","11.9","0","-1.9","0","","","NA","181.6","0","NA","","16","","","NA","416.8","0.0"
"-123.573","48.985","GALIANO NORTH","10130MN","BC","4.6","4","NA","13.5","4","-2.0","4","10.4","4","NA","143.0","4","NA","0.0","15","","","NA","360.7","0.0"
"-123.530","48.575","MALAHAT","1014820","BC","2.8","0","NA","10.4","0","-4.4","0","","","NA","","","NA","","","","","NA","471.3","0.0"
"-123.561","48.374","METCHOSIN","1015105","BC","","","NA","","","","","10.4","1","NA","198.2","1","NA","0.0","14","","","NA","",""
"-123.718","48.824","NORTH COWICHAN","1015628","BC","","","NA","","","","","1.0","15","NA","97.2","15","NA","0.0","10","","","NA","",""
"-123.719","48.824","NORTH COWICHAN","1015630","BC","3.4","0","NA","13.8","0","-8.5","0","","","NA","154.5","1","NA","","18","","","NA","454.1","0.0"
"-123.287","48.764","NORTH PENDER ISLAND","1015638","BC","4.7","0","NA","13.5","0","-3.5","0","29.5","0","NA","148.1","0","NA","0.0","15","","","NA","413.3","0.0"
"-124.326","48.591","PORT RENFREW","1016335","BC","4.2","0","0.1","10.5","0","-6.0","0","8.5","0","72.0","661.5","0","119.0","0.0","22","","","NA","428.4","0.0"
"-123.419","48.622","SAANICHTON CDA","1016940","BC","4.3","1","-0.5","14.0","1","-4.5","0","0.0","1","NA","158.5","0","109.0","0.0","17","","","NA","411.3","0.0"
"-123.546","48.888","SALTSPRING ST MARY'S L","1016995","BC","4.3","4","0.0","11.0","4","-2.5","4","25.0","4","NA","128.4","4","NA","0.0","15","","","NA","371.0","0.0"
"-123.427","48.598","SAANICHTON MT NEWTON","1016RM0","BC","","","NA","","","","","18.0","20","NA","162.4","20","NA","","10","","","NA","",""
"-123.128","48.775","SATURNA CAPMON CS","1017099","BC","3.0","8","NA","11.1","8","-4.3","7","","","NA","0.0","28","NA","","0","","","NA","346.1","0.0"
"-123.045","48.784","SATURNA ISLAND CS","1017101","BC","4.9","0","NA","12.0","0","-1.1","0","","","NA","123.0","1","NA","","16","","","NA","406.3","0.0"
"-123.626","48.647","SHAWNIGAN LAKE","1017230","BC","3.1","0","-0.4","12.0","0","-6.5","0","42.2","0","208.0","184.8","0","86.0","0.0","19","","","NA","463.1","0.0"
"-123.921","48.377","SHERINGHAM POINT","1017254","BC","5.2","0","NA","10.9","0","-0.7","0","","","NA","405.0","0","NA","","18","","","NA","396.3","0.0"
"-123.305","48.457","VICTORIA UNIVERSITY CS","1018598","BC","5.3","0","NA","13.9","0","-2.1","0","","","NA","148.4","0","NA","","16","","","NA","392.4","0.0"
"-123.443","48.476","VICTORIA FRANCIS PARK","1018605","BC","","","NA","","","","","13.8","18","NA","169.6","18","NA","","13","","","NA","",""
"-123.325","48.413","VICTORIA GONZALES CS","1018611","BC","5.1","0","NA","12.2","0","-2.0","0","","","NA","138.6","0","NA","","16","","","NA","400.9","0.0"
"-123.508","48.509","VICTORIA HIGHLAND","1018616","BC","3.0","6","0.0","10.5","4","-5.5","3","0.0","4","NA","210.3","4","NA","","14","","","NA","374.3","0.0"
"-123.426","48.647","VICTORIA INT'L A","1018620","BC","4.3","0","-0.2","14.9","0","-5.7","0","14.8","0","136.0","147.3","0","103.0","0.0","17","63.7","0","90.0","423.2","0.0"
"-123.539","48.340","WILLIAM HEAD","1018935","BC","5.8","0","0.1","13.5","0","-1.0","0","0.0","0","0.0","227.0","0","148.0","0.0","18","","","NA","378.2","0.0"
"-123.459","48.534","VICTORIA HARTLAND CS","1018FJ5","BC","3.7","0","NA","11.8","0","-3.0","0","","","NA","222.4","0","NA","","16","","","NA","442.9","0.0"
"-124.160","49.350","BALLENAS ISLAND","1020590","BC","5.3","0","NA","13.5","0","-1.1","0","","","NA","88.0","0","NA","","19","","","NA","394.4","0.0"
"-125.273","49.952","CAMPBELL RIVER A","1021261","BC","2.5","0","0.1","7.5","0","-7.5","0","65.6","0","282.0","215.2","0","99.0","0.0","18","","","NA","480.7","0.0"
"-125.195","49.998","CAPE MUDGE","1021330","BC","3.9","0","-0.1","9.0","0","-4.0","0","20.0","0","145.0","248.4","0","108.0","0.0","20","","","NA","436.0","0.0"
"-125.433","50.333","CHATHAM POINT","1021480","BC","3.7","0","-0.3","9.0","0","-2.5","0","47.0","0","335.0","281.2","0","95.0","0.0","20","","","NA","442.4","0.0"
"-124.900","49.717","COMOX A","1021830","BC","3.7","0","-0.1","12.8","0","-5.6","0","14.0","0","117.0","119.4","0","69.0","0.0","18","40.2","1","NA","441.8","0.0"
"-124.949","50.071","CORTES ISLAND TIBER BAY","1021960","BC","3.2","3","NA","10.0","3","-6.0","3","20.0","3","NA","167.2","3","NA","","14","","","NA","415.3","0.0"
"-124.999","49.763","COURTENAY GRANTHAM","1021988","BC","3.0","2","NA","9.5","2","-5.0","2","34.0","2","NA","134.0","2","NA","0.0","18","","","NA","436.0","0.0"
"-125.033","49.686","COURTENAY PUNTLEDGE","1021989","BC","2.7","7","NA","9.7","4","-7.0","3","2.0","4","NA","80.3","4","NA","0.0","14","","","NA","367.3","0.0"
"-123.811","49.209","ENTRANCE ISLAND","1022689","BC","5.4","0","NA","14.2","0","-0.2","0","","","NA","99.2","0","NA","","14","","","NA","389.2","0.0"
"-125.993","50.454","FANNY ISLAND","1022795","BC","1.9","18","NA","7.5","18","-3.4","17","","","NA","103.6","19","NA","","6","","","NA","209.2","0.0"
"-123.734","49.154","GABRIOLA ISLAND","1023042","BC","3.9","0","0.0","14.0","0","-6.0","0","2.2","0","21.0","108.7","0","74.0","0.0","15","","","NA","437.6","0.0"
"-125.203","50.099","HERIOT BAY SE","1023462","BC","3.2","0","NA","8.5","0","-4.0","0","16.8","0","NA","243.8","0","NA","0.0","18","","","NA","459.4","0.0"
"-125.606","49.576","MYRA CREEK","1025254","BC","0.3","7","NA","6.5","7","-9.6","5","28.0","7","NA","165.8","7","NA","0.0","14","","","NA","424.1","0.0"
"-123.870","49.054","NANAIMO A","1025370","BC","3.4","0","-0.1","14.7","0","-8.6","0","36.2","0","172.0","140.6","0","75.0","0.0","19","","","NA","452.1","0.0"
"-123.988","49.199","NANAIMO CITY YARD","10253G0","BC","","","NA","","","","","86.0","0","637.0","179.0","0","96.0","0.0","16","","","NA","",""
"-127.728","50.976","PINE ISLAND","1026170","BC","5.1","0","-0.4","9.5","0","-0.5","0","10.0","0","265.0","278.0","0","101.0","0.0","22","","","NA","399.0","0.0"
"-127.366","50.680","PORT HARDY A","1026270","BC","3.9","0","-0.3","10.1","0","-4.9","0","19.8","0","159.0","260.2","0","105.0","0.0","19","","","NA","438.1","0.0"
"-124.394","49.337","QUALICUM BEACH AIRPORT","1026562","BC","3.5","0","NA","14.0","0","-7.6","0","","","NA","87.0","0","NA","","16","","","NA","450.0","0.0"
"-124.617","49.394","QUALICUM R FISH RESEARCH","1026565","BC","4.0","0","0.1","12.5","0","-6.0","0","21.6","0","208.0","157.2","0","75.0","0.0","18","","","NA","434.4","0.0"
"-125.304","50.016","QUINSAM RIVER HATCHERY","1026639","BC","2.2","2","-0.6","8.5","2","-7.0","2","29.5","1","NA","205.5","1","NA","0.0","18","","","NA","457.7","0.0"
"-124.435","49.487","SISTERS ISLAND","1027403","BC","5.6","0","NA","13.9","0","0.4","0","","","NA","","","NA","","","","","NA","384.4","0.0"
"-123.809","49.209","ENTRANCE ISLAND","102BFHH","BC","5.5","8","NA","12.5","8","0.0","8","1.0","4","NA","102.4","4","NA","0.0","15","","","NA","287.2","0.0"
"-124.982","49.337","ALBERNI ROBERTSON CREEK","1030230","BC","0.9","1","-1.1","8.0","1","-8.5","1","34.0","1","NA","211.9","1","NA","0.0","18","","","NA","512.3","0.0"
"-125.216","48.786","CAPE BEALE LIGHT","1031316","BC","5.7","0","-0.2","9.5","0","-2.0","0","0.0","0","0.0","369.2","0","86.0","0.0","19","","","NA","380.9","0.0"
"-128.427","50.782","CAPE SCOTT","1031353","BC","5.0","0","-0.7","10.0","0","-1.0","0","8.5","0","138.0","374.5","0","115.0","0.0","26","","","NA","403.3","0.0"
"-124.751","48.612","CARMANAH POINT","1031402","BC","","","NA","","","","","12.6","0","158.0","398.5","0","91.0","0.0","20","","","NA","",""
"-126.418","49.800","CONUMA RIVER HATCHERY","1031844","BC","","","NA","","","","","0.0","30","NA","0.0","30","NA","","0","","","NA","",""
"-126.551","49.384","ESTEVAN POINT","1032730","BC","5.6","0","-0.3","9.5","0","-2.0","0","1.0","0","50.0","362.0","0","79.0","0.0","22","","","NA","383.9","0.0"
"-126.543","49.383","ESTEVAN POINT CS","1032731","BC","5.5","0","NA","9.4","0","-2.4","0","","","NA","341.2","7","NA","","21","","","NA","387.6","0.0"
"-126.055","49.779","GOLD RIVER TOWNSITE","1033232","BC","1.8","4","-0.2","9.0","4","-9.0","4","14.0","4","NA","380.7","4","NA","","19","","","NA","436.2","0.0"
"-125.923","49.111","LENNARD ISLAND","1034600","BC","","","NA","","","","","0.2","1","NA","381.8","1","NA","0.0","20","","","NA","",""
"-124.655","48.859","NITINAT RIVER HATCHERY","1035612","BC","3.9","0","0.0","12.0","0","-6.0","0","5.5","0","40.0","551.5","0","93.0","0.0","22","","","NA","436.6","0.0"
"-126.617","49.600","NOOTKA LIGHTSTATION","1035614","BC","5.2","0","-0.4","9.0","0","-0.5","0","0.0","0","0.0","491.5","0","104.0","0.0","22","","","NA","396.4","0.0"
"-125.097","48.723","PACHENA POINT","1035940","BC","5.4","0","-0.3","11.5","0","-3.5","0","29.2","0","542.0","422.2","0","102.0","0.0","20","","","NA","391.6","0.0"
"-124.752","49.202","PORT ALBERNI COX LAKE","1036208","BC","3.1","1","0.2","10.5","1","-6.5","1","4.4","1","NA","243.4","1","NA","0.0","18","","","NA","448.4","0.0"
"-127.453","50.386","PORT ALICE","1036240","BC","5.3","2","0.4","11.0","2","-3.0","2","13.0","2","NA","259.6","2","NA","0.0","21","","","NA","368.8","0.0"
"-127.654","50.533","QUATSINO","1036570","BC","4.2","3","-0.2","10.0","3","-3.0","3","0.5","3","NA","271.0","3","NA","0.0","20","","","NA","386.6","0.0"
"-128.033","50.441","QUATSINO LIGHTSTATION","1036572","BC","5.9","0","-0.1","11.5","0","-0.5","0","11.0","0","493.0","261.8","0","76.0","0.0","23","","","NA","376.2","0.0"
"-124.926","49.317","PORT ALBERNI (AUT)","1036B06","BC","1.7","0","NA","9.8","0","-9.5","0","","","NA","207.0","1","NA","","16","","","NA","503.9","0.0"
"-128.908","50.821","SARTINE ISLAND (AUT)","1037090","BC","4.9","1","NA","8.3","1","-0.8","0","","","NA","","","NA","","","","","NA","392.8","0.0"
"-127.940","50.112","SOLANDER ISLAND (AUT)","1037553","BC","5.6","1","NA","9.2","1","-0.1","1","","","NA","168.4","4","NA","","20","","","NA","371.3","0.0"
"-126.654","49.932","TAHSIS VILLAGE NORTH","1037899","BC","4.8","17","NA","10.0","17","-3.0","17","5.0","17","NA","358.2","17","NA","0.0","13","","","NA","184.9","0.0"
"-125.773","49.082","TOFINO A","1038205","BC","5.2","0","-0.2","10.1","0","-4.9","0","0.0","0","0.0","423.4","0","87.0","0.0","22","","","NA","397.6","0.0"
"-125.527","48.945","UCLUELET KENNEDY CAMP","1038332","BC","5.3","0","-0.3","10.5","0","-4.5","0","9.0","0","132.0","462.8","0","92.0","0.0","19","","","NA","394.9","0.0"
"-126.779","50.053","ZEBALLOS MURAUDE CREEK","1039035","BC","2.9","0","NA","9.5","0","-6.0","0","11.0","0","NA","486.3","0","NA","0.0","24","","","NA","467.8","0.0"
"-123.421","49.366","BOWEN ISLAND BOWEN BAY","104090R","BC","","","NA","","","","","0.0","14","NA","218.3","14","NA","","14","","","NA","",""
"-123.402","49.360","BOWEN ISLAND SUNSET PARK","104091B","BC","","","NA","","","","","19.0","0","NA","235.6","0","NA","","20","","","NA","",""
"-123.541","49.386","GIBSONS GOWER POINT","1043152","BC","4.4","2","-0.2","11.5","2","-2.5","2","3.0","2","NA","174.4","2","NA","0.0","17","","","NA","393.2","0.0"
"-123.853","50.165","MALIBU JERVIS INLET","1044840","BC","2.5","0","-0.7","7.0","0","-3.2","0","37.5","0","161.0","353.2","0","110.0","0.0","19","","","NA","481.5","0.0"
"-123.913","49.468","MERRY ISLAND LIGHTSTATION","1045100","BC","5.5","0","0.1","11.0","0","-1.0","0","0.0","0","0.0","144.6","0","107.0","0.0","18","","","NA","387.8","0.0"
"-123.299","49.488","HOWE SOUND - PAM ROCKS","10459NN","BC","3.8","10","NA","11.2","10","-1.8","9","","","NA","116.6","10","NA","","9","","","NA","297.3","0.0"
"-124.032","49.634","PENDER HARBOUR","1046115","BC","","","NA","","","","","11.6","1","NA","187.2","1","NA","0.0","17","","","NA","",""
"-123.496","49.526","PORT MELLON","1046332","BC","3.8","1","NA","10.2","1","-3.3","1","","","NA","337.1","0","NA","","20","","","NA","426.4","0.0"
"-124.500","49.834","POWELL RIVER A","1046391","BC","3.3","0","-0.3","11.7","0","-7.4","0","34.4","0","253.0","182.7","0","115.0","0.0","19","","","NA","456.0","0.0"
"-124.497","49.835","POWELL RIVER","1046392","BC","3.1","0","NA","11.6","0","-6.7","0","","","NA","249.3","0","NA","","20","","","NA","462.8","0.0"
"-123.715","49.458","SECHELT AUT","1047172","BC","3.7","0","NA","13.3","0","-6.0","0","","","NA","177.0","0","NA","","16","","","NA","443.3","0.0"
"-123.161","49.783","SQUAMISH AIRPORT","10476F0","BC","1.2","0","NA","9.5","0","-7.5","0","","","NA","434.4","0","NA","1.0","17","","","NA","520.5","0.0"
"-122.955","50.129","WHISTLER","1048898","BC","-2.3","0","-0.1","6.2","0","-14.5","0","96.4","0","94.0","301.4","0","171.0","78.0","19","","","NA","628.2","0.0"
"-132.772","53.316","KINDAKUN ROCKS (AUT)","1054222","BC","5.0","1","NA","9.2","1","-1.6","0","","","NA","120.4","9","NA","","15","","","NA","391.2","0.0"
"-133.058","54.255","LANGARA","1054500","BC","3.8","0","-0.2","8.2","0","-4.2","0","12.4","0","62.0","211.2","0","103.0","0.0","18","","","NA","440.1","0.0"
"-133.058","54.255","LANGARA ISLAND RCS","1054503","BC","3.6","1","NA","8.1","1","-4.2","0","","","NA","63.5","10","NA","","13","","","NA","431.2","0.0"
"-132.167","54.000","MASSET A","1054925","BC","3.4","0","NA","9.5","0","-6.0","0","19.9","0","NA","144.5","0","NA","0.0","19","","","NA","452.9","0.0"
"-131.661","54.159","ROSE SPIT (AUT)","1056869","BC","3.6","1","NA","7.7","1","-3.9","0","","","NA","114.0","19","NA","","9","","","NA","432.2","0.0"
"-131.813","53.254","SANDSPIT A","1057050","BC","4.3","6","0.3","10.0","6","-4.0","6","0.6","6","NA","68.2","6","NA","0.0","11","","","NA","341.3","0.0"
"-131.814","53.254","SANDSPIT","1057052","BC","3.7","1","NA","9.3","1","-2.5","1","","","NA","0.0","1","NA","","0","","","NA","428.4","0.0"
"-131.814","53.254","SANDSPIT AWOS","1057055","BC","3.9","0","NA","9.6","0","-2.6","0","","","NA","68.0","0","NA","","8","","","NA","437.8","0.0"
"-127.864","51.604","ADDENBROKE ISLAND","1060080","BC","4.0","0","-0.6","10.5","0","-1.5","0","15.0","0","115.0","613.6","0","151.0","0.0","22","","","NA","433.0","0.0"
"-128.157","52.185","BELLA BELLA A","1060811","BC","2.0","7","NA","9.1","7","-8.2","6","","","NA","310.5","2","NA","","21","","","NA","384.5","0.0"
"-126.596","52.388","BELLA COOLA A","1060841","BC","-0.3","2","-0.5","8.8","2","-11.4","2","35.0","2","NA","178.4","2","NA","0.0","17","","","NA","529.7","0.0"
"-128.524","52.643","BOAT BLUFF","1060901","BC","3.5","2","-0.1","10.0","2","-3.0","2","28.2","2","NA","717.2","2","NA","0.0","19","","","NA","420.8","0.0"
"-130.638","53.493","BONILLA ISLAND","1060902","BC","4.4","0","-0.6","9.5","0","-4.0","0","5.2","0","60.0","267.8","0","113.0","0.0","15","","","NA","422.5","0.0"
"-130.633","53.500","BONILLA ISLAND (AUT)","1060R0K","BC","4.3","0","NA","8.2","0","-4.1","0","","","NA","108.4","0","NA","","15","","","NA","426.0","0.0"
"-127.470","52.187","CATHEDRAL POINT (AUT)","1061458","BC","1.7","1","NA","9.5","1","-7.0","0","","","NA","","","NA","","","","","NA","488.4","0.0"
"-131.601","53.030","CUMSHEWA ISLAND","1062251","BC","5.1","1","NA","12.3","1","-2.7","0","","","NA","","","NA","","","","","NA","387.0","0.0"
"-128.112","52.185","DRYAD POINT","1062544","BC","3.7","0","-0.5","10.5","0","-3.0","0","17.0","0","159.0","379.0","0","136.0","0.0","22","","","NA","441.9","0.0"
"-127.835","51.247","EGG ISLAND","1062646","BC","4.1","0","-0.8","10.0","0","-1.5","0","28.2","0","408.0","384.6","0","121.0","0.0","21","","","NA","429.8","0.0"
"-130.708","54.569","GREEN ISLAND","1063298","BC","3.0","0","-0.2","8.5","0","-7.0","0","16.0","0","127.0","172.4","0","65.0","0.0","17","","","NA","464.2","0.0"
"-130.698","54.580","GREY ISLET (AUT)","1063303","BC","2.2","3","NA","7.3","2","-6.7","1","","","NA","275.0","4","NA","","13","","","NA","442.7","0.0"
"-127.632","50.940","HERBERT ISLAND (AUT)","1063461","BC","5.4","0","NA","9.8","0","0.4","0","","","NA","149.6","0","NA","","19","","","NA","391.6","0.0"
"-130.361","54.172","HOLLAND ROCK","1063496","BC","3.6","0","NA","10.4","0","-6.0","0","","","NA","1.6","11","NA","","0","","","NA","446.0","0.0"
"-128.407","52.270","IVORY ISLAND","1063690","BC","3.7","0","-0.6","9.0","0","-3.5","0","13.8","0","84.0","352.6","0","118.0","0.0","21","","","NA","442.0","0.0"
"-127.943","53.563","KEMANO","1064020","BC","-2.3","1","-0.8","7.0","1","-16.0","1","69.5","1","NA","274.2","1","NA","49.0","19","","","NA","607.7","0.0"
"-128.634","54.054","KITIMAT TOWNSITE","1064320","BC","-3.2","1","-1.4","5.0","1","-19.0","1","67.5","1","NA","318.9","1","NA","0.0","17","","","NA","634.7","0.0"
"-128.705","54.010","KITIMAT 2","1064321","BC","-0.8","16","0.1","8.0","16","-13.0","16","57.5","3","NA","371.0","3","NA","","17","","","NA","281.6","0.0"
"-128.641","54.065","KITIMAT 3","1064322","BC","","","NA","","","","","118.4","0","104.0","362.6","0","113.0","70.0","19","","","NA","",""
"-130.729","54.359","LUCY ISLAND LIGHTSTATION","1064728","BC","3.9","0","NA","8.9","0","-5.6","0","","","NA","","","NA","","","","","NA","437.4","0.0"
"-130.445","54.286","PRINCE RUPERT","1066482","BC","2.1","0","NA","8.6","0","-8.0","0","","","NA","304.0","0","NA","","17","","","NA","493.0","0.0"
"-130.290","54.320","PRINCE RUPERT MONT CIRC","1066488","BC","","","NA","","","","","7.2","12","NA","392.0","12","NA","","12","","","NA","",""
"-129.985","55.936","STEWART A","1067742","BC","-2.1","0","0.9","5.5","0","-13.1","0","103.3","0","63.0","208.6","0","88.0","38.0","15","","","NA","623.9","0.0"
"-126.067","52.368","STUIE TWEEDSMUIR LODGE","1067776","BC","-2.1","0","-0.2","6.0","0","-12.0","0","75.8","0","217.0","131.8","0","133.0","39.0","19","","","NA","621.8","0.0"
"-128.578","54.466","TERRACE A","1068130","BC","-3.2","0","-0.2","5.3","0","-15.6","0","80.4","0","91.0","199.5","0","115.0","0.0","19","","","NA","658.0","0.0"
"-128.625","54.502","TERRACE PCC","1068131","BC","-2.4","0","-0.4","6.5","0","-14.0","0","39.0","0","87.0","167.2","0","124.0","10.0","15","","","NA","630.9","0.0"
"-130.880","54.295","TRIPLE ISLAND","1068250","BC","4.2","0","NA","9.0","0","-4.5","0","5.5","0","NA","161.4","0","NA","0.0","16","","","NA","428.3","0.0"
"-128.682","54.044","KITIMAT HATCHERY","106D289","BC","-0.5","12","NA","6.5","12","-13.5","12","13.4","12","NA","215.6","12","NA","88.0","13","","","NA","351.1","0.0"
"-126.277","54.199","EQUITY SILVER","1072692","BC","-8.9","15","-0.5","2.0","15","-27.0","15","65.1","15","NA","65.1","15","NA","","10","","","NA","431.1","0.0"
"-126.668","54.396","HOUSTON","1073615","BC","-8.1","3","NA","8.0","3","-23.0","3","50.0","3","NA","64.0","3","NA","0.0","6","","","NA","730.7","0.0"
"-127.183","54.825","SMITHERS","1077499","BC","-7.2","2","NA","7.2","2","-18.5","2","","","NA","32.1","2","NA","","10","","","NA","731.1","0.0"
"-127.183","54.825","SMITHERS A","1077500","BC","-7.3","0","-0.1","7.5","0","-20.5","0","53.8","0","121.0","64.0","0","150.0","30.0","12","","","NA","785.1","0.0"
"-126.163","54.816","TOPLEY LANDING","1078209","BC","-8.3","0","0.3","5.5","0","-23.0","0","54.3","0","110.0","62.9","0","116.0","0.0","12","","","NA","814.1","0.0"
"-127.171","55.289","SUSKWA VALLEY","107G879","BC","-6.8","0","-0.4","11.0","0","-21.5","0","67.6","0","147.0","105.2","0","174.0","46.0","15","","","NA","769.1","0.0"
"-125.997","53.772","OOTSA L SKINS L SPILLWAY","1085835","BC","-9.6","0","-1.9","8.0","0","-26.5","0","","","NA","","","NA","","","","","NA","855.3","0.0"
"-125.997","53.772","OOTSA LAKESKINS LAKE CLIMATE","1085836","BC","-8.3","0","NA","7.9","0","-23.8","0","","","NA","75.5","1","NA","","10","","","NA","815.8","0.0"
"-122.734","50.306","PEMBERTON AIRPORT CS","1086082","BC","0.0","21","NA","4.4","21","-9.8","21","","","NA","25.0","21","NA","42.0","4","","","NA","180.4","0.0"
"-124.136","52.114","PUNTZI MOUNTAIN (AUT)","1086558","BC","-11.4","0","NA","8.4","0","-36.0","0","","","NA","","","NA","","","","","NA","910.2","0.0"
"-124.403","51.675","TATLAYOKO LAKE RCS","1088015","BC","-5.2","0","NA","11.0","0","-23.3","0","","","NA","71.2","0","NA","19.0","7","","","NA","719.5","0.0"
"-125.959","54.383","BURNS LAKE DECKER LAKE","1091174","BC","-11.0","0","NA","6.4","0","-27.6","0","","","NA","37.2","0","NA","42.0","10","","","NA","898.4","0.0"
"-124.286","54.455","FORT ST JAMES","1092970","BC","-7.7","14","1.8","6.5","14","-23.0","14","23.1","14","NA","28.7","14","NA","39.0","9","","","NA","437.4","0.0"
"-121.364","52.363","HORSEFLY LAKE GRUHS LAKE","1093600","BC","-7.9","1","-0.9","10.0","1","-29.5","1","116.2","1","NA","116.7","1","NA","52.0","16","","","NA","776.9","0.0"
"-122.287","52.530","MCLEESE LAKE GRANITE MT","1095018","BC","-7.1","15","NA","6.5","13","-23.0","11","82.7","14","NA","87.3","13","NA","64.0","13","","","NA","401.7","0.0"
"-122.678","53.884","PRINCE GEORGE","1096439","BC","-9.5","12","NA","2.8","12","-25.8","11","","","NA","9.9","14","NA","","3","","","NA","523.2","0.0"
"-122.672","53.889","PRINCE GEORGE AIRPORT AUTO","1096453","BC","-8.3","0","NA","6.2","0","-25.9","0","","","NA","59.9","0","NA","32.0","13","","","NA","816.8","0.0"
"-122.852","53.776","PRINCE GEORGE WEST LAKE","1096455","BC","-9.5","2","NA","8.0","2","-33.0","2","64.0","2","NA","66.6","2","NA","29.0","12","","","NA","796.6","0.0"
"-122.768","53.880","PRINCE GEORGE STP","1096468","BC","-7.5","1","-0.8","7.5","1","-23.5","1","88.5","1","NA","96.9","1","NA","32.0","16","","","NA","766.0","0.0"
"-122.510","53.026","QUESNEL","1096629","BC","-9.3","7","NA","7.9","7","-24.0","7","","","NA","35.9","12","NA","","4","","","NA","654.8","0.0"
"-122.506","53.027","QUESNEL AIRPORT AUTO","1096631","BC","-8.7","0","NA","8.0","0","-24.3","0","","","NA","61.0","0","NA","31.0","13","","","NA","827.1","0.0"
"-121.686","52.184","SPOKIN LAKE 4E","1097646","BC","-7.9","0","-0.3","12.5","0","-31.0","0","81.0","0","222.0","86.6","0","189.0","57.0","20","","","NA","801.8","0.0"
"-122.054","52.183","WILLIAMS LAKE A","1098940","BC","-8.1","0","-1.4","7.8","0","-25.7","0","75.9","0","205.0","67.4","0","204.0","44.0","14","","","NA","808.3","0.0"
"-124.017","54.033","VANDERHOOF","1098D90","BC","-9.2","0","-0.3","8.5","0","-27.0","0","75.9","0","201.0","86.3","0","195.0","0.0","15","","","NA","844.0","0.0"
"-121.404","51.705","108 MILE HOUSE ABEL LAKE","109E7R6","BC","-6.2","0","NA","10.0","0","-26.0","0","56.0","0","NA","57.4","0","NA","37.0","14","","","NA","750.9","0.0"
"-122.360","49.025","ABBOTSFORD A","1100030","BC","3.7","0","0.1","12.5","0","-6.5","0","24.2","0","131.0","328.2","0","155.0","0.0","19","","","NA","443.0","0.0"
"-121.760","49.243","AGASSIZ RCS","1100119","BC","3.2","0","-0.2","11.9","0","-4.1","0","","","NA","389.6","0","NA","","19","","","NA","459.4","0.0"
"-121.760","49.243","AGASSIZ CDA","1100120","BC","3.8","0","0.5","12.0","0","-4.0","0","32.0","0","157.0","402.1","0","167.0","0.0","21","","","NA","438.9","0.0"
"-122.955","50.129","WHISTLER - NESTERS","1100875","BC","-2.1","1","NA","7.2","1","-14.1","0","","","NA","150.5","0","NA","","14","","","NA","601.7","0.0"
"-122.936","50.102","BLACKCOMB BASE SLIDING CENTER","1100881","BC","-2.5","0","NA","5.8","0","-14.8","0","","","NA","172.9","0","NA","97.0","15","","","NA","634.3","0.0"
"-122.918","49.278","BURNABY SIMON FRASER U","1101158","BC","3.6","9","0.0","10.0","9","-4.0","9","21.0","9","NA","198.3","9","NA","","18","","","NA","316.5","0.0"
"-123.111","50.144","CALLAGHAN VALLEY","1101300","BC","-4.4","17","NA","5.4","17","-15.2","16","","","NA","162.0","13","NA","143.0","7","","","NA","313.6","0.0"
"-122.717","49.100","CLOVERDALE EAST","1101708","BC","1.2","20","NA","9.5","20","-7.0","20","22.1","20","NA","96.7","20","NA","","5","","","NA","184.4","0.0"
"-122.866","49.269","COQUITLAM COMO LAKE AVE","1101889","BC","","","NA","","","","","18.1","0","74.0","290.2","0","105.0","0.0","19","","","NA","",""
"-121.700","49.083","CHILLIWACK R HATCHERY","1101N65","BC","1.8","0","-0.1","9.5","0","-7.0","0","18.8","0","86.0","694.9","0","384.0","0.0","20","","","NA","503.5","0.0"
"-123.002","49.126","DELTA BURNS BOG","1102415","BC","3.8","24","NA","11.5","24","-5.1","24","","","NA","12.8","24","NA","","3","","","NA","99.2","0.0"
"-123.093","49.011","DELTA TSAWWASSEN BEACH","1102425","BC","5.4","0","0.3","14.0","0","-2.0","0","16.0","0","154.0","188.6","0","140.0","0.0","20","","","NA","391.6","0.0"
"-122.551","49.144","FORT LANGLEY TELEGRAPH TRAIL","1102912","BC","3.8","1","NA","12.5","1","-7.0","1","12.5","1","NA","296.4","1","NA","0.0","20","","","NA","424.7","0.0"
"-122.558","49.204","HANEY EAST","1103326","BC","3.7","0","0.5","13.0","0","-8.0","0","10.0","0","56.0","315.2","0","127.0","","23","","","NA","442.5","0.0"
"-122.573","49.264","HANEY UBC RF ADMIN","1103332","BC","3.2","0","0.0","22.0","0","-6.5","0","3.5","0","19.0","350.0","0","113.0","0.0","19","","","NA","458.4","0.0"
"-122.507","49.211","MAPLE RIDGE KANAKA CREEK","1104R02","BC","2.5","0","0.0","11.5","0","-8.0","0","18.0","0","77.0","338.6","0","123.0","0.0","23","","","NA","481.0","0.0"
"-122.271","49.153","MISSION WEST ABBEY","1105192","BC","2.9","0","-0.4","11.0","0","-5.0","0","39.0","0","171.0","389.6","0","154.0","0.0","22","","","NA","468.2","0.0"
"-123.078","49.182","RICHMOND OPERATIONS CENTRE","1105210","BC","","","NA","","","","","","","NA","182.4","0","NA","","18","","","NA","",""
"-123.081","49.368","N VANC GROUSE MTN RESORT","1105658","BC","0.1","9","0.5","8.0","9","-7.0","9","84.0","9","NA","314.3","9","NA","","17","","","NA","393.4","0.0"
"-123.119","49.314","N VANCOUVER WHARVES","1105669","BC","","","NA","","","","","0.3","3","NA","222.5","3","NA","0.0","17","","","NA","",""
"-122.690","49.208","PITT MEADOWS CS","1106178","BC","3.0","2","NA","12.3","2","-8.8","0","","","NA","204.4","0","NA","","12","","","NA","436.0","0.0"
"-123.265","49.330","POINT ATKINSON","1106200","BC","5.1","0","NA","12.0","0","-1.4","0","","","NA","314.2","0","NA","","19","","","NA","399.7","0.0"
"-123.087","49.179","RICHMOND DALLYN 2","1106764","BC","","","NA","","","","","13.0","0","NA","204.2","0","NA","0.0","19","","","NA","",""
"-123.093","49.171","RICHMOND NATURE PARK","1106PF7","BC","4.3","6","0.3","14.0","6","-7.0","6","0.0","6","NA","157.7","6","NA","0.0","15","","","NA","342.8","0.0"
"-123.303","49.106","SANDHEADS CS","1107010","BC","5.1","0","NA","12.9","0","-0.8","0","","","NA","","","NA","","","","","NA","400.9","0.0"
"-123.122","49.295","VANCOUVER HARBOUR CS","1108446","BC","4.8","0","NA","10.9","0","-2.6","0","","","NA","255.6","0","NA","","17","","","NA","409.2","0.0"
"-123.182","49.195","VANCOUVER INT'L A","1108447","BC","4.2","0","0.1","14.0","0","-6.4","0","16.1","0","146.0","186.3","0","111.0","0.0","18","50.8","1","NA","427.5","0.0"
"-123.193","49.347","WEST VANCOUVER AUT","1108824","BC","4.1","1","NA","12.7","1","-4.3","0","","","NA","417.0","0","NA","","19","","","NA","417.9","0.0"
"-122.947","50.068","WHISTLER ROUNDHOUSE","1108906","BC","-4.7","1","NA","4.0","1","-18.5","1","191.1","1","NA","209.1","1","NA","235.0","17","","","NA","680.3","0.0"
"-122.784","49.018","WHITE ROCK CAMPBELL SCIENTIFIC","1108910","BC","4.7","0","NA","13.0","0","-5.2","0","","","NA","244.2","0","NA","","18","","","NA","412.6","0.0"
"-122.967","49.438","N VAN SEYMOUR HATCHERY","110N666","BC","1.2","4","-0.9","8.0","4","-6.0","4","21.0","4","NA","341.8","4","NA","0.0","16","","","NA","452.6","0.0"
"-123.098","49.363","N VANC SONORA DR","110N6FF","BC","","","NA","","","","","9.0","0","54.0","326.9","0","99.0","0.0","20","","","NA","",""
"-121.494","49.370","HOPE (AUT)","1113541","BC","2.6","0","NA","13.1","0","-5.6","0","","","NA","256.5","2","NA","","12","","","NA","477.9","0.0"
"-121.236","49.275","HOPE SLIDE","1113581","BC","-2.0","0","-0.2","7.0","0","-15.5","0","84.0","0","122.0","282.8","0","161.0","22.0","19","","","NA","619.4","0.0"
"-121.934","50.684","LILLOOET","1114619","BC","-1.7","0","NA","17.5","0","-14.2","0","","","NA","","","NA","","","","","NA","611.9","0.0"
"-121.582","50.224","LYTTON","1114739","BC","-0.5","0","NA","16.5","0","-11.7","0","","","NA","41.5","1","NA","","7","","","NA","573.6","0.0"
"-121.608","50.257","LYTTON 2","1114745","BC","","","NA","","","","","53.1","0","NA","76.1","0","NA","4.0","10","","","NA","",""
"-121.582","50.224","LYTTON RCS","1114746","BC","-0.7","0","NA","16.3","0","-12.0","0","","","NA","47.8","25","NA","","5","","","NA","580.3","0.0"
"-120.069","49.363","HEDLEY N","1123370","BC","-2.6","0","NA","11.0","0","-18.0","0","11.6","0","NA","24.6","0","NA","0.0","7","","","NA","638.5","0.0"
"-120.022","49.369","HEDLEY NP MINE","1123390","BC","-3.9","1","0.6","8.5","1","-18.5","1","55.5","1","NA","55.5","1","NA","52.0","12","","","NA","655.8","0.0"
"-121.017","50.467","HIGHLAND VALLEY LORNEX","1123469","BC","-4.2","0","0.6","11.0","0","-22.0","0","41.5","0","162.0","44.5","0","162.0","0.0","9","","","NA","689.6","0.0"
"-120.333","49.673","JELLICOE","1123721","BC","-4.6","0","NA","8.5","0","-25.0","0","69.8","0","NA","83.4","0","NA","0.0","15","","","NA","700.3","0.0"
"-119.378","49.957","KELOWNA","1123939","BC","-1.6","1","NA","11.2","1","-14.5","1","","","NA","19.3","1","NA","","5","","","NA","587.9","0.0"
"-119.573","49.842","KELOWNA QUAILS GATE","1123993","BC","-0.2","2","NA","13.5","1","-10.5","1","42.0","0","NA","57.0","0","NA","0.0","8","","","NA","527.6","0.0"
"-119.400","49.950","KELOWNA MWS0","11239R0","BC","-1.0","0","NA","12.4","0","-13.5","0","31.6","0","NA","37.6","0","NA","0.0","10","","","NA","587.7","0.0"
"-120.801","50.114","MERRITT STP","1125079","BC","-1.8","0","1.2","16.0","0","-18.5","0","39.5","0","236.0","43.7","0","143.0","0.0","10","","","NA","612.8","0.0"
"-119.545","49.179","OLIVER STP","1125766","BC","-0.1","13","0.7","11.0","12","-10.0","13","0.0","12","NA","9.5","12","NA","0.0","1","","","NA","325.2","0.0"
"-119.441","49.028","OSOYOOS CS","1125852","BC","-0.8","0","0.1","10.0","0","-13.2","0","","","NA","","","NA","","","","","NA","582.8","0.0"
"-119.717","49.783","PEACHLAND","1126070","BC","0.3","0","0.5","13.5","0","-11.5","0","44.0","0","185.0","61.4","0","142.0","0.0","11","","","NA","549.4","0.0"
"-119.602","49.463","PENTICTON A","1126150","BC","-0.2","0","0.4","13.2","0","-13.5","0","13.8","0","75.0","24.2","0","90.0","0.0","7","","","NA","564.0","0.0"
"-120.512","49.468","PRINCETON A","1126510","BC","-4.7","0","0.3","8.7","0","-24.9","0","36.0","0","106.0","53.0","0","134.0","31.0","11","","","NA","702.2","0.0"
"-119.194","50.223","VERNON AUTO","1128582","BC","-3.2","0","NA","9.8","0","-12.8","0","","","NA","66.3","0","NA","","20","","","NA","656.1","0.0"
"-119.270","50.344","VERNON NORTH","1128583","BC","-2.5","0","0.3","10.0","0","-12.0","0","48.8","0","120.0","59.8","0","115.0","19.0","9","","","NA","635.2","0.0"
"-119.054","50.358","VERNON SILVER STAR LODGE","1128584","BC","-6.2","4","NA","3.5","4","-18.5","4","85.5","4","NA","85.5","4","NA","134.0","15","","","NA","653.4","0.0"
"-119.415","50.037","WINFIELD","1128958","BC","-0.9","2","0.9","12.0","2","-11.0","2","26.2","2","NA","35.0","2","NA","1.0","7","","","NA","549.4","0.0"
"-120.512","49.468","PRINCETON CS","112FN0M","BC","-4.5","0","NA","8.9","0","-23.6","0","","","NA","","","NA","","","","","NA","698.7","0.0"
"-119.638","49.564","SUMMERLAND CS","112G8L1","BC","-1.2","0","0.3","12.7","0","-14.3","0","","","NA","","","NA","","","","","NA","594.3","0.0"
"-118.773","49.000","MIDWAY","1135126","BC","-4.3","0","-0.1","6.5","0","-21.5","0","30.0","0","101.0","36.8","0","98.0","23.0","9","","","NA","690.1","0.0"
"-118.228","49.017","BILLINGS","1140876","BC","-2.7","10","0.6","4.5","10","-15.5","10","26.8","10","NA","39.4","10","NA","27.0","9","","","NA","435.7","0.0"
"-117.633","49.296","CASTLEGAR A","1141455","BC","-2.4","0","-0.8","5.6","0","-19.5","0","60.0","0","108.0","73.0","0","97.0","14.0","13","","","NA","632.9","0.0"
"-117.774","49.343","CASTLEGAR BCHPA DAM","1141457","BC","-1.1","2","0.0","5.5","1","-11.0","1","34.0","1","NA","67.0","1","NA","0.0","17","","","NA","555.3","0.0"
"-116.518","49.097","CRESTON","1142160","BC","-1.6","0","0.0","9.0","0","-15.0","0","59.0","0","154.0","88.8","0","130.0","0.0","14","","","NA","607.0","0.0"
"-116.971","50.239","DUNCAN LAKE DAM","1142574","BC","-3.5","0","-0.6","6.0","0","-18.0","0","98.0","0","176.0","171.1","0","184.0","34.0","22","","","NA","666.6","0.0"
"-116.915","49.913","KASLO","1143900","BC","-2.0","0","0.0","5.5","0","-12.5","0","88.8","0","150.0","154.8","0","146.0","28.0","20","","","NA","621.1","0.0"
"-117.813","50.266","NAKUSP CS","1145297","BC","-1.7","0","NA","7.9","0","-11.8","0","","","NA","","","NA","","","","","NA","611.5","0.0"
"-117.206","49.586","NELSON NE","1145442","BC","-0.7","2","NA","7.5","2","-11.5","2","72.8","2","NA","137.8","2","NA","","16","","","NA","543.7","0.0"
"-117.370","49.996","NEW DENVER","1145460","BC","-1.9","0","-0.2","6.5","0","-14.5","0","89.4","0","155.0","161.2","0","160.0","25.0","20","","","NA","617.3","0.0"
"-117.305","49.491","NELSON CS","1145M29","BC","-1.2","0","NA","6.5","0","-12.3","0","","","NA","","","NA","","","","","NA","596.5","0.0"
"-117.739","49.112","WARFIELD RCS","1148705","BC","-2.9","0","NA","7.0","0","-16.5","0","","","NA","104.6","9","NA","","16","","","NA","646.9","0.0"
"-116.501","49.082","CRESTON CAMPBELL SCIENTIFIC","114B1F0","BC","-2.0","3","NA","9.1","3","-15.8","2","","","NA","5.1","6","NA","","2","","","NA","559.8","0.0"
"-117.399","49.512","NELSON RIXEN CREEK","114EMDM","BC","-3.0","1","NA","6.0","1","-17.0","1","77.2","1","NA","121.0","1","NA","63.0","16","","","NA","629.2","0.0"
"-115.782","49.612","CRANBROOK A","1152102","BC","-5.7","0","0.4","7.6","0","-26.4","0","47.2","0","187.0","38.8","0","152.0","19.0","8","","","NA","733.7","0.0"
"-115.072","49.489","FERNIE","1152850","BC","-4.3","1","0.9","8.5","1","-29.0","1","52.5","1","NA","217.3","1","NA","36.0","17","","","NA","669.6","0.0"
"-114.855","50.149","FORDING RIVER COMINCO","1152899","BC","-11.4","19","-1.5","6.6","12","-35.5","13","55.4","12","NA","55.4","12","NA","52.0","11","","","NA","352.2","0.0"
"-115.461","49.524","FT STEELE DANDY CRK","1153034","BC","-4.7","14","NA","8.5","11","-25.0","8","29.0","11","NA","38.8","11","NA","9.0","9","","","NA","386.7","0.0"
"-115.962","49.631","KIMBERLEY PCC","1154203","BC","-6.4","14","0.4","8.0","14","-28.0","14","25.8","14","NA","25.8","14","NA","46.0","4","","","NA","415.1","0.0"
"-116.061","50.631","KOOTENAY NP WEST GATE","1154410","BC","-7.0","3","-0.2","4.0","3","-24.0","3","53.2","3","NA","69.6","3","NA","30.0","13","","","NA","700.8","0.0"
"-114.883","49.745","SPARWOOD","1157630","BC","-6.4","0","0.0","7.0","0","-30.0","0","70.9","0","141.0","78.3","0","145.0","32.0","12","","","NA","757.0","0.0"
"-114.886","49.745","SPARWOOD CS","1157631","BC","-6.6","0","NA","6.8","0","-30.3","0","","","NA","","","NA","","","","","NA","764.1","0.0"
"-115.631","49.824","WASA","1158730","BC","-5.0","0","1.2","8.5","0","-22.5","0","27.0","0","150.0","32.8","0","130.0","20.0","7","","","NA","713.6","0.0"
"-121.281","50.708","ASHCROFT","1160515","BC","-3.6","0","NA","6.9","0","-17.7","0","","","NA","","","NA","","","","","NA","670.9","0.0"
"-119.290","52.129","BLUE RIVER A","1160899","BC","-7.2","0","0.1","5.7","0","-29.0","0","182.3","0","161.0","163.2","0","155.0","90.0","18","","","NA","779.8","0.0"
"-119.290","52.129","BLUE RIVER CS","1160H99","BC","-7.2","0","NA","5.3","0","-28.7","0","","","NA","","","NA","","","","","NA","780.4","0.0"
"-121.083","51.708","BUFFALO LAKE","1161104","BC","-7.4","0","0.4","8.5","0","-29.0","0","63.2","0","162.0","64.2","0","136.0","43.0","14","","","NA","787.8","0.0"
"-121.505","51.145","CLINTON (AUT)","1161661","BC","-6.6","0","NA","7.8","0","-24.6","0","","","NA","38.0","0","NA","","9","","","NA","763.3","0.0"
"-120.728","51.030","CRISS CREEK","1162177","BC","-7.0","0","0.5","10.5","0","-28.5","0","48.2","0","167.0","48.8","0","158.0","39.0","13","","","NA","775.3","0.0"
"-120.183","51.297","DARFIELD","1162265","BC","-4.9","0","-0.4","3.0","0","-18.0","0","51.0","0","157.0","60.2","0","141.0","22.0","16","","","NA","710.9","0.0"
"-120.442","50.702","KAMLOOPS A","1163780","BC","-3.4","0","-0.6","6.2","0","-14.8","0","27.6","0","148.0","25.0","0","118.0","0.0","7","","","NA","662.9","0.0"
"-120.442","50.702","KAMLOOPS AUT","1163842","BC","-3.6","0","NA","6.0","0","-15.9","0","","","NA","28.1","0","NA","","9","","","NA","669.1","0.0"
"-121.217","51.681","100 MILE HOUSE 6NE","1165793","BC","-10.7","0","NA","3.5","0","-34.0","0","73.2","0","NA","74.6","0","NA","47.0","13","","","NA","889.5","0.0"
"-120.800","50.935","RED LAKE","1166658","BC","-5.1","1","1.2","11.0","1","-19.0","1","75.0","1","NA","75.2","1","NA","47.0","13","","","NA","692.0","0.0"
"-120.979","51.845","RUTH LAKE","1166912","BC","-6.6","0","0.1","4.0","0","-25.0","0","85.5","0","196.0","85.5","0","192.0","50.0","16","","","NA","763.0","0.0"
"-119.234","50.686","SALMON ARM A","1166R45","BC","-3.9","2","-0.3","6.5","2","-17.0","2","72.0","2","NA","84.2","2","NA","38.0","16","","","NA","636.3","0.0"
"-119.350","50.545","SILVER CREEK","1167337","BC","-4.2","0","-0.8","7.0","0","-17.0","0","75.7","0","174.0","88.6","0","147.0","46.0","15","","","NA","687.0","0.0"
"-119.556","50.835","TURTLE VALLEY","1168300","BC","-5.6","19","NA","3.0","19","-14.5","19","36.1","19","NA","36.6","19","NA","","7","","","NA","282.7","0.0"
"-119.778","51.576","VAVENBY","1168520","BC","-5.9","0","-0.7","3.0","0","-19.5","0","61.8","0","227.0","71.4","0","181.0","25.0","18","","","NA","740.6","0.0"
"-119.751","50.469","WESTWOLD","1168880","BC","-3.9","13","0.1","9.0","13","-20.0","13","15.0","13","NA","20.2","13","NA","5.0","6","","","NA","394.2","0.0"
"-120.200","50.600","KAMLOOPS PRATT ROAD","116C8P0","BC","-3.8","0","NA","7.0","0","-18.5","0","43.2","0","NA","50.0","0","NA","22.0","13","","","NA","675.4","0.0"
"-119.291","50.703","SALMON ARM CS","116FRMN","BC","-3.2","0","-0.6","5.8","0","-15.0","0","","","NA","","","NA","","","","","NA","658.3","0.0"
"-117.516","51.301","GLACIER NP ROGERS PASS","1173191","BC","-9.0","0","-0.6","1.0","0","-25.0","0","334.0","0","159.0","346.0","0","157.0","163.0","24","","","NA","835.6","0.0"
"-116.982","51.298","GOLDEN A","1173210","BC","-9.2","0","-1.2","2.0","0","-25.0","0","107.2","0","237.0","75.2","0","164.0","68.0","13","","","NA","842.7","0.0"
"-118.585","52.053","MICA DAM","1175122","BC","-5.3","0","-0.5","7.7","0","-16.0","0","279.0","0","181.0","279.0","0","151.0","126.0","20","","","NA","723.0","0.0"
"-118.183","50.961","REVELSTOKE A","1176749","BC","-3.7","0","NA","4.0","0","-18.0","0","","","NA","143.5","3","NA","","16","","","NA","671.5","0.0"
"-118.224","51.012","REVELSTOKE COLUMBIA PARK","1176754","BC","","","NA","","","","","180.0","13","NA","180.0","13","NA","","13","","","NA","",""
"-116.345","51.443","YOHO PARK","11790J1","BC","-11.9","0","NA","-0.2","0","-34.1","0","","","NA","","","NA","","","","","NA","927.0","0.0"
"-117.701","51.236","GLACIER NP MT FIDELITY","117CA90","BC","-9.0","0","-0.8","-0.5","0","-22.0","0","384.0","0","148.0","384.0","0","145.0","264.0","27","","","NA","836.3","0.0"
"-116.540","51.434","YOHO NP EMERALD LAKE","117R00G","BC","","","NA","2.0","5","","","194.9","5","NA","194.9","5","NA","","20","","","NA","",""
"-116.337","51.356","YOHO NP OHARA LAKE","117R00H","BC","-11.2","25","NA","2.0","25","-32.0","25","41.0","25","NA","41.0","25","NA","108.0","3","","","NA","175.4","0.0"
"-121.627","55.687","CHETWYND A","1181508","BC","-9.4","0","0.8","8.0","0","-34.0","0","81.1","0","297.0","53.0","0","251.0","48.0","12","","","NA","848.7","0.0"
"-120.183","55.742","DAWSON CREEK A","1182289","BC","-10.4","8","NA","8.4","8","-33.6","7","","","NA","53.0","7","NA","","7","","","NA","653.3","0.0"
"-120.740","56.238","FORT ST JOHN A","1183000","BC","-11.7","0","1.1","6.5","0","-32.4","0","58.9","0","180.0","58.9","0","232.0","50.0","11","","","NA","922.2","0.0"
"-124.701","55.786","GERMANSEN LANDING","1183090","BC","-12.9","0","0.2","3.4","0","-29.4","0","58.5","0","121.0","65.3","0","130.0","67.0","14","","","NA","958.6","0.0"
"-123.133","55.299","MACKENZIE","1184791","BC","-9.0","0","NA","5.3","0","-27.1","0","","","NA","58.8","0","NA","","9","","","NA","835.5","0.0"
"-122.718","57.250","SIKANNI CHIEF","1187335","BC","-11.3","13","NA","7.4","13","-38.2","13","37.4","13","NA","37.4","13","NA","","9","","","NA","527.5","0.0"
"-130.011","58.428","DEASE LAKE","1192340","BC","-14.5","0","1.5","1.5","0","-40.9","0","","","NA","","","NA","","","","","NA","1008.0","0.0"
"-122.597","58.836","FORT NELSON A","1192940","BC","-19.0","0","1.4","-4.1","0","-42.1","0","33.8","0","118.0","24.2","0","113.0","50.0","8","","","NA","1146.0","0.0"
"-122.600","58.833","FORT NELSON UA","1192950","BC","-18.4","2","NA","-4.0","2","-40.6","2","36.4","2","NA","36.4","2","NA","42.0","8","","","NA","1056.3","0.0"
"-125.767","58.930","MUNCHO LAKE","1195250","BC","-13.7","2","0.4","7.5","2","-42.0","2","64.0","2","NA","72.6","2","NA","48.0","15","","","NA","918.2","0.0"
"-130.025","58.426","DEASE LAKE (AUT)","119BLM0","BC","-14.4","0","NA","1.4","0","-40.7","0","","","NA","37.3","0","NA","","9","","","NA","1004.4","0.0"
"-133.700","59.567","ATLIN","1200560","BC","-12.8","0","0.0","3.5","0","-33.5","0","42.3","0","96.0","42.3","0","93.0","31.0","9","","","NA","953.9","0.0"
"-136.367","59.450","PLEASANT CAMP","1206197","BC","-7.7","0","0.2","3.0","0","-25.0","0","67.0","0","41.0","69.0","0","34.0","0.0","15","","","NA","797.4","0.0"
