Long,Lat,Location,Climate ID,Province,Temp,Snow,Precip,year
-125.767,58.93,MUNCHO LAKE,1195250,BC,-13.7,64.0,72.6,2011
-123.093,49.171,RICHMOND NATURE PARK,1106PF7,BC,4.3,0.0,157.7,2011
-123.303,49.106,SANDHEADS CS,1107010,BC,5.1,,,2011
-123.122,49.295,VANCOUVER HARBOUR CS,1108446,BC,4.8,,255.6,2011
-123.182,49.195,VANCOUVER INT'L A,1108447,BC,4.2,16.1,186.3,2011
-123.193,49.347,WEST VANCOUVER AUT,1108824,BC,4.1,,417.0,2011
-122.947,50.068,WHISTLER ROUNDHOUSE,1108906,BC,-4.7,191.1,209.1,2011
-122.784,49.018,WHITE ROCK CAMPBELL SCIENTIFIC,1108910,BC,4.7,,244.2,2011
-122.967,49.438,N VAN SEYMOUR HATCHERY,110N666,BC,1.2,21.0,341.8,2011
-123.098,49.363,N VANC SONORA DR,110N6FF,BC,,9.0,326.9,2011
-121.494,49.37,HOPE (AUT),1113541,BC,2.6,,256.5,2011
-121.236,49.275,HOPE SLIDE,1113581,BC,-2.0,84.0,282.8,2011
-121.934,50.684,LILLOOET,1114619,BC,-1.7,,,2011
-121.582,50.224,LYTTON,1114739,BC,-0.5,,41.5,2011
-121.608,50.257,LYTTON 2,1114745,BC,,53.1,76.1,2011
-121.582,50.224,LYTTON RCS,1114746,BC,-0.7,,47.8,2011
-120.069,49.363,HEDLEY N,1123370,BC,-2.6,11.6,24.6,2011
-120.022,49.369,HEDLEY NP MINE,1123390,BC,-3.9,55.5,55.5,2011
-121.017,50.467,HIGHLAND VALLEY LORNEX,1123469,BC,-4.2,41.5,44.5,2011
-120.333,49.673,JELLICOE,1123721,BC,-4.6,69.8,83.4,2011
-119.378,49.957,KELOWNA,1123939,BC,-1.6,,19.3,2011
-119.573,49.842,KELOWNA QUAILS GATE,1123993,BC,-0.2,42.0,57.0,2011
-119.4,49.95,KELOWNA MWS0,11239R0,BC,-1.0,31.6,37.6,2011
-120.801,50.114,MERRITT STP,1125079,BC,-1.8,39.5,43.7,2011
-119.545,49.179,OLIVER STP,1125766,BC,-0.1,0.0,9.5,2011
-119.441,49.028,OSOYOOS CS,1125852,BC,-0.8,,,2011
-119.717,49.783,PEACHLAND,1126070,BC,0.3,44.0,61.4,2011
-119.602,49.463,PENTICTON A,1126150,BC,-0.2,13.8,24.2,2011
-120.512,49.468,PRINCETON A,1126510,BC,-4.7,36.0,53.0,2011
-119.194,50.223,VERNON AUTO,1128582,BC,-3.2,,66.3,2011
-123.087,49.179,RICHMOND DALLYN 2,1106764,BC,,13.0,204.2,2011
-119.27,50.344,VERNON NORTH,1128583,BC,-2.5,48.8,59.8,2011
-123.265,49.33,POINT ATKINSON,1106200,BC,5.1,,314.2,2011
-123.119,49.314,N VANCOUVER WHARVES,1105669,BC,,0.3,222.5,2011
-122.678,53.884,PRINCE GEORGE,1096439,BC,-9.5,,9.9,2011
-122.672,53.889,PRINCE GEORGE AIRPORT AUTO,1096453,BC,-8.3,,59.9,2011
-122.852,53.776,PRINCE GEORGE WEST LAKE,1096455,BC,-9.5,64.0,66.6,2011
-122.768,53.88,PRINCE GEORGE STP,1096468,BC,-7.5,88.5,96.9,2011
-122.51,53.026,QUESNEL,1096629,BC,-9.3,,35.9,2011
-122.506,53.027,QUESNEL AIRPORT AUTO,1096631,BC,-8.7,,61.0,2011
-121.686,52.184,SPOKIN LAKE 4E,1097646,BC,-7.9,81.0,86.6,2011
-122.054,52.183,WILLIAMS LAKE A,1098940,BC,-8.1,75.9,67.4,2011
-124.017,54.033,VANDERHOOF,1098D90,BC,-9.2,75.9,86.3,2011
-121.404,51.705,108 MILE HOUSE ABEL LAKE,109E7R6,BC,-6.2,56.0,57.4,2011
-122.36,49.025,ABBOTSFORD A,1100030,BC,3.7,24.2,328.2,2011
-121.76,49.243,AGASSIZ RCS,1100119,BC,3.2,,389.6,2011
-121.76,49.243,AGASSIZ CDA,1100120,BC,3.8,32.0,402.1,2011
-122.955,50.129,WHISTLER - NESTERS,1100875,BC,-2.1,,150.5,2011
-122.936,50.102,BLACKCOMB BASE SLIDING CENTER,1100881,BC,-2.5,,172.9,2011
-122.918,49.278,BURNABY SIMON FRASER U,1101158,BC,3.6,21.0,198.3,2011
-123.111,50.144,CALLAGHAN VALLEY,1101300,BC,-4.4,,162.0,2011
-122.717,49.1,CLOVERDALE EAST,1101708,BC,1.2,22.1,96.7,2011
-122.866,49.269,COQUITLAM COMO LAKE AVE,1101889,BC,,18.1,290.2,2011
-121.7,49.083,CHILLIWACK R HATCHERY,1101N65,BC,1.8,18.8,694.9,2011
-123.002,49.126,DELTA BURNS BOG,1102415,BC,3.8,,12.8,2011
-123.093,49.011,DELTA TSAWWASSEN BEACH,1102425,BC,5.4,16.0,188.6,2011
-122.551,49.144,FORT LANGLEY TELEGRAPH TRAIL,1102912,BC,3.8,12.5,296.4,2011
-122.558,49.204,HANEY EAST,1103326,BC,3.7,10.0,315.2,2011
-122.573,49.264,HANEY UBC RF ADMIN,1103332,BC,3.2,3.5,350.0,2011
-122.507,49.211,MAPLE RIDGE KANAKA CREEK,1104R02,BC,2.5,18.0,338.6,2011
-122.271,49.153,MISSION WEST ABBEY,1105192,BC,2.9,39.0,389.6,2011
-123.078,49.182,RICHMOND OPERATIONS CENTRE,1105210,BC,,,182.4,2011
-123.081,49.368,N VANC GROUSE MTN RESORT,1105658,BC,0.1,84.0,314.3,2011
-122.69,49.208,PITT MEADOWS CS,1106178,BC,3.0,,204.4,2011
-119.054,50.358,VERNON SILVER STAR LODGE,1128584,BC,-6.2,85.5,85.5,2011
-119.415,50.037,WINFIELD,1128958,BC,-0.9,26.2,35.0,2011
-120.512,49.468,PRINCETON CS,112FN0M,BC,-4.5,,,2011
-120.8,50.935,RED LAKE,1166658,BC,-5.1,75.0,75.2,2011
-120.979,51.845,RUTH LAKE,1166912,BC,-6.6,85.5,85.5,2011
-119.234,50.686,SALMON ARM A,1166R45,BC,-3.9,72.0,84.2,2011
-119.35,50.545,SILVER CREEK,1167337,BC,-4.2,75.7,88.6,2011
-119.556,50.835,TURTLE VALLEY,1168300,BC,-5.6,36.1,36.6,2011
-119.778,51.576,VAVENBY,1168520,BC,-5.9,61.8,71.4,2011
-119.751,50.469,WESTWOLD,1168880,BC,-3.9,15.0,20.2,2011
-120.2,50.6,KAMLOOPS PRATT ROAD,116C8P0,BC,-3.8,43.2,50.0,2011
-119.291,50.703,SALMON ARM CS,116FRMN,BC,-3.2,,,2011
-117.516,51.301,GLACIER NP ROGERS PASS,1173191,BC,-9.0,334.0,346.0,2011
-116.982,51.298,GOLDEN A,1173210,BC,-9.2,107.2,75.2,2011
-118.585,52.053,MICA DAM,1175122,BC,-5.3,279.0,279.0,2011
-118.183,50.961,REVELSTOKE A,1176749,BC,-3.7,,143.5,2011
-118.224,51.012,REVELSTOKE COLUMBIA PARK,1176754,BC,,180.0,180.0,2011
-116.345,51.443,YOHO PARK,11790J1,BC,-11.9,,,2011
-117.701,51.236,GLACIER NP MT FIDELITY,117CA90,BC,-9.0,384.0,384.0,2011
-116.54,51.434,YOHO NP EMERALD LAKE,117R00G,BC,,194.9,194.9,2011
-116.337,51.356,YOHO NP OHARA LAKE,117R00H,BC,-11.2,41.0,41.0,2011
-121.627,55.687,CHETWYND A,1181508,BC,-9.4,81.1,53.0,2011
-120.183,55.742,DAWSON CREEK A,1182289,BC,-10.4,,53.0,2011
-120.74,56.238,FORT ST JOHN A,1183000,BC,-11.7,58.9,58.9,2011
-124.701,55.786,GERMANSEN LANDING,1183090,BC,-12.9,58.5,65.3,2011
-123.133,55.299,MACKENZIE,1184791,BC,-9.0,,58.8,2011
-122.718,57.25,SIKANNI CHIEF,1187335,BC,-11.3,37.4,37.4,2011
-130.011,58.428,DEASE LAKE,1192340,BC,-14.5,,,2011
-122.597,58.836,FORT NELSON A,1192940,BC,-19.0,33.8,24.2,2011
-122.6,58.833,FORT NELSON UA,1192950,BC,-18.4,36.4,36.4,2011
-130.025,58.426,DEASE LAKE (AUT),119BLM0,BC,-14.4,,37.3,2011
-133.7,59.567,ATLIN,1200560,BC,-12.8,42.3,42.3,2011
-121.217,51.681,100 MILE HOUSE 6NE,1165793,BC,-10.7,73.2,74.6,2011
-120.442,50.702,KAMLOOPS AUT,1163842,BC,-3.6,,28.1,2011
-120.442,50.702,KAMLOOPS A,1163780,BC,-3.4,27.6,25.0,2011
-120.183,51.297,DARFIELD,1162265,BC,-4.9,51.0,60.2,2011
-119.638,49.564,SUMMERLAND CS,112G8L1,BC,-1.2,,,2011
-118.773,49.0,MIDWAY,1135126,BC,-4.3,30.0,36.8,2011
-118.228,49.017,BILLINGS,1140876,BC,-2.7,26.8,39.4,2011
-117.633,49.296,CASTLEGAR A,1141455,BC,-2.4,60.0,73.0,2011
-117.774,49.343,CASTLEGAR BCHPA DAM,1141457,BC,-1.1,34.0,67.0,2011
-116.518,49.097,CRESTON,1142160,BC,-1.6,59.0,88.8,2011
-116.971,50.239,DUNCAN LAKE DAM,1142574,BC,-3.5,98.0,171.1,2011
-116.915,49.913,KASLO,1143900,BC,-2.0,88.8,154.8,2011
-117.813,50.266,NAKUSP CS,1145297,BC,-1.7,,,2011
-117.206,49.586,NELSON NE,1145442,BC,-0.7,72.8,137.8,2011
-117.37,49.996,NEW DENVER,1145460,BC,-1.9,89.4,161.2,2011
-117.305,49.491,NELSON CS,1145M29,BC,-1.2,,,2011
-117.739,49.112,WARFIELD RCS,1148705,BC,-2.9,,104.6,2011
-116.501,49.082,CRESTON CAMPBELL SCIENTIFIC,114B1F0,BC,-2.0,,5.1,2011
-122.287,52.53,MCLEESE LAKE GRANITE MT,1095018,BC,-7.1,82.7,87.3,2011
-117.399,49.512,NELSON RIXEN CREEK,114EMDM,BC,-3.0,77.2,121.0,2011
-115.072,49.489,FERNIE,1152850,BC,-4.3,52.5,217.3,2011
-114.855,50.149,FORDING RIVER COMINCO,1152899,BC,-11.4,55.4,55.4,2011
-115.461,49.524,FT STEELE DANDY CRK,1153034,BC,-4.7,29.0,38.8,2011
-115.962,49.631,KIMBERLEY PCC,1154203,BC,-6.4,25.8,25.8,2011
-116.061,50.631,KOOTENAY NP WEST GATE,1154410,BC,-7.0,53.2,69.6,2011
-114.883,49.745,SPARWOOD,1157630,BC,-6.4,70.9,78.3,2011
-114.886,49.745,SPARWOOD CS,1157631,BC,-6.6,,,2011
-115.631,49.824,WASA,1158730,BC,-5.0,27.0,32.8,2011
-121.281,50.708,ASHCROFT,1160515,BC,-3.6,,,2011
-119.29,52.129,BLUE RIVER A,1160899,BC,-7.2,182.3,163.2,2011
-119.29,52.129,BLUE RIVER CS,1160H99,BC,-7.2,,,2011
-121.083,51.708,BUFFALO LAKE,1161104,BC,-7.4,63.2,64.2,2011
-121.505,51.145,CLINTON (AUT),1161661,BC,-6.6,,38.0,2011
-120.728,51.03,CRISS CREEK,1162177,BC,-7.0,48.2,48.8,2011
-115.782,49.612,CRANBROOK A,1152102,BC,-5.7,47.2,38.8,2011
-121.364,52.363,HORSEFLY LAKE GRUHS LAKE,1093600,BC,-7.9,116.2,116.7,2011
-124.286,54.455,FORT ST JAMES,1092970,BC,-7.7,23.1,28.7,2011
-125.959,54.383,BURNS LAKE DECKER LAKE,1091174,BC,-11.0,,37.2,2011
-125.993,50.454,FANNY ISLAND,1022795,BC,1.9,,103.6,2011
-123.734,49.154,GABRIOLA ISLAND,1023042,BC,3.9,2.2,108.7,2011
-125.203,50.099,HERIOT BAY SE,1023462,BC,3.2,16.8,243.8,2011
-125.606,49.576,MYRA CREEK,1025254,BC,0.3,28.0,165.8,2011
-123.87,49.054,NANAIMO A,1025370,BC,3.4,36.2,140.6,2011
-123.988,49.199,NANAIMO CITY YARD,10253G0,BC,,86.0,179.0,2011
-127.728,50.976,PINE ISLAND,1026170,BC,5.1,10.0,278.0,2011
-127.366,50.68,PORT HARDY A,1026270,BC,3.9,19.8,260.2,2011
-124.394,49.337,QUALICUM BEACH AIRPORT,1026562,BC,3.5,,87.0,2011
-124.617,49.394,QUALICUM R FISH RESEARCH,1026565,BC,4.0,21.6,157.2,2011
-125.304,50.016,QUINSAM RIVER HATCHERY,1026639,BC,2.2,29.5,205.5,2011
-124.435,49.487,SISTERS ISLAND,1027403,BC,5.6,,,2011
-123.809,49.209,ENTRANCE ISLAND,102BFHH,BC,5.5,1.0,102.4,2011
-124.982,49.337,ALBERNI ROBERTSON CREEK,1030230,BC,0.9,34.0,211.9,2011
-125.216,48.786,CAPE BEALE LIGHT,1031316,BC,5.7,0.0,369.2,2011
-128.427,50.782,CAPE SCOTT,1031353,BC,5.0,8.5,374.5,2011
-124.751,48.612,CARMANAH POINT,1031402,BC,,12.6,398.5,2011
-126.418,49.8,CONUMA RIVER HATCHERY,1031844,BC,,0.0,0.0,2011
-126.551,49.384,ESTEVAN POINT,1032730,BC,5.6,1.0,362.0,2011
-126.543,49.383,ESTEVAN POINT CS,1032731,BC,5.5,,341.2,2011
-126.055,49.779,GOLD RIVER TOWNSITE,1033232,BC,1.8,14.0,380.7,2011
-125.923,49.111,LENNARD ISLAND,1034600,BC,,0.2,381.8,2011
-124.655,48.859,NITINAT RIVER HATCHERY,1035612,BC,3.9,5.5,551.5,2011
-126.617,49.6,NOOTKA LIGHTSTATION,1035614,BC,5.2,0.0,491.5,2011
-125.097,48.723,PACHENA POINT,1035940,BC,5.4,29.2,422.2,2011
-124.752,49.202,PORT ALBERNI COX LAKE,1036208,BC,3.1,4.4,243.4,2011
-127.453,50.386,PORT ALICE,1036240,BC,5.3,13.0,259.6,2011
-127.654,50.533,QUATSINO,1036570,BC,4.2,0.5,271.0,2011
-128.033,50.441,QUATSINO LIGHTSTATION,1036572,BC,5.9,11.0,261.8,2011
-123.811,49.209,ENTRANCE ISLAND,1022689,BC,5.4,,99.2,2011
-125.033,49.686,COURTENAY PUNTLEDGE,1021989,BC,2.7,2.0,80.3,2011
-124.999,49.763,COURTENAY GRANTHAM,1021988,BC,3.0,34.0,134.0,2011
-124.949,50.071,CORTES ISLAND TIBER BAY,1021960,BC,3.2,20.0,167.2,2011
-124.052,48.829,LAKE COWICHAN,1012055,BC,3.3,14.4,206.6,2011
-123.225,48.424,DISCOVERY ISLAND,1012475,BC,5.6,,,2011
-123.728,48.735,DUNCAN KELVIN CREEK,1012573,BC,3.2,53.2,206.0,2011
-123.439,48.432,ESQUIMALT HARBOUR,1012710,BC,4.6,,181.6,2011
-123.573,48.985,GALIANO NORTH,10130MN,BC,4.6,10.4,143.0,2011
-123.53,48.575,MALAHAT,1014820,BC,2.8,,,2011
-123.561,48.374,METCHOSIN,1015105,BC,,10.4,198.2,2011
-123.718,48.824,NORTH COWICHAN,1015628,BC,,1.0,97.2,2011
-123.719,48.824,NORTH COWICHAN,1015630,BC,3.4,,154.5,2011
-123.287,48.764,NORTH PENDER ISLAND,1015638,BC,4.7,29.5,148.1,2011
-124.326,48.591,PORT RENFREW,1016335,BC,4.2,8.5,661.5,2011
-123.419,48.622,SAANICHTON CDA,1016940,BC,4.3,0.0,158.5,2011
-123.546,48.888,SALTSPRING ST MARY'S L,1016995,BC,4.3,25.0,128.4,2011
-123.427,48.598,SAANICHTON MT NEWTON,1016RM0,BC,,18.0,162.4,2011
-124.926,49.317,PORT ALBERNI (AUT),1036B06,BC,1.7,,207.0,2011
-123.128,48.775,SATURNA CAPMON CS,1017099,BC,3.0,,0.0,2011
-123.626,48.647,SHAWNIGAN LAKE,1017230,BC,3.1,42.2,184.8,2011
-123.921,48.377,SHERINGHAM POINT,1017254,BC,5.2,,405.0,2011
-123.305,48.457,VICTORIA UNIVERSITY CS,1018598,BC,5.3,,148.4,2011
-123.443,48.476,VICTORIA FRANCIS PARK,1018605,BC,,13.8,169.6,2011
-123.325,48.413,VICTORIA GONZALES CS,1018611,BC,5.1,,138.6,2011
-123.508,48.509,VICTORIA HIGHLAND,1018616,BC,3.0,0.0,210.3,2011
-123.426,48.647,VICTORIA INT'L A,1018620,BC,4.3,14.8,147.3,2011
-123.539,48.34,WILLIAM HEAD,1018935,BC,5.8,0.0,227.0,2011
-123.459,48.534,VICTORIA HARTLAND CS,1018FJ5,BC,3.7,,222.4,2011
-124.16,49.35,BALLENAS ISLAND,1020590,BC,5.3,,88.0,2011
-125.273,49.952,CAMPBELL RIVER A,1021261,BC,2.5,65.6,215.2,2011
-125.195,49.998,CAPE MUDGE,1021330,BC,3.9,20.0,248.4,2011
-125.433,50.333,CHATHAM POINT,1021480,BC,3.7,47.0,281.2,2011
-124.9,49.717,COMOX A,1021830,BC,3.7,14.0,119.4,2011
-123.045,48.784,SATURNA ISLAND CS,1017101,BC,4.9,,123.0,2011
-136.367,59.45,PLEASANT CAMP,1206197,BC,-7.7,67.0,69.0,2011
-128.908,50.821,SARTINE ISLAND (AUT),1037090,BC,4.9,,,2011
-126.654,49.932,TAHSIS VILLAGE NORTH,1037899,BC,4.8,5.0,358.2,2011
-130.708,54.569,GREEN ISLAND,1063298,BC,3.0,16.0,172.4,2011
-130.698,54.58,GREY ISLET (AUT),1063303,BC,2.2,,275.0,2011
-127.632,50.94,HERBERT ISLAND (AUT),1063461,BC,5.4,,149.6,2011
-130.361,54.172,HOLLAND ROCK,1063496,BC,3.6,,1.6,2011
-128.407,52.27,IVORY ISLAND,1063690,BC,3.7,13.8,352.6,2011
-127.943,53.563,KEMANO,1064020,BC,-2.3,69.5,274.2,2011
-128.634,54.054,KITIMAT TOWNSITE,1064320,BC,-3.2,67.5,318.9,2011
-128.705,54.01,KITIMAT 2,1064321,BC,-0.8,57.5,371.0,2011
-128.641,54.065,KITIMAT 3,1064322,BC,,118.4,362.6,2011
-130.729,54.359,LUCY ISLAND LIGHTSTATION,1064728,BC,3.9,,,2011
-130.445,54.286,PRINCE RUPERT,1066482,BC,2.1,,304.0,2011
-130.29,54.32,PRINCE RUPERT MONT CIRC,1066488,BC,,7.2,392.0,2011
-129.985,55.936,STEWART A,1067742,BC,-2.1,103.3,208.6,2011
-126.067,52.368,STUIE TWEEDSMUIR LODGE,1067776,BC,-2.1,75.8,131.8,2011
-128.578,54.466,TERRACE A,1068130,BC,-3.2,80.4,199.5,2011
-128.625,54.502,TERRACE PCC,1068131,BC,-2.4,39.0,167.2,2011
-130.88,54.295,TRIPLE ISLAND,1068250,BC,4.2,5.5,161.4,2011
-128.682,54.044,KITIMAT HATCHERY,106D289,BC,-0.5,13.4,215.6,2011
-126.277,54.199,EQUITY SILVER,1072692,BC,-8.9,65.1,65.1,2011
-126.668,54.396,HOUSTON,1073615,BC,-8.1,50.0,64.0,2011
-127.183,54.825,SMITHERS,1077499,BC,-7.2,,32.1,2011
-127.183,54.825,SMITHERS A,1077500,BC,-7.3,53.8,64.0,2011
-126.163,54.816,TOPLEY LANDING,1078209,BC,-8.3,54.3,62.9,2011
-127.171,55.289,SUSKWA VALLEY,107G879,BC,-6.8,67.6,105.2,2011
-125.997,53.772,OOTSA L SKINS L SPILLWAY,1085835,BC,-9.6,,,2011
-125.997,53.772,OOTSA LAKESKINS LAKE CLIMATE,1085836,BC,-8.3,,75.5,2011
-122.734,50.306,PEMBERTON AIRPORT CS,1086082,BC,0.0,,25.0,2011
-124.136,52.114,PUNTZI MOUNTAIN (AUT),1086558,BC,-11.4,,,2011
-124.403,51.675,TATLAYOKO LAKE RCS,1088015,BC,-5.2,,71.2,2011
-127.835,51.247,EGG ISLAND,1062646,BC,4.1,28.2,384.6,2011
-128.112,52.185,DRYAD POINT,1062544,BC,3.7,17.0,379.0,2011
-131.601,53.03,CUMSHEWA ISLAND,1062251,BC,5.1,,,2011
-127.47,52.187,CATHEDRAL POINT (AUT),1061458,BC,1.7,,,2011
-125.773,49.082,TOFINO A,1038205,BC,5.2,0.0,423.4,2011
-125.527,48.945,UCLUELET KENNEDY CAMP,1038332,BC,5.3,9.0,462.8,2011
-126.779,50.053,ZEBALLOS MURAUDE CREEK,1039035,BC,2.9,11.0,486.3,2011
-123.421,49.366,BOWEN ISLAND BOWEN BAY,104090R,BC,,0.0,218.3,2011
-123.402,49.36,BOWEN ISLAND SUNSET PARK,104091B,BC,,19.0,235.6,2011
-123.541,49.386,GIBSONS GOWER POINT,1043152,BC,4.4,3.0,174.4,2011
-123.853,50.165,MALIBU JERVIS INLET,1044840,BC,2.5,37.5,353.2,2011
-123.913,49.468,MERRY ISLAND LIGHTSTATION,1045100,BC,5.5,0.0,144.6,2011
-123.299,49.488,HOWE SOUND - PAM ROCKS,10459NN,BC,3.8,,116.6,2011
-124.032,49.634,PENDER HARBOUR,1046115,BC,,11.6,187.2,2011
-123.496,49.526,PORT MELLON,1046332,BC,3.8,,337.1,2011
-124.5,49.834,POWELL RIVER A,1046391,BC,3.3,34.4,182.7,2011
-124.497,49.835,POWELL RIVER,1046392,BC,3.1,,249.3,2011
-123.715,49.458,SECHELT AUT,1047172,BC,3.7,,177.0,2011
-127.94,50.112,SOLANDER ISLAND (AUT),1037553,BC,5.6,,168.4,2011
-123.161,49.783,SQUAMISH AIRPORT,10476F0,BC,1.2,,434.4,2011
-132.772,53.316,KINDAKUN ROCKS (AUT),1054222,BC,5.0,,120.4,2011
-133.058,54.255,LANGARA,1054500,BC,3.8,12.4,211.2,2011
-133.058,54.255,LANGARA ISLAND RCS,1054503,BC,3.6,,63.5,2011
-132.167,54.0,MASSET A,1054925,BC,3.4,19.9,144.5,2011
-131.661,54.159,ROSE SPIT (AUT),1056869,BC,3.6,,114.0,2011
-131.813,53.254,SANDSPIT A,1057050,BC,4.3,0.6,68.2,2011
-131.814,53.254,SANDSPIT,1057052,BC,3.7,,0.0,2011
-131.814,53.254,SANDSPIT AWOS,1057055,BC,3.9,,68.0,2011
-127.864,51.604,ADDENBROKE ISLAND,1060080,BC,4.0,15.0,613.6,2011
-128.157,52.185,BELLA BELLA A,1060811,BC,2.0,,310.5,2011
-126.596,52.388,BELLA COOLA A,1060841,BC,-0.3,35.0,178.4,2011
-128.524,52.643,BOAT BLUFF,1060901,BC,3.5,28.2,717.2,2011
-130.638,53.493,BONILLA ISLAND,1060902,BC,4.4,5.2,267.8,2011
-130.633,53.5,BONILLA ISLAND (AUT),1060R0K,BC,4.3,,108.4,2011
-122.955,50.129,WHISTLER,1048898,BC,-2.3,96.4,301.4,2011
-124.133,48.824,COWICHAN LAKE FORESTRY,1012040,BC,3.0,41.5,264.7,2011
-123.742,48.935,CHEMAINUS,1011500,BC,4.3,38.0,170.6,2011
-118.773,49.0,MIDWAY,1135126,BC,-7.0,27.0,27.0,2012
-120.022,49.369,HEDLEY NP MINE,1123390,BC,-4.8,41.0,41.0,2012
-120.069,49.364,HEDLEY N,1123370,BC,-5.1,12.0,12.0,2012
-121.582,50.224,LYTTON RCS,1114746,BC,-0.5,,77.1,2012
-121.608,50.257,LYTTON 2,1114745,BC,,57.1,126.3,2012
-121.582,50.224,LYTTON,1114739,BC,-0.3,,83.0,2012
-121.934,50.684,LILLOOET,1114619,BC,-1.1,,,2012
-120.333,49.673,JELLICOE,1123721,BC,-5.8,77.5,94.9,2012
-121.236,49.275,HOPE SLIDE,1113581,BC,-2.9,162.0,301.4,2012
-121.498,49.368,HOPE (AUT),1113541,BC,1.0,,339.5,2012
-122.967,49.438,N VAN SEYMOUR HATCHERY,110N666,BC,0.8,35.2,513.0,2012
-122.784,49.018,WHITE ROCK CAMPBELL SCIENTIFIC,1108910,BC,4.0,,114.0,2012
-122.947,50.068,WHISTLER ROUNDHOUSE,1108906,BC,-6.2,217.2,217.2,2012
-123.193,49.347,WEST VANCOUVER AUT,1108824,BC,3.4,,247.2,2012
-123.182,49.195,VANCOUVER INT'L A,1108447,BC,3.6,5.6,135.6,2012
-121.498,49.368,HOPE,1113542,BC,1.0,,0.0,2012
-123.122,49.295,VANCOUVER HARBOUR CS,1108446,BC,4.3,,198.6,2012
-119.378,49.957,KELOWNA,1123939,BC,-3.3,,11.0,2012
-119.4,49.95,KELOWNA MWS0,11239R0,BC,-2.4,27.2,22.5,2012
-120.51,49.465,PRINCETON CS,112FN0M,BC,-6.0,,39.7,2012
-119.415,50.037,WINFIELD,1128958,BC,-2.1,27.4,30.8,2012
-119.054,50.358,VERNON SILVER STAR LODGE,1128584,BC,-7.9,130.0,130.0,2012
-119.27,50.344,VERNON NORTH,1128583,BC,-2.7,40.9,41.3,2012
-119.194,50.223,VERNON AUTO,1128582,BC,-3.6,,22.6,2012
-119.309,50.264,VERNON BELLA VISTA,1128553,BC,-2.3,,,2012
-119.573,49.842,KELOWNA QUAILS GATE,1123993,BC,-0.2,6.0,17.4,2012
-120.513,49.468,PRINCETON A,1126510,BC,-6.3,47.4,50.2,2012
-119.717,49.783,PEACHLAND,1126070,BC,-0.8,45.0,49.8,2012
-119.441,49.028,OSOYOOS CS,1125852,BC,-2.4,,,2012
-119.545,49.179,OLIVER STP,1125766,BC,-2.3,5.5,5.5,2012
-119.444,50.056,OKANAGAN CENTRE,1125700,BC,-0.9,25.6,34.4,2012
-120.801,50.114,MERRITT STP,1125079,BC,-2.5,22.0,38.6,2012
-120.778,50.113,MERRITT,1125073,BC,-3.0,,,2012
-119.602,49.463,PENTICTON A,1126150,BC,-1.7,24.0,20.7,2012
-119.638,49.564,SUMMERLAND CS,112G8L1,BC,-2.3,,,2012
-122.11,49.113,SUMAS CANAL,1107785,BC,0.2,34.0,241.5,2012
-123.087,49.179,RICHMOND DALLYN 2,1106764,BC,,5.4,157.6,2012
-122.955,50.129,WHISTLER - NESTERS,1100875,BC,-2.6,,119.5,2012
-121.76,49.243,AGASSIZ CDA,1100120,BC,4.1,19.0,290.8,2012
-121.76,49.243,AGASSIZ RCS,1100119,BC,1.8,,267.6,2012
-122.36,49.025,ABBOTSFORD A,1100030,BC,2.5,35.6,180.9,2012
-121.404,51.705,108 MILE HOUSE ABEL LAKE,109E7R6,BC,-5.5,28.0,28.0,2012
-122.489,52.541,CASTLE ROCK 6 NORTH,109A4NG,BC,-5.7,33.4,39.4,2012
-122.936,50.102,BLACKCOMB BASE SLIDING CENTER,1100881,BC,-3.8,,127.8,2012
-124.017,54.033,VANDERHOOF,1098D90,BC,-7.1,30.5,49.7,2012
-121.686,52.184,SPOKIN LAKE 4E,1097646,BC,-7.4,35.0,47.8,2012
-122.506,53.027,QUESNEL AIRPORT AUTO,1096631,BC,-6.9,,29.7,2012
-122.51,53.026,QUESNEL,1096629,BC,-6.4,,30.2,2012
-122.768,53.88,PRINCE GEORGE STP,1096468,BC,-5.5,32.6,40.4,2012
-122.672,53.889,PRINCE GEORGE AIRPORT AUTO,1096453,BC,-6.6,,34.7,2012
-122.678,53.884,PRINCE GEORGE,1096439,BC,-5.3,,11.0,2012
-122.054,52.183,WILLIAMS LAKE A,1098940,BC,-6.9,57.5,30.8,2012
-123.303,49.106,SANDHEADS CS,1107010,BC,4.5,,,2012
-122.918,49.278,BURNABY SIMON FRASER U,1101158,BC,1.7,20.9,259.5,2012
-121.925,49.172,CHILLIWACK,1101530,BC,1.6,78.2,297.5,2012
-123.265,49.33,POINT ATKINSON,1106200,BC,4.8,,130.7,2012
-122.69,49.208,PITT MEADOWS CS,1106178,BC,2.4,,222.9,2012
-123.119,49.314,N VANCOUVER WHARVES,1105669,BC,,1.7,232.9,2012
-123.081,49.368,N VANC GROUSE MTN RESORT,1105658,BC,-0.6,27.0,27.0,2012
-123.078,49.182,RICHMOND OPERATIONS CENTRE,1105210,BC,,,151.2,2012
-122.271,49.153,MISSION WEST ABBEY,1105192,BC,1.6,67.3,284.5,2012
-123.111,50.144,CALLAGHAN VALLEY,1101300,BC,-3.4,,96.6,2012
-122.507,49.211,MAPLE RIDGE KANAKA CREEK,1104R02,BC,1.3,37.0,283.4,2012
-122.573,49.264,HANEY UBC RF ADMIN,1103332,BC,2.1,18.9,296.7,2012
-122.551,49.144,FORT LANGLEY TELEGRAPH TRAIL,1102912,BC,2.4,37.6,233.4,2012
-123.093,49.011,DELTA TSAWWASSEN BEACH,1102425,BC,4.4,4.6,118.4,2012
-123.002,49.126,DELTA BURNS BOG,1102415,BC,2.6,,128.0,2012
-121.7,49.083,CHILLIWACK R HATCHERY,1101N65,BC,1.1,74.5,272.7,2012
-122.866,49.269,COQUITLAM COMO LAKE AVE,1101889,BC,,22.2,303.9,2012
-121.58,49.357,LAIDLAW,1104488,BC,0.9,53.0,344.5,2012
-118.228,49.017,BILLINGS,1140876,BC,-4.8,26.2,26.8,2012
-117.633,49.296,CASTLEGAR A,1141455,BC,-3.0,48.2,49.4,2012
-117.774,49.343,CASTLEGAR BCHPA DAM,1141457,BC,-1.2,35.6,45.2,2012
-116.541,51.433,YOHO NP EMERALD LAKE,117R00G,BC,-8.2,131.5,131.5,2012
-117.701,51.236,GLACIER NP MT FIDELITY,117CA90,BC,-9.1,,,2012
-116.344,51.443,YOHO PARK,11790J1,BC,-11.2,,,2012
-118.224,51.012,REVELSTOKE COLUMBIA PARK,1176754,BC,,57.0,57.0,2012
-118.183,50.961,REVELSTOKE A,1176749,BC,-3.5,,150.0,2012
-118.183,50.967,REVELSTOKE,1176745,BC,-3.1,,50.8,2012
-116.337,51.356,YOHO NP OHARA LAKE,117R00H,BC,-6.3,14.0,14.0,2012
-118.585,52.053,MICA DAM,1175122,BC,-5.2,252.5,263.5,2012
-116.982,51.298,GOLDEN A,1173210,BC,-7.5,70.4,50.0,2012
-117.516,51.301,GLACIER NP ROGERS PASS,1173191,BC,-8.9,279.0,285.0,2012
-119.918,50.902,SUN PEAKS UPPER,116QK0M,BC,-10.8,84.0,84.0,2012
-119.291,50.703,SALMON ARM CS,116FRMN,BC,-2.9,,27.5,2012
-120.2,50.6,KAMLOOPS PRATT ROAD,116C8P0,BC,-3.7,24.4,24.8,2012
-119.751,50.469,WESTWOLD,1168880,BC,-5.5,12.0,12.0,2012
-118.425,51.63,GOLDSTREAM RIVER,1173242,BC,-8.9,160.0,166.0,2012
-119.778,51.576,VAVENBY,1168520,BC,-5.0,41.6,49.8,2012
-121.016,56.298,CHARLIE LAKE,11814FR,BC,-10.1,37.0,37.0,2012
-120.183,55.742,DAWSON CREEK A,1182289,BC,-7.9,,9.5,2012
-136.367,59.45,PLEASANT CAMP,1206197,BC,-8.0,301.0,311.0,2012
-133.7,59.567,ATLIN,1200560,BC,-13.1,56.2,56.2,2012
-130.025,58.426,DEASE LAKE (AUT),119BLM0,BC,-16.4,,19.2,2012
-124.232,58.653,TETSA RIVER,1195J29,BC,-17.9,6.8,6.8,2012
-125.767,58.93,MUNCHO LAKE,1195250,BC,-14.3,48.0,48.0,2012
-122.6,58.833,FORT NELSON UA,1192950,BC,-19.4,17.4,17.4,2012
-121.627,55.687,CHETWYND A,1181508,BC,-7.4,23.1,23.0,2012
-122.597,58.836,FORT NELSON A,1192940,BC,-20.0,24.8,22.0,2012
-120.688,56.167,TAYLOR FLATS,1188020,BC,,30.0,33.0,2012
-122.718,57.25,SIKANNI CHIEF,1187335,BC,-11.3,17.6,17.6,2012
-123.133,55.299,MACKENZIE,1184791,BC,-7.9,,59.1,2012
-123.138,55.305,MACKENZIE A,1184790,BC,-9.0,,66.5,2012
-124.701,55.786,GERMANSEN LANDING,1183090,BC,-11.7,50.8,53.9,2012
-120.74,56.238,FORT ST JOHN A,1183000,BC,-8.9,32.0,34.4,2012
-130.031,58.422,DEASE LAKE A,1192341,BC,-15.0,,,2012
-119.35,50.545,SILVER CREEK,1167337,BC,-2.8,36.4,40.0,2012
-119.234,50.686,SALMON ARM A,1166R45,BC,-3.7,52.0,57.3,2012
-120.8,50.935,RED LAKE,1166658,BC,-6.2,41.5,41.5,2012
-115.782,49.612,CRANBROOK A,1152102,BC,-4.7,28.0,23.4,2012
-115.221,49.226,BAYNES LAKE KOOTENAY RIVER,1150690,BC,-3.0,13.6,27.8,2012
-117.399,49.512,NELSON RIXEN CREEK,114EMDM,BC,-3.1,72.0,86.6,2012
-116.501,49.082,CRESTON CAMPBELL SCIENTIFIC,114B1F0,BC,-1.2,,37.9,2012
-117.739,49.112,WARFIELD RCS,1148705,BC,-3.0,,50.9,2012
-117.305,49.491,NELSON CS,1145M29,BC,-1.4,,,2012
-115.072,49.489,FERNIE,1152850,BC,-1.5,33.0,64.9,2012
-117.37,49.996,NEW DENVER,1145460,BC,-2.2,99.0,126.2,2012
-117.817,50.269,NAKUSP CS,1145297,BC,-2.0,,129.9,2012
-116.458,49.032,LISTER,1144635,BC,-1.1,34.5,56.7,2012
-116.915,49.913,KASLO,1143900,BC,-2.1,91.4,128.0,2012
-118.068,49.872,FAUQUIER,1142820,BC,-2.3,44.0,61.4,2012
-116.971,50.239,DUNCAN LAKE DAM,1142574,BC,-2.9,70.5,96.9,2012
-116.518,49.097,CRESTON,1142160,BC,-0.8,52.0,65.4,2012
-117.206,49.586,NELSON NE,1145442,BC,-1.1,84.4,109.4,2012
-114.855,50.149,FORDING RIVER COMINCO,1152899,BC,-17.7,19.0,19.0,2012
-115.461,49.524,FT STEELE DANDY CRK,1153034,BC,-6.0,21.0,21.4,2012
-115.962,49.631,KIMBERLEY PCC,1154203,BC,-5.4,38.0,38.0,2012
-121.217,51.681,100 MILE HOUSE 6NE,1165793,BC,-8.4,37.2,37.6,2012
-120.442,50.702,KAMLOOPS AUT,1163842,BC,-2.5,,14.4,2012
-120.442,50.702,KAMLOOPS A,1163780,BC,-2.4,17.4,14.8,2012
-120.183,51.297,DARFIELD,1162265,BC,-4.3,25.4,32.2,2012
-120.728,51.03,CRISS CREEK,1162177,BC,-7.2,30.8,31.8,2012
-121.505,51.145,CLINTON (AUT),1161661,BC,-7.1,,9.5,2012
-121.083,51.708,BUFFALO LAKE,1161104,BC,-5.3,18.0,18.0,2012
-119.29,52.129,BLUE RIVER CS,1160H99,BC,-7.3,,,2012
-119.29,52.129,BLUE RIVER A,1160899,BC,-7.2,128.5,108.8,2012
-121.281,50.708,ASHCROFT,1160515,BC,-3.3,,,2012
-115.631,49.824,WASA,1158730,BC,-3.9,13.6,16.6,2012
-115.46,49.473,WARDNER KTNY HATCHERY,1158692,BC,-2.7,28.0,31.0,2012
-114.886,49.745,SPARWOOD CS,1157631,BC,-6.1,,,2012
-114.883,49.745,SPARWOOD,1157630,BC,-5.8,76.8,65.2,2012
-116.061,50.631,KOOTENAY NP WEST GATE,1154410,BC,-5.9,53.4,61.6,2012
-122.287,52.53,MCLEESE LAKE GRANITE MT,1095018,BC,-10.0,36.0,36.0,2012
-121.364,52.363,HORSEFLY LAKE GRUHS LAKE,1093600,BC,-6.6,42.0,43.0,2012
-123.093,49.171,RICHMOND NATURE PARK,1106PF7,BC,3.1,4.1,160.6,2012
-124.286,54.455,FORT ST JAMES,1092970,BC,-10.1,3.6,9.6,2012
-125.304,50.016,QUINSAM RIVER HATCHERY,1026639,BC,2.0,8.5,237.7,2012
-124.617,49.394,QUALICUM R FISH RESEARCH,1026565,BC,3.5,6.8,284.6,2012
-124.394,49.337,QUALICUM BEACH AIRPORT,1026562,BC,3.0,,136.1,2012
-127.366,50.68,PORT HARDY A,1026270,BC,2.7,4.4,383.3,2012
-127.728,50.976,PINE ISLAND,1026170,BC,3.9,14.4,505.2,2012
-123.988,49.199,NANAIMO CITY YARD,10253G0,BC,,95.0,284.4,2012
-124.435,49.487,SISTERS ISLAND,1027403,BC,5.0,,,2012
-123.87,49.054,NANAIMO A,1025370,BC,2.7,14.8,172.6,2012
-125.203,50.099,HERIOT BAY SE,1023462,BC,2.8,5.0,182.0,2012
-123.734,49.154,GABRIOLA ISLAND,1023042,BC,3.2,7.5,103.2,2012
-125.992,50.453,FANNY ISLAND,1022795,BC,3.4,,285.6,2012
-123.811,49.209,ENTRANCE ISLAND,1022689,BC,5.1,,61.6,2012
-125.033,49.686,COURTENAY PUNTLEDGE,1021989,BC,2.0,4.0,279.3,2012
-122.699,53.532,HIXON,1093474,BC,-7.1,44.6,56.6,2012
-125.606,49.576,MYRA CREEK,1025254,BC,-0.2,63.5,597.6,2012
-123.809,49.209,ENTRANCE ISLAND,102BFHH,BC,5.2,2.0,112.2,2012
-124.982,49.337,ALBERNI ROBERTSON CREEK,1030230,BC,1.2,15.0,301.5,2012
-125.216,48.786,CAPE BEALE LIGHT,1031316,BC,4.9,5.0,455.6,2012
-124.926,49.317,PORT ALBERNI (AUT),1036B06,BC,1.1,,367.2,2012
-128.033,50.441,QUATSINO LIGHTSTATION,1036572,BC,4.7,7.8,561.2,2012
-127.654,50.533,QUATSINO,1036570,BC,1.4,7.4,284.4,2012
-127.453,50.386,PORT ALICE,1036240,BC,3.5,5.0,679.2,2012
-124.752,49.202,PORT ALBERNI COX LAKE,1036208,BC,2.5,22.6,515.0,2012
-125.097,48.723,PACHENA POINT,1035940,BC,4.8,7.2,448.6,2012
-126.617,49.6,NOOTKA LIGHTSTATION,1035614,BC,4.4,10.0,596.2,2012
-124.655,48.859,NITINAT RIVER HATCHERY,1035612,BC,3.3,6.1,797.9,2012
-125.923,49.111,LENNARD ISLAND,1034600,BC,5.2,6.6,709.2,2012
-126.055,49.779,GOLD RIVER TOWNSITE,1033232,BC,1.4,15.0,495.5,2012
-126.545,49.383,ESTEVAN POINT CS,1032731,BC,4.6,,685.6,2012
-126.551,49.384,ESTEVAN POINT,1032730,BC,4.7,17.8,738.5,2012
-126.418,49.8,CONUMA RIVER HATCHERY,1031844,BC,,5.0,910.1,2012
-124.751,48.612,CARMANAH POINT,1031402,BC,,12.0,379.5,2012
-128.427,50.782,CAPE SCOTT,1031353,BC,8.3,0.0,154.0,2012
-124.949,50.071,CORTES ISLAND TIBER BAY,1021960,BC,2.7,10.4,137.4,2012
-128.908,50.821,SARTINE ISLAND (AUT),1037090,BC,4.8,,263.8,2012
-124.9,49.717,COMOX A,1021830,BC,2.9,6.8,184.5,2012
-125.195,49.998,CAPE MUDGE,1021330,BC,3.5,11.0,255.8,2012
-123.419,48.622,SAANICHTON CDA,1016940,BC,3.9,14.8,134.4,2012
-124.326,48.591,PORT RENFREW,1016335,BC,3.3,20.0,629.2,2012
-123.287,48.764,NORTH PENDER ISLAND,1015638,BC,4.3,8.0,95.7,2012
-123.719,48.824,NORTH COWICHAN,1015630,BC,2.6,,173.9,2012
-123.718,48.824,NORTH COWICHAN,1015628,BC,,0.0,98.1,2012
-123.561,48.374,METCHOSIN,1015105,BC,,38.0,185.8,2012
-123.546,48.888,SALTSPRING ST MARY'S L,1016995,BC,3.9,8.0,112.8,2012
-123.53,48.575,MALAHAT,1014820,BC,1.9,,,2012
-123.439,48.432,ESQUIMALT HARBOUR,1012710,BC,3.8,,144.2,2012
-123.728,48.735,DUNCAN KELVIN CREEK,1012573,BC,2.7,20.0,260.3,2012
-123.225,48.424,DISCOVERY ISLAND,1012475,BC,5.2,,,2012
-124.052,48.829,LAKE COWICHAN,1012055,BC,2.1,13.2,402.2,2012
-124.133,48.824,COWICHAN LAKE FORESTRY,1012040,BC,2.2,0.0,408.1,2012
-123.742,48.935,CHEMAINUS,1011500,BC,3.8,11.4,240.6,2012
-123.573,48.985,GALIANO NORTH,10130MN,BC,4.5,10.0,152.6,2012
-123.427,48.598,SAANICHTON MT NEWTON,1016RM0,BC,,17.0,102.6,2012
-123.128,48.775,SATURNA CAPMON,1017098,BC,3.2,12.0,93.2,2012
-123.128,48.775,SATURNA CAPMON CS,1017099,BC,2.9,,73.5,2012
-125.208,49.945,CAMPBELL RIVER SURFSIDE,1021266,BC,,0.0,206.8,2012
-125.273,49.952,CAMPBELL RIVER A,1021261,BC,2.0,26.8,205.8,2012
-125.095,49.803,BLACK CREEK SE,1020881,BC,2.0,3.0,285.4,2012
-124.16,49.35,BALLENAS ISLAND,1020590,BC,4.6,,79.0,2012
-123.459,48.534,VICTORIA HARTLAND CS,1018FJ5,BC,2.9,,179.0,2012
-123.539,48.34,WILLIAM HEAD,1018935,BC,4.9,21.6,136.4,2012
-123.426,48.647,VICTORIA INT'L A,1018620,BC,3.6,9.6,113.1,2012
-123.484,48.55,VICTORIA HIGHLANDS NORTH,1018618,BC,2.2,37.0,226.0,2012
-123.508,48.509,VICTORIA HIGHLAND,1018616,BC,3.1,0.0,54.6,2012
-123.325,48.413,VICTORIA GONZALES CS,1018611,BC,4.4,,99.6,2012
-123.443,48.476,VICTORIA FRANCIS PARK,1018605,BC,,32.8,184.2,2012
-123.305,48.457,VICTORIA UNIVERSITY CS,1018598,BC,4.1,,111.0,2012
-123.921,48.377,SHERINGHAM POINT,1017254,BC,4.9,,150.0,2012
-123.626,48.647,SHAWNIGAN LAKE,1017230,BC,2.4,23.0,238.4,2012
-123.045,48.784,SATURNA ISLAND CS,1017101,BC,3.4,,47.2,2012
-125.433,50.333,CHATHAM POINT,1021480,BC,3.2,9.2,306.0,2012
-127.94,50.112,SOLANDER ISLAND (AUT),1037553,BC,5.2,,0.0,2012
-124.999,49.763,COURTENAY GRANTHAM,1021988,BC,2.3,10.0,216.6,2012
-126.654,49.932,TAHSIS VILLAGE NORTH,1037899,BC,3.1,0.0,431.2,2012
-126.067,52.368,STUIE TWEEDSMUIR LODGE,1067776,BC,-3.0,69.6,263.8,2012
-129.985,55.936,STEWART A,1067742,BC,-3.7,284.1,351.3,2012
-130.29,54.32,PRINCE RUPERT MONT CIRC,1066488,BC,,14.4,439.4,2012
-130.445,54.286,PRINCE RUPERT AWOS,1066483,BC,1.1,,245.5,2012
-130.445,54.286,PRINCE RUPERT,1066482,BC,0.5,,186.2,2012
-130.729,54.359,LUCY ISLAND LIGHTSTATION,1064728,BC,1.8,,,2012
-128.578,54.466,TERRACE A,1068130,BC,-4.0,215.8,338.4,2012
-128.641,54.065,KITIMAT 3,1064322,BC,,269.2,553.9,2012
-128.634,54.054,KITIMAT TOWNSITE,1064320,BC,-2.9,302.0,647.0,2012
-127.943,53.563,KEMANO,1064020,BC,-2.1,103.0,511.0,2012
-128.407,52.27,IVORY ISLAND,1063690,BC,2.8,0.6,470.0,2012
-130.361,54.172,HOLLAND ROCK,1063496,BC,-0.7,,,2012
-127.632,50.94,HERBERT ISLAND (AUT),1063461,BC,3.9,,113.0,2012
-130.698,54.58,GREY ISLET (AUT),1063303,BC,,,721.2,2012
-128.705,54.01,KITIMAT 2,1064321,BC,-1.9,177.0,618.8,2012
-130.708,54.569,GREEN ISLAND,1063298,BC,1.8,39.3,256.7,2012
-128.625,54.502,TERRACE PCC,1068131,BC,-2.9,132.5,254.5,2012
-128.682,54.044,KITIMAT HATCHERY,106D289,BC,-3.8,82.8,242.8,2012
-121.515,53.069,BARKERVILLE,1090660,BC,-8.9,128.5,140.6,2012
-124.403,51.675,TATLAYOKO LAKE RCS,1088015,BC,-5.2,,52.0,2012
-124.136,52.114,PUNTZI MOUNTAIN (AUT),1086558,BC,-11.4,,,2012
-122.734,50.306,PEMBERTON AIRPORT CS,1086082,BC,-2.8,,118.1,2012
-125.997,53.772,OOTSA LAKESKINS LAKE CLIMATE,1085836,BC,-7.1,,32.3,2012
-125.997,53.772,OOTSA L SKINS L SPILLWAY,1085835,BC,-8.7,,,2012
-130.88,54.295,TRIPLE ISLAND,1068250,BC,2.4,6.0,142.6,2012
-127.171,55.289,SUSKWA VALLEY,107G879,BC,-8.3,80.6,110.0,2012
-127.183,54.825,SMITHERS A,1077500,BC,-6.7,61.0,85.0,2012
-127.183,54.825,SMITHERS,1077499,BC,-6.6,,43.6,2012
-129.029,55.238,NASS CAMP,1075384,BC,-5.1,135.0,187.6,2012
-126.668,54.396,HOUSTON,1073615,BC,-6.0,17.0,29.8,2012
-126.277,54.199,EQUITY SILVER,1072692,BC,-12.7,26.9,26.9,2012
-125.46,54.446,BABINE LAKE PINKUT CREEK,1070573,BC,-7.2,40.0,53.5,2012
-126.163,54.816,TOPLEY LANDING,1078209,BC,-8.1,41.5,58.8,2012
-127.835,51.247,EGG ISLAND,1062646,BC,3.2,5.6,582.4,2012
-125.959,54.383,BURNS LAKE DECKER LAKE,1091174,BC,-10.4,,32.8,2012
-123.496,49.526,PORT MELLON,1046332,BC,3.2,,445.0,2012
-122.955,50.129,WHISTLER,1048898,BC,-3.1,109.2,276.2,2012
-123.715,49.458,SECHELT AUT,1047172,BC,3.2,,90.0,2012
-124.497,49.835,POWELL RIVER,1046392,BC,2.5,,169.5,2012
-124.5,49.834,POWELL RIVER A,1046391,BC,2.9,9.8,143.2,2012
-128.112,52.185,DRYAD POINT,1062544,BC,2.6,16.2,486.8,2012
-124.032,49.634,PENDER HARBOUR,1046115,BC,,2.6,131.6,2012
-131.016,51.936,CAPE ST JAMES CS,1051351,BC,2.9,,0.0,2012
-123.299,49.488,HOWE SOUND - PAM ROCKS,10459NN,BC,3.7,,,2012
-123.853,50.165,MALIBU JERVIS INLET,1044840,BC,1.5,14.0,281.9,2012
-123.541,49.386,GIBSONS GOWER POINT,1043152,BC,4.2,6.0,157.2,2012
-123.421,49.366,BOWEN ISLAND BOWEN BAY,104090R,BC,,3.0,138.3,2012
-126.779,50.053,ZEBALLOS MURAUDE CREEK,1039035,BC,1.4,67.8,,2012
-125.527,48.945,UCLUELET KENNEDY CAMP,1038332,BC,4.2,17.6,789.8,2012
-125.773,49.082,TOFINO A,1038205,BC,4.6,5.6,697.5,2012
-123.913,49.468,MERRY ISLAND LIGHTSTATION,1045100,BC,5.5,2.2,101.0,2012
-132.772,53.316,KINDAKUN ROCKS (AUT),1054222,BC,7.0,,42.0,2012
-123.161,49.783,SQUAMISH AIRPORT,10476F0,BC,1.2,,426.9,2012
-133.058,54.255,LANGARA ISLAND RCS,1054503,BC,2.4,,,2012
-131.601,53.03,CUMSHEWA ISLAND,1062251,BC,5.2,,,2012
-127.47,52.187,CATHEDRAL POINT (AUT),1061458,BC,2.7,,293.0,2012
-130.633,53.5,BONILLA ISLAND (AUT),1060R0K,BC,4.5,,0.0,2012
-130.638,53.493,BONILLA ISLAND,1060902,BC,2.7,21.4,296.6,2012
-133.058,54.255,LANGARA,1054500,BC,1.8,30.0,225.0,2012
-126.596,52.388,BELLA COOLA A,1060841,BC,-1.8,54.0,412.6,2012
-128.157,52.185,BELLA BELLA,1060815,BC,1.2,,564.7,2012
-128.524,52.643,BOAT BLUFF,1060901,BC,2.3,47.2,,2012
-132.299,53.764,SEWALL MASSET INLET,105PA91,BC,2.3,36.4,189.7,2012
-131.814,53.254,SANDSPIT AWOS,1057055,BC,,,36.5,2012
-131.814,53.254,SANDSPIT,1057052,BC,1.7,,76.2,2012
-131.813,53.254,SANDSPIT A,1057050,BC,2.0,44.4,181.4,2012
-131.661,54.159,ROSE SPIT (AUT),1056869,BC,1.5,,218.0,2012
-132.167,54.0,MASSET A,1054925,BC,1.6,31.6,178.9,2012
-127.864,51.604,ADDENBROKE ISLAND,1060080,BC,3.1,4.0,706.4,2012
-128.524,52.643,BOAT BLUFF,1060901,BC,4.2,0.8,415.2,2013
-131.814,53.254,SANDSPIT AWOS,1057055,BC,4.9,,46.0,2013
-132.297,53.764,SEWALL MASSET INLET,105PA91,BC,4.4,0.0,100.8,2013
-127.864,51.604,ADDENBROKE ISLAND,1060080,BC,4.4,0.0,255.0,2013
-128.157,52.185,BELLA BELLA,1060815,BC,2.9,,229.5,2013
-126.596,52.388,BELLA COOLA A,1060841,BC,0.3,8.6,100.6,2013
-130.638,53.493,BONILLA ISLAND,1060902,BC,5.6,0.0,228.8,2013
-123.42,49.365,BOWEN ISLAND BOWEN BAY,104090R,BC,,0.0,115.9,2013
-127.47,52.187,CATHEDRAL POINT (AUT),1061458,BC,3.3,,167.0,2013
-131.601,53.03,CUMSHEWA ISLAND,1062251,BC,6.2,,,2013
-128.112,52.185,DRYAD POINT,1062544,BC,4.3,0.0,192.2,2013
-127.835,51.247,EGG ISLAND,1062646,BC,4.5,0.0,205.6,2013
-130.708,54.569,GREEN ISLAND,1063298,BC,4.7,0.0,181.0,2013
-130.698,54.58,GREY ISLET (AUT),1063303,BC,4.7,,168.0,2013
-130.633,53.5,BONILLA ISLAND (AUT),1060R0K,BC,5.9,,80.0,2013
-131.814,53.254,SANDSPIT,1057052,BC,4.8,,63.6,2013
-123.541,49.386,GIBSONS GOWER POINT,1043152,BC,3.5,0.0,124.8,2013
-131.661,54.159,ROSE SPIT (AUT),1056869,BC,4.8,,152.6,2013
-127.632,50.94,HERBERT ISLAND (AUT),1063461,BC,5.4,,117.8,2013
-123.913,49.468,MERRY ISLAND LIGHTSTATION,1045100,BC,4.4,0.0,87.9,2013
-123.299,49.488,HOWE SOUND - PAM ROCKS,10459NN,BC,3.1,,,2013
-124.032,49.634,PENDER HARBOUR,1046115,BC,,0.0,103.2,2013
-123.496,49.526,PORT MELLON,1046332,BC,2.8,,199.5,2013
-124.5,49.834,POWELL RIVER A,1046391,BC,2.2,10.2,97.8,2013
-124.497,49.835,POWELL RIVER,1046392,BC,2.2,,33.7,2013
-123.715,49.458,SECHELT AUT,1047172,BC,2.3,,71.5,2013
-123.161,49.783,SQUAMISH AIRPORT,10476F0,BC,0.3,,134.0,2013
-122.955,50.129,WHISTLER,1048898,BC,-3.7,80.9,70.4,2013
-131.016,51.936,CAPE ST JAMES CS,1051351,BC,,,97.6,2013
-132.772,53.316,KINDAKUN ROCKS (AUT),1054222,BC,6.0,,149.6,2013
-133.058,54.255,LANGARA,1054500,BC,4.6,0.0,152.4,2013
-133.058,54.255,LANGARA ISLAND RCS,1054503,BC,4.7,,0.0,2013
-132.167,54.0,MASSET A,1054925,BC,4.4,0.3,146.2,2013
-131.813,53.254,SANDSPIT A,1057050,BC,4.8,0.0,111.9,2013
-130.361,54.172,HOLLAND ROCK,1063496,BC,5.0,,10.4,2013
-129.029,55.238,NASS CAMP,1075384,BC,-2.3,41.6,59.6,2013
-127.943,53.563,KEMANO,1064020,BC,-1.1,10.5,118.0,2013
-125.997,53.772,OOTSA L SKINS L SPILLWAY,1085835,BC,-7.2,28.6,28.6,2013
-125.997,53.772,OOTSA LAKESKINS LAKE CLIMATE,1085836,BC,-6.7,,27.5,2013
-122.734,50.306,PEMBERTON AIRPORT CS,1086082,BC,-5.6,,69.8,2013
-124.136,52.114,PUNTZI MOUNTAIN (AUT),1086558,BC,-10.7,,32.1,2013
-124.403,51.675,TATLAYOKO LAKE RCS,1088015,BC,-4.7,,21.1,2013
-121.515,53.069,BARKERVILLE,1090660,BC,-6.0,89.1,89.1,2013
-127.171,55.289,SUSKWA VALLEY,107G879,BC,-4.4,31.5,35.6,2013
-125.959,54.383,BURNS LAKE DECKER LAKE,1091174,BC,-9.7,,20.9,2013
-124.286,54.455,FORT ST JAMES,1092970,BC,-7.7,18.0,18.0,2013
-122.699,53.531,HIXON,1093474,BC,-5.8,13.0,15.4,2013
-121.364,52.363,HORSEFLY LAKE GRUHS LAKE,1093600,BC,-7.0,38.0,44.7,2013
-122.374,52.38,MCLEESE LAKE FRASERVIEW,1095015,BC,-6.4,28.0,28.0,2013
-122.286,52.531,MCLEESE LAKE GRANITE MT,1095018,BC,-3.6,39.7,39.7,2013
-122.678,53.884,PRINCE GEORGE,1096439,BC,-7.2,,21.6,2013
-120.7,53.6,CRESCENT SPUR,1092120,BC,-4.1,81.3,83.5,2013
-126.163,54.816,TOPLEY LANDING,1078209,BC,-7.6,21.0,21.0,2013
-127.183,54.825,SMITHERS A,1077500,BC,-5.9,29.2,16.6,2013
-127.183,54.825,SMITHERS,1077499,BC,-5.7,,9.9,2013
-128.634,54.054,KITIMAT TOWNSITE,1064320,BC,-0.1,32.5,157.9,2013
-128.705,54.01,KITIMAT 2,1064321,BC,0.2,18.0,185.1,2013
-128.641,54.065,KITIMAT 3,1064322,BC,,37.0,85.8,2013
-130.729,54.359,LUCY ISLAND LIGHTSTATION,1064728,BC,3.1,,,2013
-130.445,54.286,PRINCE RUPERT,1066482,BC,3.9,,157.7,2013
-130.29,54.32,PRINCE RUPERT MONT CIRC,1066488,BC,,3.0,217.2,2013
-129.985,55.936,STEWART A,1067742,BC,-0.7,55.8,119.4,2013
-126.067,52.368,STUIE TWEEDSMUIR LODGE,1067776,BC,-1.0,38.0,63.4,2013
-128.578,54.466,TERRACE A,1068130,BC,-2.9,15.6,24.9,2013
-128.625,54.502,TERRACE PCC,1068131,BC,0.0,12.0,58.2,2013
-128.578,54.469,TERRACE A,1068134,BC,1.5,16.6,48.9,2013
-130.88,54.295,TRIPLE ISLAND,1068250,BC,5.4,0.0,81.6,2013
-128.682,54.044,KITIMAT HATCHERY,106D289,BC,1.1,0.0,111.0,2013
-126.277,54.199,EQUITY SILVER,1072692,BC,-5.0,41.6,41.6,2013
-126.668,54.396,HOUSTON,1073615,BC,-4.8,25.0,25.0,2013
-128.407,52.27,IVORY ISLAND,1063690,BC,4.5,0.0,205.8,2013
-126.779,50.053,ZEBALLOS MURAUDE CREEK,1039035,BC,1.5,6.0,210.8,2013
-124.326,48.592,PORT RENFREW,1016335,BC,1.9,0.0,279.6,2013
-125.773,49.082,TOFINO A,1038205,BC,4.3,0.0,220.6,2013
-123.045,48.784,SATURNA ISLAND CS,1017101,BC,3.4,,76.8,2013
-123.626,48.647,SHAWNIGAN LAKE,1017230,BC,2.3,4.0,97.4,2013
-123.921,48.377,SHERINGHAM POINT,1017254,BC,5.2,,129.8,2013
-123.305,48.457,VICTORIA UNIVERSITY CS,1018598,BC,4.1,,71.8,2013
-123.443,48.476,VICTORIA FRANCIS PARK,1018605,BC,,0.0,106.6,2013
-123.325,48.413,VICTORIA GONZALES CS,1018611,BC,4.4,,58.8,2013
-123.128,48.775,SATURNA CAPMON CS,1017099,BC,2.7,,102.5,2013
-123.501,48.538,VICTORIA HIGHLANDS NORTH,1018618,BC,2.5,4.4,148.7,2013
-123.539,48.34,WILLIAM HEAD,1018935,BC,5.1,0.0,96.9,2013
-124.16,49.35,BALLENAS ISLAND,1020590,BC,,,38.4,2013
-125.273,49.952,CAMPBELL RIVER A,1021261,BC,1.8,8.2,118.8,2013
-125.208,49.945,CAMPBELL RIVER SURFSIDE,1021266,BC,,3.0,130.8,2013
-125.195,49.998,CAPE MUDGE,1021330,BC,3.4,2.0,111.8,2013
-124.9,49.717,COMOX A,1021830,BC,3.0,0.0,84.3,2013
-123.426,48.647,VICTORIA INT'L A,1018620,BC,3.3,1.2,102.6,2013
-123.128,48.775,SATURNA CAPMON,1017098,BC,2.6,0.6,100.0,2013
-123.427,48.598,SAANICHTON MT NEWTON,1016RM0,BC,,0.0,95.2,2013
-123.546,48.888,SALTSPRING ST MARY'S L,1016995,BC,3.4,0.0,100.8,2013
-122.672,53.889,PRINCE GEORGE AIRPORT AUTO,1096453,BC,-6.9,,31.1,2013
-123.742,48.935,CHEMAINUS,1011500,BC,3.1,3.0,115.8,2013
-124.133,48.824,COWICHAN LAKE FORESTRY,1012040,BC,2.0,2.0,142.6,2013
-124.052,48.829,LAKE COWICHAN,1012055,BC,2.3,0.0,139.4,2013
-123.225,48.424,DISCOVERY ISLAND,1012475,BC,4.6,,,2013
-123.728,48.735,DUNCAN KELVIN CREEK,1012573,BC,2.0,0.0,90.0,2013
-123.439,48.432,ESQUIMALT HARBOUR,1012710,BC,4.0,,102.0,2013
-123.498,48.872,GANGES MANSELL RD,1013051,BC,2.3,0.4,47.2,2013
-123.573,48.985,GALIANO NORTH,10130MN,BC,4.1,0.0,96.0,2013
-123.53,48.575,MALAHAT,1014820,BC,2.3,,,2013
-123.561,48.374,METCHOSIN,1015105,BC,,0.0,113.6,2013
-123.718,48.824,NORTH COWICHAN,1015628,BC,,0.0,73.1,2013
-123.719,48.824,NORTH COWICHAN,1015630,BC,2.8,,97.7,2013
-123.287,48.764,NORTH PENDER ISLAND,1015638,BC,3.6,0.0,89.5,2013
-123.419,48.622,SAANICHTON CDA,1016940,BC,3.5,0.0,100.6,2013
-124.949,50.071,CORTES ISLAND TIBER BAY,1021960,BC,3.4,0.0,60.7,2013
-124.999,49.763,COURTENAY GRANTHAM,1021988,BC,2.2,0.0,113.0,2013
-125.033,49.686,COURTENAY PUNTLEDGE,1021989,BC,1.9,4.0,92.3,2013
-123.811,49.209,ENTRANCE ISLAND,1022689,BC,4.1,,41.4,2013
-126.551,49.384,ESTEVAN POINT,1032730,BC,5.2,0.0,201.8,2013
-126.543,49.383,ESTEVAN POINT CS,1032731,BC,5.0,,88.1,2013
-126.055,49.779,GOLD RIVER TOWNSITE,1033232,BC,1.8,0.0,106.3,2013
-125.923,49.111,LENNARD ISLAND,1034600,BC,5.2,0.0,213.0,2013
-124.655,48.859,NITINAT RIVER HATCHERY,1035612,BC,2.4,0.6,263.0,2013
-126.617,49.6,NOOTKA LIGHTSTATION,1035614,BC,4.7,0.0,209.2,2013
-125.097,48.723,PACHENA POINT,1035940,BC,4.9,0.0,218.2,2013
-124.752,49.202,PORT ALBERNI COX LAKE,1036208,BC,1.5,7.8,135.2,2013
-127.453,50.386,PORT ALICE,1036240,BC,4.6,0.0,224.6,2013
-127.654,50.534,QUATSINO,1036570,BC,4.0,0.0,92.2,2013
-128.033,50.441,QUATSINO LIGHTSTATION,1036572,BC,6.2,0.0,227.8,2013
-124.927,49.317,PORT ALBERNI (AUT),1036B06,BC,0.5,,99.4,2013
-128.908,50.821,SARTINE ISLAND (AUT),1037090,BC,5.9,,135.0,2013
-127.94,50.112,SOLANDER ISLAND (AUT),1037553,BC,5.9,,177.2,2013
-126.654,49.932,TAHSIS VILLAGE NORTH,1037899,BC,3.1,2.0,198.0,2013
-126.418,49.8,CONUMA RIVER HATCHERY,1031844,BC,,0.0,230.0,2013
-125.527,48.945,UCLUELET KENNEDY CAMP,1038332,BC,4.4,0.0,219.0,2013
-124.751,48.612,CARMANAH POINT,1031402,BC,,0.0,177.8,2013
-124.982,49.337,ALBERNI ROBERTSON CREEK,1030230,BC,0.8,7.0,110.7,2013
-125.993,50.453,FANNY ISLAND,1022795,BC,3.7,,147.0,2013
-123.734,49.154,GABRIOLA ISLAND,1023042,BC,2.9,0.0,96.2,2013
-125.203,50.099,HERIOT BAY SE,1023462,BC,2.8,0.2,135.6,2013
-124.512,49.353,LITTLE QUALICUM HATCHERY,1024638,BC,2.8,0.0,68.5,2013
-124.794,49.471,MUD BAY,1025240,BC,2.1,0.0,75.4,2013
-125.606,49.576,MYRA CREEK,1025254,BC,-0.1,13.5,96.0,2013
-123.87,49.054,NANAIMO A,1025370,BC,2.4,4.0,78.6,2013
-123.988,49.199,NANAIMO CITY YARD,10253G0,BC,,3.5,110.8,2013
-127.728,50.976,PINE ISLAND,1026170,BC,5.4,0.0,207.0,2013
-127.366,50.68,PORT HARDY A,1026270,BC,3.7,0.0,136.8,2013
-124.394,49.337,QUALICUM BEACH AIRPORT,1026562,BC,2.6,,32.8,2013
-124.617,49.394,QUALICUM R FISH RESEARCH,1026565,BC,3.3,5.0,79.8,2013
-125.304,50.016,QUINSAM RIVER HATCHERY,1026639,BC,2.2,1.0,136.4,2013
-124.435,49.487,SISTERS ISLAND,1027403,BC,4.3,,,2013
-123.809,49.209,ENTRANCE ISLAND,102BFHH,BC,4.0,0.0,84.2,2013
-125.216,48.786,CAPE BEALE LIGHT,1031316,BC,5.3,0.0,198.4,2013
-122.768,53.88,PRINCE GEORGE STP,1096468,BC,-5.6,50.1,50.9,2013
-122.51,53.026,QUESNEL,1096629,BC,-7.7,,16.0,2013
-122.506,53.027,QUESNEL AIRPORT AUTO,1096631,BC,-7.8,,31.3,2013
-120.442,50.702,KAMLOOPS AUT,1163842,BC,-3.7,,17.6,2013
-120.442,50.702,KAMLOOPS A,1163780,BC,-3.7,24.4,21.6,2013
-120.183,51.297,DARFIELD,1162265,BC,-4.6,34.4,36.0,2013
-120.728,51.03,CRISS CREEK,1162177,BC,-7.7,52.2,52.2,2013
-121.505,51.145,CLINTON (AUT),1161661,BC,-7.1,,34.5,2013
-121.083,51.708,BUFFALO LAKE,1161104,BC,-7.6,33.4,35.2,2013
-119.29,52.129,BLUE RIVER CS,1160H99,BC,-6.8,,,2013
-119.29,52.129,BLUE RIVER A,1160899,BC,-6.6,97.6,67.6,2013
-121.281,50.708,ASHCROFT,1160515,BC,-4.4,,,2013
-114.886,49.745,SPARWOOD CS,1157631,BC,-5.8,,,2013
-114.883,49.745,SPARWOOD,1157630,BC,-5.5,38.1,24.7,2013
-116.061,50.631,KOOTENAY NP WEST GATE,1154410,BC,-6.3,15.4,16.6,2013
-115.962,49.631,KIMBERLEY PCC,1154203,BC,-6.1,16.9,16.9,2013
-115.461,49.524,FT STEELE DANDY CRK,1153034,BC,-6.3,24.5,24.5,2013
-121.217,51.681,100 MILE HOUSE 6NE,1165793,BC,-8.6,43.6,44.4,2013
-114.855,50.149,FORDING RIVER COMINCO,1152899,BC,-7.0,25.4,25.4,2013
-115.782,49.612,CRANBROOK A,1152105,BC,-7.0,20.5,19.1,2013
-115.221,49.226,BAYNES LAKE KOOTENAY RIVER,1150690,BC,-4.2,7.0,10.4,2013
-117.399,49.512,NELSON RIXEN CREEK,114EMDM,BC,-3.4,67.8,70.8,2013
-116.501,49.082,CRESTON CAMPBELL SCIENTIFIC,114B1F0,BC,-1.8,,22.9,2013
-117.739,49.112,WARFIELD RCS,1148705,BC,-3.2,,34.7,2013
-117.305,49.491,NELSON CS,1145M29,BC,-1.3,,39.4,2013
-117.37,49.996,NEW DENVER,1145460,BC,-1.7,72.0,89.8,2013
-117.206,49.586,NELSON NE,1145442,BC,-0.7,43.2,51.8,2013
-117.817,50.269,NAKUSP CS,1145297,BC,-1.8,,66.4,2013
-116.458,49.032,LISTER,1144635,BC,-2.5,15.0,17.0,2013
-116.921,49.913,KASLO,1143900,BC,-1.7,56.0,67.4,2013
-118.068,49.872,FAUQUIER,1142820,BC,-2.2,62.0,82.0,2013
-116.971,50.239,DUNCAN LAKE DAM,1142574,BC,-2.2,42.0,59.2,2013
-116.518,49.097,CRESTON,1142160,BC,-1.8,39.0,52.0,2013
-115.072,49.489,FERNIE,1152850,BC,-4.3,32.0,54.0,2013
-120.8,50.935,RED LAKE,1166658,BC,-5.7,55.4,55.4,2013
-119.234,50.686,SALMON ARM A,1166R45,BC,-4.2,39.0,39.0,2013
-119.35,50.545,SILVER CREEK,1167337,BC,-3.6,49.7,51.1,2013
-136.367,59.45,PLEASANT CAMP,1206197,BC,-7.6,107.5,110.0,2013
-133.7,59.567,ATLIN,1200560,BC,-10.4,25.0,25.0,2013
-130.025,58.426,DEASE LAKE (AUT),119BLM0,BC,-11.6,,34.8,2013
-125.767,58.93,MUNCHO LAKE,1195250,BC,-10.1,82.0,107.2,2013
-122.6,58.833,FORT NELSON UA,1192950,BC,-16.9,45.9,48.9,2013
-122.597,58.836,FORT NELSON,1192946,BC,-19.1,41.8,29.8,2013
-130.031,58.422,DEASE LAKE A,1192341,BC,-10.2,,31.1,2013
-120.688,56.167,TAYLOR FLATS,1188020,BC,,23.0,23.0,2013
-122.718,57.25,SIKANNI CHIEF,1187335,BC,-10.9,29.8,29.8,2013
-123.133,55.299,MACKENZIE,1184791,BC,-7.5,,32.9,2013
-123.138,55.305,MACKENZIE A,1184790,BC,-8.1,,25.5,2013
-124.701,55.786,GERMANSEN LANDING,1183090,BC,-12.0,24.3,20.8,2013
-120.74,56.238,FORT ST. JOHN,1183001,BC,-9.7,21.0,20.2,2013
-120.183,55.742,DAWSON CREEK A,1182289,BC,-8.3,,6.2,2013
-121.627,55.687,CHETWYND A,1181508,BC,-7.5,8.2,3.6,2013
-121.016,56.298,CHARLIE LAKE,11814FR,BC,-11.7,22.0,22.0,2013
-116.337,51.356,YOHO NP OHARA LAKE,117R00H,BC,-6.5,5.0,5.0,2013
-119.778,51.576,VAVENBY,1168520,BC,-5.2,44.6,45.4,2013
-119.751,50.469,WESTWOLD,1168880,BC,-5.4,13.0,13.0,2013
-120.2,50.6,KAMLOOPS PRATT ROAD,116C8P0,BC,-5.9,32.8,32.8,2013
-119.291,50.703,SALMON ARM CS,116FRMN,BC,-2.9,,27.5,2013
-119.918,50.902,SUN PEAKS UPPER,116QK0M,BC,-7.2,61.6,61.6,2013
-116.982,51.299,GOLDEN A,1173210,BC,-7.2,49.6,31.8,2013
-117.774,49.343,CASTLEGAR BCHPA DAM,1141457,BC,-1.1,33.0,43.8,2013
-118.425,51.63,GOLDSTREAM RIVER,1173242,BC,-4.8,110.0,110.0,2013
-118.183,50.967,REVELSTOKE,1176745,BC,-2.7,,64.3,2013
-118.183,50.961,REVELSTOKE A,1176749,BC,-2.8,53.0,53.6,2013
-118.224,51.012,REVELSTOKE COLUMBIA PARK,1176754,BC,,115.0,115.0,2013
-118.176,50.958,REVELSTOKE AIRPORT AUTO,1176755,BC,-2.8,,81.4,2013
-116.344,51.443,YOHO PARK,11790J1,BC,-10.1,,,2013
-116.541,51.433,YOHO NP EMERALD LAKE,117R00G,BC,-8.7,110.0,110.0,2013
-118.585,52.053,MICA DAM,1175122,BC,-3.4,152.0,152.0,2013
-117.633,49.296,CASTLEGAR A,1141455,BC,-2.6,41.9,38.2,2013
-120.979,51.845,RUTH LAKE,1166912,BC,-5.9,44.0,44.0,2013
-118.773,49.0,MIDWAY,1135126,BC,-5.7,38.0,38.0,2013
-122.11,49.113,SUMAS CANAL,1107785,BC,3.8,1.0,220.0,2013
-123.303,49.106,SANDHEADS CS,1107010,BC,3.8,,,2013
-123.093,49.171,RICHMOND NATURE PARK,1106PF7,BC,2.9,0.5,128.1,2013
-123.087,49.179,RICHMOND DALLYN 2,1106764,BC,,0.8,128.6,2013
-123.265,49.33,POINT ATKINSON,1106200,BC,3.8,,86.2,2013
-122.69,49.208,PITT MEADOWS CS,1106178,BC,1.9,,194.9,2013
-123.119,49.314,N VANCOUVER WHARVES,1105669,BC,,0.0,114.3,2013
-123.081,49.368,N VANC GROUSE MTN RESORT,1105658,BC,-0.2,9.0,35.2,2013
-123.078,49.182,RICHMOND OPERATIONS CENTRE,1105210,BC,,,122.6,2013
-122.271,49.153,MISSION WEST ABBEY,1105192,BC,1.6,5.0,237.0,2013
-121.58,49.357,LAIDLAW,1104488,BC,1.2,8.5,265.5,2013
-122.573,49.264,HANEY UBC RF ADMIN,1103332,BC,1.4,0.0,238.5,2013
-122.551,49.144,FORT LANGLEY TELEGRAPH TRAIL,1102912,BC,2.2,1.0,190.0,2013
-123.093,49.011,DELTA TSAWWASSEN BEACH,1102425,BC,3.5,0.0,131.4,2013
-121.7,49.083,CHILLIWACK R HATCHERY,1101N65,BC,0.5,8.2,150.7,2013
-122.866,49.269,COQUITLAM COMO LAKE AVE,1101889,BC,,1.2,196.7,2013
-122.698,49.109,CLOVERDALE EAST,1101708,BC,0.2,0.0,0.0,2013
-118.228,49.017,BILLINGS,1140876,BC,-4.3,26.4,27.2,2013
-121.686,52.184,SPOKIN LAKE 4E,1097646,BC,-7.4,28.0,30.6,2013
-122.054,52.183,WILLIAMS LAKE,1098941,BC,-6.9,19.1,19.2,2013
-124.017,54.033,VANDERHOOF,1098D90,BC,-8.5,41.9,41.9,2013
-122.489,52.541,CASTLE ROCK 6 NORTH,109A4NG,BC,-6.6,33.6,33.6,2013
-121.404,51.705,108 MILE HOUSE ABEL LAKE,109E7R6,BC,-5.2,41.0,41.4,2013
-123.122,49.295,VANCOUVER HARBOUR CS,1108446,BC,3.7,,140.5,2013
-122.36,49.025,ABBOTSFORD,1100031,BC,2.2,0.0,135.7,2013
-121.76,49.243,AGASSIZ CDA,1100120,BC,2.7,0.0,217.0,2013
-122.955,50.129,WHISTLER - NESTERS,1100875,BC,-3.3,,51.1,2013
-122.936,50.102,BLACKCOMB BASE SLIDING CENTER,1100881,BC,-2.5,,49.1,2013
-122.918,49.278,BURNABY SIMON FRASER U,1101158,BC,1.4,1.6,36.4,2013
-123.111,50.144,CALLAGHAN VALLEY,1101300,BC,-1.7,,29.2,2013
-121.925,49.172,CHILLIWACK,1101530,BC,2.4,1.0,192.2,2013
-121.76,49.243,AGASSIZ RCS,1100119,BC,2.5,,202.2,2013
-123.182,49.195,VANCOUVER INT'L A,1108447,BC,2.8,0.0,100.4,2013
-123.002,49.126,DELTA BURNS BOG,1102415,BC,1.9,,123.3,2013
-123.193,49.347,WEST VANCOUVER AUT,1108824,BC,2.8,,162.3,2013
-119.649,49.563,SUMMERLAND CS,112G8L1,BC,-2.8,,,2013
-119.415,50.037,WINFIELD,1128958,BC,-2.8,31.6,34.6,2013
-119.056,50.359,VERNON SILVER STAR LODGE,1128584,BC,-6.7,120.5,120.5,2013
-119.27,50.344,VERNON NORTH,1128583,BC,-3.0,65.0,65.0,2013
-119.194,50.223,VERNON AUTO,1128582,BC,-4.5,,38.5,2013
-119.309,50.264,VERNON BELLA VISTA,1128553,BC,-2.9,37.6,37.6,2013
-120.513,49.468,PRINCETON A,1126510,BC,-6.8,39.8,33.3,2013
-119.602,49.463,PENTICTON,1126146,BC,-2.6,22.4,33.8,2013
-119.717,49.783,PEACHLAND,1126070,BC,-1.5,54.0,57.0,2013
-119.441,49.028,OSOYOOS CS,1125852,BC,-2.9,,18.9,2013
-119.545,49.179,OLIVER STP,1125766,BC,-2.3,8.0,8.0,2013
-119.445,50.056,OKANAGAN CENTRE,1125700,BC,-1.4,40.4,44.6,2013
-120.801,50.114,MERRITT STP,1125079,BC,-5.3,6.0,6.0,2013
-120.778,50.113,MERRITT,1125073,BC,-5.8,,,2013
-119.4,49.95,KELOWNA MWS0,11239R0,BC,-2.7,36.6,29.4,2013
-120.51,49.465,PRINCETON CS,112FN0M,BC,-7.0,,31.6,2013
-121.493,49.37,HOPE AIRPORT,1113543,BC,1.1,9.0,215.9,2013
-122.784,49.018,WHITE ROCK CAMPBELL SCIENTIFIC,1108910,BC,3.5,,151.0,2013
-122.967,49.438,N VAN SEYMOUR HATCHERY,110N666,BC,0.5,1.0,238.2,2013
-121.498,49.368,HOPE,1113542,BC,1.2,,168.9,2013
-119.573,49.842,KELOWNA QUAILS GATE,1123993,BC,-1.6,6.0,7.6,2013
-121.236,49.275,HOPE SLIDE,1113581,BC,-2.7,83.0,133.8,2013
-121.582,50.224,LYTTON,1114739,BC,-2.4,,57.0,2013
-121.934,50.684,LILLOOET,1114619,BC,-3.2,,,2013
-121.582,50.224,LYTTON RCS,1114746,BC,-2.5,,55.9,2013
-120.069,49.364,HEDLEY N,1123370,BC,-5.0,48.4,48.4,2013
-120.022,49.369,HEDLEY NP MINE,1123390,BC,-3.1,91.0,91.0,2013
-120.333,49.673,JELLICOE,1123721,BC,-6.5,53.0,53.0,2013
-119.378,49.957,KELOWNA,1123939,BC,-3.6,,15.9,2013
-121.608,50.257,LYTTON 2,1114745,BC,,56.4,81.6,2013
-122.947,50.068,WHISTLER ROUNDHOUSE,1108906,BC,-2.9,109.0,109.0,2013
-120.069,49.364,HEDLEY N,1123370,BC,-1.9,23.2,29.8,2014
-121.582,50.224,LYTTON RCS,1114746,BC,1.3,,28.4,2014
-123.122,49.295,VANCOUVER HARBOUR CS,1108446,BC,5.4,,123.4,2014
-120.333,49.673,JELLICOE,1123721,BC,-3.2,26.0,32.2,2014
-121.582,50.224,LYTTON A,1114738,BC,1.5,,32.6,2014
-120.022,49.369,HEDLEY NP MINE,1123390,BC,-1.0,64.4,64.4,2014
-121.934,50.684,LILLOOET,1114619,BC,0.7,,31.0,2014
-122.947,50.068,WHISTLER ROUNDHOUSE,1108906,BC,-0.7,130.1,130.1,2014
-121.493,49.37,HOPE AIRPORT,1113543,BC,4.2,,231.3,2014
-121.498,49.368,HOPE A,1113542,BC,4.1,,210.8,2014
-122.967,49.438,N VAN SEYMOUR HATCHERY,110N666,BC,3.1,1.5,150.5,2014
-122.784,49.018,WHITE ROCK CAMPBELL SCIENTIFIC,1108910,BC,5.3,,92.2,2014
-119.378,49.957,KELOWNA,1123939,BC,-0.7,,19.4,2014
-123.193,49.347,WEST VANCOUVER AUT,1108824,BC,5.0,,149.2,2014
-121.233,49.267,HOPE SLIDE,1113581,BC,0.2,41.0,152.4,2014
-119.573,49.842,KELOWNA QUAILS GATE,1123993,BC,0.6,7.0,15.2,2014
-119.717,49.783,PEACHLAND,1126070,BC,1.1,9.0,16.8,2014
-119.4,49.95,KELOWNA MWS0,11239R0,BC,0.0,17.2,21.6,2014
-120.51,49.465,PRINCETON CS,112FN0M,BC,-3.3,,20.4,2014
-119.649,49.563,SUMMERLAND CS,112G8L1,BC,-0.3,,17.8,2014
-119.415,50.037,WINFIELD,1128958,BC,0.0,11.4,18.2,2014
-119.056,50.359,VERNON SILVER STAR LODGE,1128584,BC,-6.3,93.0,93.0,2014
-119.27,50.344,VERNON NORTH,1128583,BC,-0.8,30.0,35.4,2014
-119.194,50.223,VERNON AUTO,1128582,BC,-1.4,,25.0,2014
-119.4,49.941,KELOWNA UBCO,1123996,BC,-0.1,,16.2,2014
-119.309,50.264,VERNON BELLA VISTA,1128553,BC,0.0,11.4,21.2,2014
-119.602,49.463,PENTICTON A,1126146,BC,0.2,17.6,18.2,2014
-119.441,49.028,OSOYOOS CS,1125852,BC,0.4,,12.3,2014
-119.544,49.179,OLIVER STP,1125766,BC,0.9,5.0,8.5,2014
-119.444,50.056,OKANAGAN CENTRE,1125700,BC,1.1,9.0,24.0,2014
-120.801,50.114,MERRITT STP,1125079,BC,-0.8,3.2,19.0,2014
-120.778,50.113,MERRITT,1125073,BC,-1.5,,,2014
-120.513,49.468,PRINCETON A,1126510,BC,-2.4,23.0,22.2,2014
-123.184,49.195,VANCOUVER INTL A,1108395,BC,4.3,0.0,142.2,2014
-122.506,53.027,QUESNEL AIRPORT AUTO,1096631,BC,-3.9,,39.9,2014
-122.11,49.113,SUMAS CANAL,1107785,BC,6.0,0.0,153.8,2014
-123.111,50.144,CALLAGHAN VALLEY,1101300,BC,1.0,,103.6,2014
-122.918,49.278,BURNABY SIMON FRASER U,1101158,BC,5.2,0.0,227.2,2014
-122.936,50.102,BLACKCOMB BASE SLIDING CENTER,1100881,BC,0.7,,65.8,2014
-122.955,50.129,WHISTLER - NESTERS,1100875,BC,0.1,,73.6,2014
-121.76,49.243,AGASSIZ CDA,1100120,BC,6.2,0.0,169.2,2014
-121.76,49.243,AGASSIZ RCS,1100119,BC,5.9,,153.4,2014
-121.925,49.172,CHILLIWACK,1101530,BC,5.7,0.0,133.3,2014
-122.36,49.025,ABBOTSFORD A,1100031,BC,4.3,0.0,137.9,2014
-122.489,52.541,CASTLE ROCK 6 NORTH,109A4NG,BC,-3.6,19.8,28.4,2014
-124.017,54.033,VANDERHOOF,1098D90,BC,-4.2,32.8,62.6,2014
-122.054,52.183,WILLIAMS LAKE A,1098941,BC,-4.9,31.2,26.4,2014
-121.686,52.184,SPOKIN LAKE 4E,1097646,BC,-6.0,38.5,60.3,2014
-122.51,53.026,QUESNEL,1096629,BC,-3.7,,45.9,2014
-118.773,49.0,MIDWAY,1135126,BC,-3.3,24.5,25.7,2014
-121.404,51.705,108 MILE HOUSE ABEL LAKE,109E7R6,BC,-4.4,21.0,21.0,2014
-123.187,49.183,VANCOUVER SEA ISLAND CCG,1108380,BC,4.5,,95.3,2014
-122.698,49.109,CLOVERDALE EAST,1101708,BC,4.4,0.0,14.0,2014
-121.7,49.083,CHILLIWACK R HATCHERY,1101N65,BC,3.3,0.0,139.5,2014
-123.303,49.106,SANDHEADS CS,1107010,BC,5.5,,,2014
-123.093,49.171,RICHMOND NATURE PARK,1106PF7,BC,4.3,0.0,88.8,2014
-123.087,49.179,RICHMOND DALLYN 2,1106764,BC,,0.0,151.8,2014
-123.265,49.33,POINT ATKINSON,1106200,BC,5.7,,65.6,2014
-122.69,49.208,PITT MEADOWS CS,1106178,BC,3.9,,168.3,2014
-123.119,49.314,N VANCOUVER WHARVES,1105669,BC,,0.0,184.4,2014
-122.866,49.269,COQUITLAM COMO LAKE AVE,1101889,BC,,0.0,192.9,2014
-123.078,49.381,N VANC GROUSE MTN RESORT,1105658,BC,3.4,20.0,50.6,2014
-122.271,49.153,MISSION WEST ABBEY,1105192,BC,4.5,0.0,175.4,2014
-121.58,49.357,LAIDLAW,1104488,BC,4.4,0.0,227.0,2014
-122.573,49.264,HANEY UBC RF ADMIN,1103332,BC,3.6,0.0,196.4,2014
-122.551,49.144,FORT LANGLEY TELEGRAPH TRAIL,1102912,BC,4.2,0.0,163.6,2014
-123.093,49.011,DELTA TSAWWASSEN BEACH,1102425,BC,5.5,0.0,108.8,2014
-123.002,49.126,DELTA BURNS BOG,1102415,BC,3.9,,109.8,2014
-123.078,49.182,RICHMOND OPERATIONS CENTRE,1105210,BC,,,118.7,2014
-117.633,49.296,CASTLEGAR A,1141455,BC,0.0,31.6,42.5,2014
-130.026,58.426,DEASE LAKE (AUT),119BLM0,BC,-8.5,,22.2,2014
-116.518,49.097,CRESTON,1142160,BC,0.1,35.0,62.0,2014
-118.176,50.958,REVELSTOKE AIRPORT AUTO,1176755,BC,-1.4,,55.4,2014
-118.224,51.012,REVELSTOKE COLUMBIA PARK,1176754,BC,,25.0,25.0,2014
-118.183,50.967,REVELSTOKE A,1176745,BC,-1.6,,47.9,2014
-118.585,52.053,MICA DAM,1175122,BC,-2.8,136.4,143.4,2014
-118.425,51.63,GOLDSTREAM RIVER,1173242,BC,-3.4,86.5,88.5,2014
-116.982,51.299,GOLDEN A,1173210,BC,-6.4,42.9,37.6,2014
-116.345,51.443,YOHO PARK,11790J1,BC,-8.4,,0.0,2014
-117.516,51.301,GLACIER NP ROGERS PASS,1173191,BC,-6.9,165.0,165.0,2014
-119.882,50.887,SUN PEAKS LOWER,116Q20D,BC,-0.3,0.0,0.0,2014
-119.291,50.703,SALMON ARM CS,116FRMN,BC,-0.5,,35.4,2014
-120.2,50.6,KAMLOOPS PRATT ROAD,116C8P0,BC,-2.0,7.8,10.0,2014
-119.778,51.576,VAVENBY,1168520,BC,-3.5,31.2,34.4,2014
-119.911,50.903,SUN PEAKS MOUNTAIN,1168204,BC,-2.1,0.0,0.0,2014
-119.35,50.545,SILVER CREEK,1167337,BC,-1.1,26.4,38.0,2014
-119.918,50.902,SUN PEAKS UPPER,116QK0M,BC,-5.3,41.0,41.0,2014
-119.234,50.686,SALMON ARM A,1166R45,BC,-1.4,63.5,64.5,2014
-117.701,51.236,GLACIER NP MT FIDELITY,117CA90,BC,-6.5,219.0,219.0,2014
-121.017,56.298,CHARLIE LAKE,11814FR,BC,-7.8,11.0,11.0,2014
-136.367,59.45,PLEASANT CAMP,1206197,BC,-4.8,103.7,165.7,2014
-133.7,59.567,ATLIN,1200560,BC,-3.5,15.8,16.5,2014
-122.768,53.88,PRINCE GEORGE STP,1096468,BC,-2.2,31.2,45.2,2014
-125.767,58.93,MUNCHO LAKE,1195250,BC,-6.9,31.0,31.0,2014
-122.573,58.841,FORT NELSON UA,1192950,BC,-11.9,25.3,25.3,2014
-122.597,58.836,FORT NELSON A,1192946,BC,-14.4,17.8,18.4,2014
-116.337,51.356,YOHO NP OHARA LAKE,117R00H,BC,-18.3,0.0,0.0,2014
-130.031,58.422,DEASE LAKE A,1192341,BC,-8.8,,20.5,2014
-122.718,57.25,SIKANNI CHIEF,1187335,BC,-5.9,15.2,15.2,2014
-123.138,55.305,MACKENZIE AIRPORT AUTO,1184793,BC,-4.9,,61.2,2014
-123.133,55.299,MACKENZIE,1184791,BC,-5.0,,34.6,2014
-120.74,56.238,FORT ST. JOHN A,1183001,BC,-7.2,25.3,23.4,2014
-120.183,55.742,DAWSON CREEK A,1182289,BC,-6.5,,6.0,2014
-121.627,55.687,CHETWYND A,1181508,BC,-2.4,17.9,10.3,2014
-120.688,56.167,TAYLOR FLATS,1188020,BC,,11.0,11.0,2014
-117.774,49.343,CASTLEGAR BCHPA DAM,1141457,BC,-0.4,15.0,44.2,2014
-120.8,50.935,RED LAKE,1166658,BC,-4.3,27.5,28.0,2014
-120.442,50.702,KAMLOOPS AUT,1163842,BC,-1.0,,7.8,2014
-115.789,49.618,CRANBROOK AIRPORT AUTO,1152106,BC,-4.8,,26.2,2014
-115.782,49.612,CRANBROOK A,1152105,BC,-5.2,18.4,26.8,2014
-115.221,49.226,BAYNES LAKE KOOTENAY RIVER,1150690,BC,-4.9,11.2,11.2,2014
-117.399,49.512,NELSON RIXEN CREEK,114EMDM,BC,-1.6,63.6,74.2,2014
-116.501,49.082,CRESTON CAMPBELL SCIENTIFIC,114B1F0,BC,-0.2,,32.9,2014
-117.739,49.112,WARFIELD RCS,1148705,BC,,,34.2,2014
-115.072,49.489,FERNIE,1152850,BC,-4.0,30.0,91.5,2014
-117.305,49.491,NELSON CS,1145M29,BC,0.4,,49.2,2014
-117.206,49.586,NELSON NE,1145442,BC,0.9,36.4,75.6,2014
-117.817,50.269,NAKUSP CS,1145297,BC,-0.3,,67.3,2014
-116.458,49.032,LISTER,1144635,BC,-0.4,28.5,49.7,2014
-116.915,49.914,KASLO,1143900,BC,-0.9,36.0,85.0,2014
-118.068,49.872,FAUQUIER,1142820,BC,-0.3,30.6,59.6,2014
-116.971,50.239,DUNCAN LAKE DAM,1142574,BC,-1.5,26.0,76.5,2014
-117.37,49.996,NEW DENVER,1145460,BC,0.0,46.6,89.7,2014
-121.217,51.681,100 MILE HOUSE 6NE,1165793,BC,-5.4,29.6,32.4,2014
-114.855,50.149,FORDING RIVER COMINCO,1152899,BC,-9.4,47.5,47.5,2014
-115.962,49.631,KIMBERLEY PCC,1154203,BC,-4.0,21.2,21.2,2014
-120.449,50.703,KAMLOOPS A,1163781,BC,-1.3,8.8,8.8,2014
-120.183,51.297,DARFIELD,1162265,BC,-2.8,21.0,28.6,2014
-120.728,51.03,CRISS CREEK,1162177,BC,-6.2,26.4,26.4,2014
-121.685,51.266,CLINTON A,1161662,BC,-5.9,,4.6,2014
-121.505,51.145,CLINTON (AUT),1161661,BC,-5.0,,11.0,2014
-121.083,51.708,BUFFALO LAKE,1161104,BC,-6.1,24.2,27.0,2014
-115.461,49.524,FT STEELE DANDY CRK,1153034,BC,-6.0,30.0,30.0,2014
-119.29,52.129,BLUE RIVER CS,1160H99,BC,-5.4,,,2014
-121.281,50.708,ASHCROFT,1160515,BC,-1.1,,,2014
-115.631,49.824,WASA,1158730,BC,-4.2,21.2,33.4,2014
-115.46,49.473,WARDNER KTNY HATCHERY,1158692,BC,-3.0,16.5,31.9,2014
-114.884,49.745,SPARWOOD CS,1157631,BC,-5.1,,0.0,2014
-114.883,49.745,SPARWOOD,1157630,BC,-4.9,39.0,37.4,2014
-116.061,50.631,KOOTENAY NP WEST GATE,1154410,BC,-5.3,14.8,24.8,2014
-119.29,52.129,BLUE RIVER A,1160899,BC,-4.7,129.4,124.2,2014
-122.672,53.889,PRINCE GEORGE AIRPORT AUTO,1096453,BC,-4.2,,50.5,2014
-118.228,49.017,BILLINGS,1140876,BC,-1.9,22.8,28.0,2014
-122.286,52.531,MCLEESE LAKE GRANITE MT,1095018,BC,-3.9,43.1,43.1,2014
-124.617,49.394,QUALICUM R FISH RESEARCH,1026565,BC,4.3,0.0,112.4,2014
-124.394,49.337,QUALICUM BEACH AIRPORT,1026562,BC,4.0,,63.1,2014
-127.367,50.681,PORT HARDY A,1026271,BC,4.6,0.0,165.0,2014
-127.728,50.976,PINE ISLAND,1026170,BC,6.8,0.0,271.8,2014
-123.988,49.199,NANAIMO CITY YARD,10253G0,BC,,0.0,110.5,2014
-123.87,49.054,NANAIMO A,1025370,BC,3.7,0.0,110.5,2014
-125.304,50.016,QUINSAM RIVER HATCHERY,1026639,BC,3.2,0.0,111.4,2014
-125.606,49.576,MYRA CREEK,1025254,BC,1.5,0.0,170.2,2014
-124.512,49.353,LITTLE QUALICUM HATCHERY,1024638,BC,4.0,0.0,102.1,2014
-125.203,50.099,HERIOT BAY SE,1023462,BC,3.9,0.0,113.4,2014
-123.734,49.154,GABRIOLA ISLAND,1023042,BC,4.7,0.0,57.5,2014
-125.993,50.453,FANNY ISLAND,1022795,BC,5.2,,24.2,2014
-123.811,49.209,ENTRANCE ISLAND,1022689,BC,5.7,,60.2,2014
-125.033,49.686,COURTENAY PUNTLEDGE,1021989,BC,3.3,0.0,88.3,2014
-124.794,49.471,MUD BAY,1025240,BC,3.5,0.0,126.4,2014
-124.999,49.763,COURTENAY GRANTHAM,1021988,BC,3.4,0.0,95.4,2014
-124.435,49.487,SISTERS ISLAND,1027403,BC,5.9,,,2014
-124.982,49.337,ALBERNI ROBERTSON CREEK,1030230,BC,3.0,0.0,140.1,2014
-128.033,50.441,QUATSINO LIGHTSTATION,1036572,BC,7.3,0.0,146.4,2014
-127.654,50.534,QUATSINO,1036570,BC,5.5,0.0,96.4,2014
-127.455,50.386,PORT ALICE,1036240,BC,5.8,0.0,185.4,2014
-124.752,49.202,PORT ALBERNI COX LAKE,1036208,BC,4.3,0.0,69.8,2014
-125.097,48.723,PACHENA POINT,1035940,BC,6.0,0.0,209.4,2014
-126.617,49.6,NOOTKA LIGHTSTATION,1035614,BC,6.0,0.0,275.6,2014
-123.809,49.209,ENTRANCE ISLAND,102BFHH,BC,5.8,0.0,91.7,2014
-125.923,49.111,LENNARD ISLAND,1034600,BC,6.4,0.0,217.8,2014
-126.543,49.383,ESTEVAN POINT CS,1032731,BC,6.1,,,2014
-126.551,49.384,ESTEVAN POINT,1032730,BC,6.0,0.0,233.0,2014
-126.418,49.8,CONUMA RIVER HATCHERY,1031844,BC,,0.0,246.7,2014
-124.751,48.612,CARMANAH POINT,1031402,BC,,0.0,199.8,2014
-128.427,50.782,CAPE SCOTT,1031353,BC,7.0,0.0,183.0,2014
-125.216,48.786,CAPE BEALE LIGHT,1031316,BC,6.8,0.0,225.8,2014
-126.055,49.779,GOLD RIVER TOWNSITE,1033232,BC,3.8,0.0,195.0,2014
-124.927,49.317,PORT ALBERNI (AUT),1036B06,BC,3.1,,99.0,2014
-124.949,50.071,CORTES ISLAND TIBER BAY,1021960,BC,3.8,0.0,81.5,2014
-124.683,49.472,CHROME ISLAND,1021500,BC,4.8,0.0,113.0,2014
-124.326,48.592,PORT RENFREW,1016335,BC,4.4,0.0,318.8,2014
-123.287,48.764,NORTH PENDER ISLAND,1015638,BC,5.6,0.0,89.0,2014
-123.719,48.824,NORTH COWICHAN,1015630,BC,5.0,,81.5,2014
-123.718,48.824,NORTH COWICHAN,1015628,BC,,0.0,49.6,2014
-123.561,48.374,METCHOSIN,1015105,BC,,0.0,135.4,2014
-123.53,48.575,MALAHAT,1014820,BC,4.3,,147.2,2014
-123.531,48.298,RACE ROCKS,1016640,BC,6.5,,,2014
-123.573,48.985,GALIANO NORTH,10130MN,BC,5.4,0.0,102.6,2014
-123.439,48.432,ESQUIMALT HARBOUR,1012710,BC,6.2,,,2014
-123.728,48.735,DUNCAN KELVIN CREEK,1012573,BC,4.5,0.0,164.4,2014
-123.225,48.424,DISCOVERY ISLAND,1012475,BC,,,,2014
-124.052,48.829,LAKE COWICHAN,1012055,BC,4.4,0.0,185.6,2014
-123.742,48.935,CHEMAINUS,1011500,BC,5.0,0.0,137.4,2014
-122.678,53.884,PRINCE GEORGE,1096439,BC,-4.2,,47.9,2014
-123.498,48.872,GANGES MANSELL RD,1013051,BC,4.2,0.0,104.4,2014
-124.9,49.717,COMOX A,1021830,BC,3.9,0.0,79.6,2014
-123.419,48.622,SAANICHTON CDA,1016940,BC,5.0,0.0,107.3,2014
-123.427,48.598,SAANICHTON MT NEWTON,1016RM0,BC,,0.0,68.2,2014
-125.195,49.998,CAPE MUDGE,1021330,BC,4.4,0.0,82.6,2014
-125.208,49.945,CAMPBELL RIVER SURFSIDE,1021266,BC,,0.0,95.6,2014
-125.273,49.952,CAMPBELL RIVER A,1021261,BC,2.6,0.0,94.4,2014
-124.16,49.35,BALLENAS ISLAND,1020590,BC,5.6,,59.6,2014
-123.426,48.647,VICTORIA INTL A,1018621,BC,4.9,0.0,114.6,2014
-123.501,48.538,VICTORIA HIGHLANDS NORTH,1018618,BC,4.4,0.0,155.6,2014
-123.546,48.888,SALTSPRING ST MARY'S L,1016995,BC,5.0,0.0,97.8,2014
-123.325,48.413,VICTORIA GONZALES CS,1018611,BC,5.9,,67.4,2014
-123.305,48.457,VICTORIA UNIVERSITY CS,1018598,BC,5.7,,56.6,2014
-123.921,48.377,SHERINGHAM POINT,1017254,BC,6.2,,138.6,2014
-123.626,48.647,SHAWNIGAN LAKE,1017230,BC,4.3,0.0,153.0,2014
-123.045,48.784,SATURNA ISLAND CS,1017101,BC,6.1,,73.8,2014
-123.128,48.775,SATURNA CAPMON CS,1017099,BC,4.7,,80.3,2014
-123.128,48.775,SATURNA CAPMON,1017098,BC,4.8,0.0,91.4,2014
-123.443,48.476,VICTORIA FRANCIS PARK,1018605,BC,,0.0,123.2,2014
-128.908,50.821,SARTINE ISLAND (AUT),1037090,BC,6.6,,67.2,2014
-124.133,48.824,COWICHAN LAKE FORESTRY,1012040,BC,4.3,0.0,209.1,2014
-127.94,50.112,SOLANDER ISLAND (AUT),1037553,BC,7.0,,62.8,2014
-128.682,54.044,KITIMAT HATCHERY,106D289,BC,2.5,11.0,162.9,2014
-130.88,54.295,TRIPLE ISLAND,1068250,BC,6.4,0.0,63.2,2014
-128.578,54.469,TERRACE A,1068134,BC,0.8,36.8,89.5,2014
-128.625,54.502,TERRACE PCC,1068131,BC,1.5,18.2,84.6,2014
-129.985,55.936,STEWART A,1067742,BC,0.6,60.0,175.5,2014
-130.29,54.32,PRINCE RUPERT MONT CIRC,1066488,BC,,0.0,238.4,2014
-126.668,54.396,HOUSTON,1073615,BC,-2.2,16.0,16.0,2014
-130.445,54.286,PRINCE RUPERT,1066482,BC,5.4,,106.0,2014
-128.705,54.01,KITIMAT 2,1064321,BC,2.9,2.0,206.7,2014
-128.634,54.054,KITIMAT TOWNSITE,1064320,BC,2.9,5.0,129.2,2014
-128.407,52.27,IVORY ISLAND,1063690,BC,5.7,0.0,210.0,2014
-130.361,54.172,HOLLAND ROCK,1063496,BC,6.5,,,2014
-127.632,50.94,HERBERT ISLAND (AUT),1063461,BC,6.8,,126.6,2014
-130.698,54.58,GREY ISLET (AUT),1063303,BC,5.6,,76.4,2014
-130.609,54.296,LUCY ISLAND LIGHTSTATION,1064728,BC,6.2,,,2014
-130.708,54.569,GREEN ISLAND,1063298,BC,5.7,0.0,90.6,2014
-129.03,55.238,NASS CAMP,1075384,BC,-0.2,32.4,90.0,2014
-127.183,54.825,SMITHERS A,1077500,BC,-3.0,26.4,47.4,2014
-121.364,52.363,HORSEFLY LAKE GRUHS LAKE,1093600,BC,-4.7,30.9,35.4,2014
-122.374,52.38,MCLEESE LAKE FRASERVIEW,1095015,BC,-3.0,14.5,22.5,2014
-122.699,53.531,HIXON,1093474,BC,-3.4,31.0,51.6,2014
-124.286,54.455,FORT ST JAMES AUTO,1092975,BC,-4.0,,46.9,2014
-124.286,54.455,FORT ST JAMES,1092970,BC,-3.9,30.0,31.4,2014
-120.7,53.6,CRESCENT SPUR,1092120,BC,-3.0,75.4,90.8,2014
-127.183,54.825,SMITHERS,1077499,BC,-3.6,,27.7,2014
-125.959,54.383,BURNS LAKE DECKER LAKE,1091174,BC,-5.6,,46.4,2014
-124.403,51.675,TATLAYOKO LAKE RCS,1088015,BC,-2.9,,24.3,2014
-124.136,52.114,PUNTZI MOUNTAIN (AUT),1086558,BC,-7.9,,47.5,2014
-122.734,50.306,PEMBERTON AIRPORT CS,1086082,BC,-0.9,,72.9,2014
-125.997,53.772,OOTSA LAKESKINS LAKE CLIMATE,1085836,BC,-2.7,,28.2,2014
-127.171,55.289,SUSKWA VALLEY,107G879,BC,-3.4,32.8,43.5,2014
-127.189,54.824,SMITHERS AIRPORT AUTO,1077501,BC,-3.2,,37.2,2014
-121.515,53.069,BARKERVILLE,1090660,BC,-5.1,135.7,135.7,2014
-127.835,51.247,EGG ISLAND,1062646,BC,5.8,0.0,9.4,2014
-126.277,54.199,EQUITY SILVER,1072692,BC,-3.3,62.2,62.2,2014
-131.602,53.03,CUMSHEWA ISLAND,1062251,BC,6.7,,,2014
-123.161,49.783,SQUAMISH AIRPORT,10476F0,BC,3.5,,182.1,2014
-123.715,49.458,SECHELT AUT,1047172,BC,3.8,,72.6,2014
-124.497,49.835,POWELL RIVER,1046392,BC,3.4,,68.9,2014
-124.5,49.834,POWELL RIVER A,1046391,BC,3.6,0.0,88.0,2014
-123.496,49.526,PORT MELLON,1046332,BC,4.9,,224.3,2014
-124.032,49.634,PENDER HARBOUR,1046115,BC,,0.0,98.4,2014
-122.955,50.129,WHISTLER,1048898,BC,0.0,34.6,64.1,2014
-123.299,49.488,HOWE SOUND - PAM ROCKS,10459NN,BC,5.8,,38.2,2014
-123.541,49.386,GIBSONS GOWER POINT,1043152,BC,5.2,0.0,128.8,2014
-123.42,49.365,BOWEN ISLAND BOWEN BAY,104090R,BC,,0.0,142.4,2014
-126.779,50.053,ZEBALLOS MURAUDE CREEK,1039035,BC,4.5,0.0,244.5,2014
-125.527,48.945,UCLUELET KENNEDY CAMP,1038332,BC,6.0,0.0,268.8,2014
-125.773,49.082,TOFINO A,1038205,BC,5.7,0.0,216.0,2014
-128.112,52.185,DRYAD POINT,1062544,BC,5.7,0.0,198.2,2014
-123.913,49.468,MERRY ISLAND LIGHTSTATION,1045100,BC,5.7,0.0,93.8,2014
-131.016,51.936,CAPE ST JAMES,1051351,BC,6.6,,157.1,2014
-126.654,49.932,TAHSIS VILLAGE NORTH,1037899,BC,5.3,0.0,200.9,2014
-133.058,54.255,LANGARA,1054500,BC,5.9,0.0,152.4,2014
-132.772,53.316,KINDAKUN ROCKS (AUT),1054222,BC,7.4,,73.0,2014
-130.639,53.493,BONILLA ISLAND (AUT),1060R0K,BC,6.9,,51.0,2014
-130.638,53.493,BONILLA ISLAND,1060902,BC,7.1,0.0,132.0,2014
-128.524,52.643,BOAT BLUFF,1060901,BC,5.9,1.6,367.6,2014
-126.596,52.388,BELLA COOLA A,1060841,BC,3.1,10.4,130.0,2014
-128.157,52.185,BELLA BELLA,1060815,BC,4.3,,250.4,2014
-127.864,51.604,ADDENBROKE ISLAND,1060080,BC,5.7,0.0,299.6,2014
-127.471,52.187,CATHEDRAL POINT (AUT),1061458,BC,5.4,,108.0,2014
-131.814,53.254,SANDSPIT,1057052,BC,5.6,,79.0,2014
-131.813,53.249,SANDSPIT AIRPORT AUTO,1057051,BC,5.7,,,2014
-131.813,53.254,SANDSPIT A,1057050,BC,5.5,0.0,105.8,2014
-131.661,54.159,ROSE SPIT (AUT),1056869,BC,5.6,,116.8,2014
-132.167,54.0,MASSET A,1054925,BC,5.7,0.1,101.3,2014
-133.058,54.255,LANGARA ISLAND RCS,1054503,BC,5.9,,206.4,2014
-132.299,53.764,SEWALL MASSET INLET,105PA91,BC,5.4,0.0,105.8,2014
-120.069,49.364,HEDLEY N,1123370,BC,-1.6,48.0,50.2,2015
-121.582,50.224,LYTTON RCS,1114746,BC,0.3,,50.9,2015
-121.608,50.257,LYTTON 2,1114745,BC,,23.0,55.4,2015
-121.582,50.224,LYTTON A,1114738,BC,0.4,,0.0,2015
-123.122,49.295,VANCOUVER HARBOUR CS,1108446,BC,6.9,,215.0,2015
-121.934,50.684,LILLOOET,1114619,BC,-0.4,,25.8,2015
-122.967,49.438,N VAN SEYMOUR HATCHERY,110N666,BC,3.9,0.0,313.3,2015
-121.493,49.37,HOPE AIRPORT,1113543,BC,4.0,,141.6,2015
-121.498,49.368,HOPE A,1113542,BC,3.9,,150.5,2015
-122.784,49.018,WHITE ROCK CAMPBELL SCIENTIFIC,1108910,BC,6.4,,96.2,2015
-122.947,50.068,WHISTLER ROUNDHOUSE,1108906,BC,-0.6,93.0,165.0,2015
-123.193,49.347,WEST VANCOUVER AUT,1108824,BC,6.4,,242.3,2015
-120.022,49.369,HEDLEY NP MINE,1123390,BC,-0.4,66.3,66.3,2015
-121.233,49.267,HOPE SLIDE,1113581,BC,0.4,17.0,155.4,2015
-120.333,49.673,JELLICOE,1123721,BC,-3.1,67.0,71.2,2015
-119.441,49.028,OSOYOOS CS,1125852,BC,0.5,,23.7,2015
-119.4,49.941,KELOWNA UBCO,1123996,BC,-0.2,,43.8,2015
-123.184,49.195,VANCOUVER INTL A,1108395,BC,5.6,0.0,156.0,2015
-119.415,50.037,WINFIELD,1128958,BC,0.0,42.2,45.0,2015
-119.056,50.359,VERNON SILVER STAR LODGE,1128584,BC,-3.1,90.5,93.5,2015
-119.27,50.344,VERNON NORTH,1128583,BC,-0.6,87.0,88.6,2015
-119.194,50.223,VERNON AUTO,1128582,BC,-1.4,,78.9,2015
-119.31,50.264,VERNON BELLA VISTA,1128553,BC,-0.1,53.6,58.4,2015
-119.378,49.957,KELOWNA,1123939,BC,-0.5,,15.0,2015
-120.513,49.468,PRINCETON A,1126510,BC,-2.7,43.7,48.2,2015
-119.717,49.783,PEACHLAND,1126070,BC,1.4,59.0,66.8,2015
-119.545,49.179,OLIVER STP,1125766,BC,1.1,1.5,1.5,2015
-119.445,50.056,OKANAGAN CENTRE,1125700,BC,1.0,42.2,49.4,2015
-120.801,50.114,MERRITT STP,1125079,BC,-1.0,45.8,45.8,2015
-120.778,50.113,MERRITT,1125073,BC,-1.5,,,2015
-119.4,49.95,KELOWNA MWS0,11239R0,BC,-0.2,54.6,48.2,2015
-119.602,49.463,PENTICTON A,1126146,BC,0.9,33.6,58.8,2015
-123.187,49.183,VANCOUVER SEA ISLAND CCG,1108380,BC,5.8,,144.6,2015
-122.672,53.889,PRINCE GEORGE AIRPORT AUTO,1096453,BC,-4.4,,65.9,2015
-123.303,49.106,SANDHEADS CS,1107010,BC,6.4,,,2015
-122.768,53.88,PRINCE GEORGE STP,1096468,BC,-3.1,63.4,77.0,2015
-122.51,53.026,QUESNEL,1096629,BC,-3.7,,54.6,2015
-122.506,53.027,QUESNEL AIRPORT AUTO,1096631,BC,-3.5,,46.3,2015
-121.686,52.184,SPOKIN LAKE 4E,1097646,BC,-4.3,43.0,49.6,2015
-122.054,52.183,WILLIAMS LAKE A,1098941,BC,-4.4,44.8,52.2,2015
-124.017,54.033,VANDERHOOF,1098D90,BC,-5.6,47.2,66.8,2015
-121.263,51.623,108 MILE HOUSE ABEL LAKE,109E7R6,BC,-3.1,53.0,56.2,2015
-122.36,49.025,ABBOTSFORD A,1100031,BC,4.8,3.8,173.8,2015
-121.76,49.243,AGASSIZ RCS,1100119,BC,5.6,,198.3,2015
-121.76,49.243,AGASSIZ CDA,1100120,BC,6.1,12.0,206.2,2015
-122.955,50.129,WHISTLER - NESTERS,1100875,BC,0.1,,117.9,2015
-122.936,50.102,BLACKCOMB BASE SLIDING CENTER,1100881,BC,0.9,,107.8,2015
-122.918,49.278,BURNABY SIMON FRASER U,1101158,BC,6.7,0.0,108.9,2015
-123.111,50.144,CALLAGHAN VALLEY,1101300,BC,1.3,,223.9,2015
-122.698,49.109,CLOVERDALE EAST,1101708,BC,8.2,0.0,2.4,2015
-122.866,49.269,COQUITLAM COMO LAKE AVE,1101889,BC,,1.1,262.3,2015
-121.704,49.08,CHILLIWACK R HATCHERY,1101N65,BC,3.9,0.7,183.0,2015
-123.093,49.171,RICHMOND NATURE PARK,1106PF7,BC,6.0,0.0,123.8,2015
-123.087,49.179,RICHMOND DALLYN 2,1106764,BC,,0.0,186.4,2015
-123.265,49.33,POINT ATKINSON,1106200,BC,5.4,,149.1,2015
-122.69,49.208,PITT MEADOWS CS,1106178,BC,5.2,,255.0,2015
-123.115,49.315,N VANCOUVER WHARVES,1105669,BC,,0.0,203.3,2015
-123.078,49.381,N VANC GROUSE MTN RESORT,1105658,BC,3.7,25.0,302.0,2015
-122.11,49.113,SUMAS CANAL,1107785,BC,6.4,8.0,194.0,2015
-123.078,49.182,RICHMOND OPERATIONS CENTRE,1105210,BC,,,160.9,2015
-122.481,49.209,MAPLE RIDGE FERGUSON AVENUE,1104910,BC,,0.0,177.4,2015
-121.579,49.356,LAIDLAW,1104488,BC,4.4,5.0,183.8,2015
-122.573,49.264,HANEY UBC RF ADMIN,1103332,BC,5.1,1.0,314.7,2015
-122.551,49.145,FORT LANGLEY TELEGRAPH TRAIL,1102912,BC,5.4,1.0,246.7,2015
-123.093,49.011,DELTA TSAWWASSEN BEACH,1102425,BC,6.3,0.0,133.0,2015
-123.002,49.126,DELTA BURNS BOG,1102415,BC,5.1,,167.3,2015
-122.271,49.153,MISSION WEST ABBEY,1105192,BC,5.3,6.8,246.2,2015
-120.51,49.465,PRINCETON CS,112FN0M,BC,-3.3,,47.5,2015
-120.082,51.653,CLEARWATER AUTO,1161650,BC,-2.3,,80.8,2015
-118.772,49.004,MIDWAY,1135126,BC,-2.0,52.0,53.2,2015
-120.449,50.703,KAMLOOPS A,1163781,BC,-0.7,45.2,41.5,2015
-120.442,50.702,KAMLOOPS AUT,1163842,BC,-0.4,,39.6,2015
-121.217,51.681,100 MILE HOUSE 6NE,1165793,BC,-4.5,87.4,97.4,2015
-120.8,50.935,RED LAKE,1166658,BC,-2.7,56.0,56.6,2015
-119.234,50.686,SALMON ARM A,1166R45,BC,-0.9,76.0,78.0,2015
-119.35,50.545,SILVER CREEK,1167337,BC,-0.6,81.2,87.1,2015
-119.778,51.576,VAVENBY,1168520,BC,-2.2,56.6,74.8,2015
-120.2,50.6,KAMLOOPS PRATT ROAD,116C8P0,BC,-1.8,55.6,57.6,2015
-119.291,50.703,SALMON ARM CS,116FRMN,BC,0.1,,86.6,2015
-119.918,50.902,SUN PEAKS UPPER,116QK0M,BC,-4.6,63.1,63.1,2015
-116.982,51.299,GOLDEN A,1173210,BC,-6.1,59.6,44.2,2015
-118.425,51.63,GOLDSTREAM RIVER,1173242,BC,-4.0,156.0,160.0,2015
-118.585,52.053,MICA DAM,1175122,BC,-2.4,159.0,180.0,2015
-118.183,50.967,REVELSTOKE A,1176745,BC,-1.7,,84.2,2015
-118.224,51.012,REVELSTOKE COLUMBIA PARK,1176754,BC,,86.0,86.0,2015
-118.176,50.958,REVELSTOKE AIRPORT AUTO,1176755,BC,-1.5,,99.4,2015
-116.345,51.443,YOHO PARK,11790J1,BC,-8.5,,40.3,2015
-122.678,53.884,PRINCE GEORGE,1096439,BC,-4.6,,47.5,2015
-122.573,58.841,FORT NELSON UA,1192950,BC,-14.5,20.9,21.3,2015
-122.597,58.836,FORT NELSON A,1192946,BC,-15.2,24.0,28.2,2015
-130.031,58.422,DEASE LAKE A,1192341,BC,-8.9,,40.5,2015
-120.688,56.167,TAYLOR FLATS,1188020,BC,,49.0,49.0,2015
-122.718,57.25,SIKANNI CHIEF,1187335,BC,-4.3,17.6,17.6,2015
-120.183,51.297,DARFIELD,1162265,BC,-1.6,52.0,62.0,2015
-123.138,55.305,MACKENZIE AIRPORT AUTO,1184793,BC,-5.0,,50.3,2015
-120.74,56.238,FORT ST. JOHN A,1183001,BC,-9.3,63.2,60.6,2015
-120.183,55.742,DAWSON CREEK A,1182289,BC,-9.2,,22.3,2015
-121.627,55.687,CHETWYND A,1181508,BC,-7.1,54.0,33.7,2015
-121.017,56.298,CHARLIE LAKE,11814FR,BC,-8.6,22.0,22.0,2015
-116.337,51.356,YOHO NP OHARA LAKE,117R00H,BC,-7.0,9.0,9.0,2015
-116.541,51.433,YOHO NP EMERALD LAKE,117R00G,BC,-5.1,14.5,14.5,2015
-123.133,55.299,MACKENZIE,1184791,BC,-5.8,,39.1,2015
-120.728,51.03,CRISS CREEK,1162177,BC,-4.4,51.2,53.0,2015
-121.685,51.266,CLINTON A,1161662,BC,-4.8,,17.4,2015
-121.505,51.145,CLINTON (AUT),1161661,BC,-4.7,,34.0,2015
-116.501,49.082,CRESTON CAMPBELL SCIENTIFIC,114B1F0,BC,-0.7,,62.3,2015
-117.739,49.112,WARFIELD RCS,1148705,BC,-1.2,,95.9,2015
-117.305,49.491,NELSON CS,1145M29,BC,0.3,,58.8,2015
-117.37,49.996,NEW DENVER,1145460,BC,0.1,78.8,99.2,2015
-117.206,49.586,NELSON NE,1145442,BC,0.4,65.2,73.0,2015
-117.817,50.269,NAKUSP CS,1145297,BC,-0.4,,109.3,2015
-117.399,49.512,NELSON RIXEN CREEK,114EMDM,BC,-1.7,76.0,81.8,2015
-116.458,49.032,LISTER,1144635,BC,-1.2,50.5,57.3,2015
-118.068,49.872,FAUQUIER,1142820,BC,-0.9,85.0,85.0,2015
-116.972,50.239,DUNCAN LAKE DAM,1142574,BC,-0.9,77.0,96.0,2015
-116.518,49.097,CRESTON,1142160,BC,-0.9,68.0,81.8,2015
-117.774,49.343,CASTLEGAR BCHPA DAM,1141457,BC,0.7,43.0,52.0,2015
-117.633,49.296,CASTLEGAR A,1141455,BC,-0.5,65.8,57.4,2015
-118.228,49.017,BILLINGS,1140876,BC,-2.0,59.0,62.0,2015
-116.921,49.913,KASLO,1143900,BC,-0.6,70.0,82.6,2015
-119.649,49.563,SUMMERLAND CS,112G8L1,BC,-0.1,,32.6,2015
-115.221,49.226,BAYNES LAKE KOOTENAY RIVER,1150690,BC,-4.5,22.7,22.7,2015
-115.789,49.618,CRANBROOK AIRPORT AUTO,1152106,BC,-4.6,,18.4,2015
-130.025,58.426,DEASE LAKE (AUT),119BLM0,BC,-10.4,,56.3,2015
-121.083,51.709,BUFFALO LAKE,1161104,BC,-4.6,50.2,57.0,2015
-119.29,52.129,BLUE RIVER CS,1160H99,BC,-4.0,,,2015
-119.29,52.129,BLUE RIVER A,1160899,BC,-3.8,108.0,125.0,2015
-121.281,50.708,ASHCROFT,1160515,BC,-0.9,,21.4,2015
-115.631,49.807,WASA,1158730,BC,-4.3,14.4,14.4,2015
-115.782,49.612,CRANBROOK A,1152105,BC,-4.9,22.5,22.9,2015
-115.46,49.473,WARDNER KTNY HATCHERY,1158692,BC,-3.9,3.0,3.0,2015
-114.883,49.745,SPARWOOD,1157630,BC,-4.8,25.6,28.0,2015
-116.061,50.631,KOOTENAY NP WEST GATE,1154410,BC,-5.0,27.0,27.6,2015
-115.962,49.631,KIMBERLEY PCC,1154203,BC,-3.8,8.0,8.0,2015
-115.461,49.524,FT STEELE DANDY CRK,1153034,BC,-7.0,24.5,24.5,2015
-114.855,50.149,FORDING RIVER COMINCO,1152899,BC,-8.5,30.4,30.4,2015
-115.073,49.489,FERNIE,1152850,BC,-3.5,3.0,11.0,2015
-114.884,49.745,SPARWOOD CS,1157631,BC,-5.1,,0.0,2015
-122.286,52.531,MCLEESE LAKE GRANITE MT,1095018,BC,-3.8,47.8,56.8,2015
-126.654,49.932,TAHSIS VILLAGE NORTH,1037899,BC,6.7,0.0,246.0,2015
-121.364,52.363,HORSEFLY LAKE GRUHS LAKE,1093600,BC,-3.9,62.9,62.9,2015
-125.033,49.686,COURTENAY PUNTLEDGE,1021989,BC,4.7,0.0,103.4,2015
-123.811,49.209,ENTRANCE ISLAND,1022689,BC,6.6,,43.4,2015
-125.993,50.454,FANNY ISLAND,1022795,BC,6.6,,78.6,2015
-123.734,49.154,GABRIOLA ISLAND,1023042,BC,5.8,0.0,105.9,2015
-125.203,50.099,HERIOT BAY SE,1023462,BC,5.2,0.8,143.6,2015
-124.512,49.353,LITTLE QUALICUM HATCHERY,1024638,BC,4.2,0.0,69.3,2015
-124.794,49.471,MUD BAY,1025240,BC,4.8,0.0,159.6,2015
-125.606,49.576,MYRA CREEK,1025254,BC,2.6,11.7,276.2,2015
-123.87,49.054,NANAIMO A,1025370,BC,5.1,0.0,114.2,2015
-123.988,49.199,NANAIMO CITY YARD,10253G0,BC,,0.0,115.7,2015
-127.367,50.681,PORT HARDY A,1026271,BC,6.1,0.0,216.8,2015
-124.394,49.337,QUALICUM BEACH AIRPORT,1026562,BC,5.0,,94.8,2015
-124.617,49.394,QUALICUM R FISH RESEARCH,1026565,BC,5.6,0.0,74.4,2015
-125.304,50.016,QUINSAM RIVER HATCHERY,1026639,BC,4.5,4.0,174.2,2015
-124.435,49.487,SISTERS ISLAND,1027403,BC,7.0,,,2015
-123.809,49.209,ENTRANCE ISLAND,102BFHH,BC,6.5,0.0,118.4,2015
-124.982,49.337,ALBERNI ROBERTSON CREEK,1030230,BC,4.5,1.0,202.9,2015
-128.033,50.441,QUATSINO LIGHTSTATION,1036572,BC,9.1,0.2,370.2,2015
-127.653,50.534,QUATSINO,1036570,BC,6.6,0.0,75.6,2015
-127.455,50.386,PORT ALICE,1036240,BC,8.5,0.0,233.8,2015
-124.752,49.202,PORT ALBERNI COX LAKE,1036208,BC,5.4,0.6,219.8,2015
-125.097,48.723,PACHENA POINT,1035940,BC,7.8,0.0,356.2,2015
-126.617,49.6,NOOTKA LIGHTSTATION,1035614,BC,8.2,0.0,381.0,2015
-124.999,49.763,COURTENAY GRANTHAM,1021988,BC,4.1,0.0,134.0,2015
-124.655,48.859,NITINAT RIVER HATCHERY,1035612,BC,6.1,0.0,443.7,2015
-126.055,49.779,GOLD RIVER TOWNSITE,1033232,BC,5.6,0.0,148.8,2015
-126.543,49.383,ESTEVAN POINT CS,1032731,BC,7.8,,312.0,2015
-126.543,49.383,ESTEVAN POINT,1032730,BC,8.1,0.0,352.2,2015
-126.418,49.8,CONUMA RIVER HATCHERY,1031844,BC,,0.0,295.6,2015
-124.751,48.612,CARMANAH POINT,1031402,BC,,0.4,307.2,2015
-125.216,48.786,CAPE BEALE LIGHT,1031316,BC,8.3,0.0,288.2,2015
-125.923,49.111,LENNARD ISLAND,1034600,BC,8.1,0.0,359.4,2015
-124.949,50.071,CORTES ISLAND TIBER BAY,1021960,BC,5.2,0.0,158.2,2015
-124.9,49.717,COMOX A,1021830,BC,5.5,0.0,116.8,2015
-124.683,49.472,CHROME ISLAND,1021500,BC,6.3,0.0,138.7,2015
-123.287,48.764,NORTH PENDER ISLAND,1015638,BC,6.4,0.0,77.2,2015
-123.719,48.824,NORTH COWICHAN,1015630,BC,5.4,,139.0,2015
-123.718,48.824,NORTH COWICHAN,1015628,BC,,0.0,152.5,2015
-123.561,48.374,METCHOSIN,1015105,BC,,0.0,174.2,2015
-123.53,48.575,MALAHAT,1014820,BC,5.3,,82.6,2015
-123.573,48.985,GALIANO NORTH,10130MN,BC,6.6,0.0,87.2,2015
-123.531,48.298,RACE ROCKS,1016640,BC,8.0,,,2015
-123.439,48.432,ESQUIMALT HARBOUR,1012710,BC,7.1,,84.4,2015
-123.226,48.425,DISCOVERY ISLAND,1012475,BC,,,,2015
-124.052,48.829,LAKE COWICHAN,1012055,BC,4.9,0.0,221.3,2015
-124.133,48.824,COWICHAN LAKE FORESTRY,1012040,BC,4.8,0.0,250.4,2015
-123.742,48.935,CHEMAINUS,1011500,BC,6.0,0.0,152.1,2015
-123.546,48.888,SALTSPRING ST MARY'S L,1016995,BC,6.1,0.0,120.3,2015
-123.427,48.598,SAANICHTON MT NEWTON,1016RM0,BC,,0.0,90.0,2015
-123.728,48.735,DUNCAN KELVIN CREEK,1012573,BC,5.4,0.0,169.8,2015
-124.927,49.317,PORT ALBERNI (AUT),1036B06,BC,4.9,,25.2,2015
-123.128,48.775,SATURNA CAPMON,1017098,BC,5.8,0.0,116.7,2015
-123.045,48.784,SATURNA ISLAND CS,1017101,BC,7.0,,78.4,2015
-125.446,50.333,CHATHAM POINT,1021480,BC,5.9,16.0,187.8,2015
-125.195,49.998,CAPE MUDGE,1021330,BC,5.9,0.0,163.6,2015
-125.208,49.945,CAMPBELL RIVER SURFSIDE,1021266,BC,,0.0,164.0,2015
-125.273,49.952,CAMPBELL RIVER A,1021261,BC,4.2,6.8,152.0,2015
-124.16,49.35,BALLENAS ISLAND,1020590,BC,6.6,,43.6,2015
-123.539,48.34,WILLIAM HEAD,1018935,BC,7.7,0.0,145.7,2015
-123.128,48.775,SATURNA CAPMON CS,1017099,BC,5.8,,115.4,2015
-123.426,48.647,VICTORIA INTL A,1018621,BC,5.8,0.0,120.2,2015
-123.325,48.413,VICTORIA GONZALES CS,1018611,BC,7.1,,81.4,2015
-123.443,48.476,VICTORIA FRANCIS PARK,1018605,BC,,0.0,83.4,2015
-123.305,48.457,VICTORIA UNIVERSITY CS,1018598,BC,6.8,,61.4,2015
-123.921,48.377,SHERINGHAM POINT,1017254,BC,7.9,,122.4,2015
-123.626,48.647,SHAWNIGAN LAKE,1017230,BC,5.2,0.0,158.8,2015
-133.7,59.567,ATLIN,1200560,BC,-6.9,53.5,57.8,2015
-123.501,48.538,VICTORIA HIGHLANDS NORTH,1018618,BC,5.3,0.0,182.6,2015
-122.374,52.38,MCLEESE LAKE FRASERVIEW,1095015,BC,-3.4,50.0,55.8,2015
-128.908,50.821,SARTINE ISLAND (AUT),1037090,BC,8.6,,251.0,2015
-125.773,49.082,TOFINO A,1038205,BC,7.1,0.0,298.6,2015
-128.407,52.27,IVORY ISLAND,1063690,BC,6.8,20.4,383.6,2015
-127.943,53.563,KEMANO,1064020,BC,0.0,47.5,280.2,2015
-128.634,54.054,KITIMAT TOWNSITE,1064320,BC,0.5,16.0,208.2,2015
-128.705,54.01,KITIMAT 2,1064321,BC,2.6,12.0,154.4,2015
-130.609,54.296,LUCY ISLAND LIGHTSTATION,1064728,BC,7.5,,,2015
-128.719,52.262,MCINNES ISLAND,1065010,BC,5.4,,1.2,2015
-130.445,54.286,PRINCE RUPERT,1066482,BC,5.8,,201.3,2015
-130.29,54.32,PRINCE RUPERT MONT CIRC,1066488,BC,,1.0,266.8,2015
-129.985,55.936,STEWART A,1067742,BC,-0.3,78.3,225.0,2015
-128.625,54.502,TERRACE PCC,1068131,BC,1.4,8.0,128.3,2015
-128.578,54.469,TERRACE A,1068134,BC,0.3,35.6,194.2,2015
-130.88,54.295,TRIPLE ISLAND,1068250,BC,6.9,7.4,156.0,2015
-128.682,54.044,KITIMAT HATCHERY,106D289,BC,2.4,19.0,210.8,2015
-126.277,54.199,EQUITY SILVER,1072692,BC,-5.1,118.0,124.7,2015
-126.668,54.396,HOUSTON,1073615,BC,-2.9,22.0,22.0,2015
-129.03,55.238,NASS CAMP,1075384,BC,-0.9,68.6,174.6,2015
-127.183,54.825,SMITHERS,1077499,BC,-2.9,,51.8,2015
-122.699,53.531,HIXON,1093474,BC,-3.4,45.2,72.8,2015
-124.286,54.455,FORT ST JAMES AUTO,1092975,BC,-3.3,,54.9,2015
-124.286,54.455,FORT ST JAMES,1092970,BC,-4.6,27.0,35.9,2015
-120.7,53.6,CRESCENT SPUR,1092120,BC,-2.7,86.4,127.0,2015
-125.959,54.383,BURNS LAKE DECKER LAKE,1091174,BC,-5.7,,63.7,2015
-121.515,53.069,BARKERVILLE,1090660,BC,-4.1,109.0,122.7,2015
-130.361,54.172,HOLLAND ROCK,1063496,BC,6.9,,69.0,2015
-124.403,51.675,TATLAYOKO LAKE RCS,1088015,BC,-2.7,,33.2,2015
-122.734,50.306,PEMBERTON AIRPORT CS,1086082,BC,-0.5,,100.2,2015
-125.997,53.772,OOTSA LAKESKINS LAKE CLIMATE,1085836,BC,-3.8,,101.8,2015
-125.997,53.772,OOTSA L SKINS L SPILLWAY,1085835,BC,-4.5,92.4,114.8,2015
-127.171,55.289,SUSKWA VALLEY,107G879,BC,-4.2,40.7,70.8,2015
-127.189,54.824,SMITHERS AIRPORT AUTO,1077501,BC,-2.9,,68.2,2015
-127.183,54.825,SMITHERS A,1077500,BC,-2.8,59.9,85.9,2015
-124.136,52.114,PUNTZI MOUNTAIN (AUT),1086558,BC,-8.0,,66.6,2015
-127.632,50.94,HERBERT ISLAND (AUT),1063461,BC,8.1,,139.6,2015
-130.698,54.58,GREY ISLET (AUT),1063303,BC,6.0,,108.2,2015
-130.708,54.569,GREEN ISLAND,1063298,BC,5.8,2.2,206.0,2015
-132.772,53.316,KINDAKUN ROCKS (AUT),1054222,BC,8.5,,113.0,2015
-131.016,51.936,CAPE ST JAMES,1051351,BC,8.2,,225.1,2015
-122.955,50.129,WHISTLER,1048898,BC,-5.9,0.0,0.0,2015
-123.161,49.783,SQUAMISH AIRPORT,10476F0,BC,3.3,,270.3,2015
-123.715,49.458,SECHELT AUT,1047172,BC,5.4,,112.3,2015
-124.497,49.835,POWELL RIVER,1046392,BC,4.9,,103.3,2015
-133.058,54.255,LANGARA,1054500,BC,6.7,14.0,215.6,2015
-124.5,49.834,POWELL RIVER A,1046391,BC,5.3,2.8,121.0,2015
-124.032,49.634,PENDER HARBOUR,1046115,BC,,0.0,112.1,2015
-123.299,49.488,HOWE SOUND - PAM ROCKS,10459NN,BC,6.4,,106.2,2015
-123.913,49.468,MERRY ISLAND LIGHTSTATION,1045100,BC,6.6,0.0,102.1,2015
-123.541,49.386,GIBSONS GOWER POINT,1043152,BC,6.4,0.0,161.0,2015
-126.779,50.053,ZEBALLOS MURAUDE CREEK,1039035,BC,6.8,0.0,455.2,2015
-125.527,48.945,UCLUELET KENNEDY CAMP,1038332,BC,7.7,0.0,437.0,2015
-123.496,49.526,PORT MELLON,1046332,BC,6.0,,364.2,2015
-127.94,50.112,SOLANDER ISLAND (AUT),1037553,BC,8.4,,139.6,2015
-133.058,54.255,LANGARA ISLAND RCS,1054503,BC,6.6,,226.5,2015
-131.661,54.159,ROSE SPIT (AUT),1056869,BC,6.6,,267.4,2015
-127.835,51.247,EGG ISLAND,1062646,BC,7.1,0.0,30.6,2015
-128.112,52.185,DRYAD POINT,1062544,BC,6.6,9.0,353.4,2015
-131.602,53.03,CUMSHEWA ISLAND,1062251,BC,8.2,,,2015
-127.471,52.187,CATHEDRAL POINT (AUT),1061458,BC,4.5,,192.2,2015
-130.639,53.493,BONILLA ISLAND (AUT),1060R0K,BC,7.4,,186.6,2015
-130.638,53.493,BONILLA ISLAND,1060902,BC,7.5,2.0,313.6,2015
-132.167,54.0,MASSET A,1054925,BC,6.2,26.1,168.4,2015
-128.524,52.643,BOAT BLUFF,1060901,BC,5.9,42.2,735.8,2015
-128.157,52.185,BELLA BELLA,1060815,BC,5.5,,417.1,2015
-127.864,51.604,ADDENBROKE ISLAND,1060080,BC,7.3,0.0,525.0,2015
-132.299,53.764,SEWALL MASSET INLET,105PA91,BC,6.4,41.8,203.4,2015
-131.814,53.254,SANDSPIT,1057052,BC,6.9,,0.0,2015
-131.813,53.249,SANDSPIT AIRPORT AUTO,1057051,BC,6.9,,81.0,2015
-131.813,53.254,SANDSPIT A,1057050,BC,6.9,3.0,230.1,2015
-126.596,52.388,BELLA COOLA A,1060841,BC,1.1,36.4,238.9,2015
-123.419,48.622,SAANICHTON CDA,1016940,BC,6.5,0.0,130.9,2015
-136.367,59.45,PLEASANT CAMP,1206197,BC,-3.7,128.5,232.7,2015
-125.959,54.383,BURNS LAKE DECKER LAKE,1091174,BC,-7.4,,19.7,2016
-122.69,49.208,PITT MEADOWS CS,1106178,BC,3.9,,214.6,2016
-123.265,49.33,POINT ATKINSON,1106200,BC,6.4,,257.7,2016
-123.087,49.179,RICHMOND DALLYN 2,1106764,BC,,3.2,182.4,2016
-123.093,49.171,RICHMOND NATURE PARK,1106PF7,BC,4.7,1.0,192.2,2016
-123.303,49.106,SANDHEADS CS,1107010,BC,6.1,,,2016
-122.11,49.113,SUMAS CANAL,1107785,BC,5.4,0.0,215.2,2016
-123.187,49.183,VANCOUVER SEA ISLAND CCG,1108380,BC,4.8,,163.0,2016
-123.184,49.195,VANCOUVER INTL A,1108395,BC,4.7,1.0,168.2,2016
-123.122,49.295,VANCOUVER HARBOUR CS,1108446,BC,6.0,,215.0,2016
-123.193,49.347,WEST VANCOUVER AUT,1108824,BC,5.4,,308.7,2016
-122.947,50.068,WHISTLER ROUNDHOUSE,1108906,BC,-3.5,165.0,287.5,2016
-122.784,49.018,WHITE ROCK CAMPBELL SCIENTIFIC,1108910,BC,5.7,,124.0,2016
-122.967,49.438,N VAN SEYMOUR HATCHERY,110N666,BC,2.4,0.0,515.9,2016
-121.498,49.368,HOPE A,1113542,BC,2.6,,184.6,2016
-121.493,49.37,HOPE AIRPORT,1113543,BC,2.8,,189.4,2016
-121.233,49.267,HOPE SLIDE,1113581,BC,-2.2,32.0,125.2,2016
-121.934,50.684,LILLOOET,1114619,BC,-1.1,,,2016
-121.582,50.224,LYTTON A,1114738,BC,-0.7,,89.9,2016
-121.582,50.224,LYTTON RCS,1114746,BC,-0.6,,92.3,2016
-120.069,49.364,HEDLEY N,1123370,BC,-1.4,16.8,27.2,2016
-120.333,49.673,JELLICOE,1123721,BC,-3.8,38.0,49.6,2016
-119.378,49.957,KELOWNA,1123939,BC,-0.9,,0.0,2016
-119.4,49.941,KELOWNA UBCO,1123996,BC,-0.1,,40.9,2016
-119.4,49.95,KELOWNA MWS0,11239R0,BC,-0.6,45.0,49.6,2016
-120.778,50.113,MERRITT,1125073,BC,-2.7,,3.2,2016
-120.801,50.114,MERRITT STP,1125079,BC,-2.7,14.6,21.8,2016
-119.445,50.056,OKANAGAN CENTRE,1125700,BC,0.7,44.8,78.0,2016
-123.115,49.315,N VANCOUVER WHARVES,1105669,BC,,0.0,229.8,2016
-123.078,49.381,N VANC GROUSE MTN RESORT,1105658,BC,1.3,19.0,317.5,2016
-123.078,49.182,RICHMOND OPERATIONS CENTRE,1105210,BC,,,191.9,2016
-122.271,49.153,MISSION WEST ABBEY,1105192,BC,3.6,0.8,223.4,2016
-122.699,53.531,HIXON,1093474,BC,-6.7,39.0,54.2,2016
-121.364,52.363,HORSEFLY LAKE GRUHS LAKE,1093600,BC,-4.8,19.1,24.1,2016
-122.374,52.38,MCLEESE LAKE FRASERVIEW,1095015,BC,-3.7,23.0,24.8,2016
-122.286,52.531,MCLEESE LAKE GRANITE MT,1095018,BC,-4.7,46.4,56.7,2016
-122.678,53.884,PRINCE GEORGE,1096439,BC,-6.8,,19.8,2016
-122.672,53.889,PRINCE GEORGE AIRPORT AUTO,1096453,BC,-6.4,,34.3,2016
-122.768,53.88,PRINCE GEORGE STP,1096468,BC,-4.7,36.3,50.1,2016
-122.51,53.026,QUESNEL,1096629,BC,-3.8,,29.3,2016
-122.506,53.027,QUESNEL AIRPORT AUTO,1096631,BC,-4.4,,36.6,2016
-121.686,52.184,SPOKIN LAKE 4E,1097646,BC,-6.5,45.5,52.7,2016
-122.054,52.183,WILLIAMS LAKE A,1098941,BC,-5.2,31.0,29.0,2016
-124.017,54.033,VANDERHOOF,1098D90,BC,-6.1,28.8,28.8,2016
-121.263,51.623,108 MILE HOUSE ABEL LAKE,109E7R6,BC,-4.3,35.0,37.2,2016
-119.545,49.179,OLIVER STP,1125766,BC,2.2,1.0,12.5,2016
-122.36,49.025,ABBOTSFORD A,1100031,BC,3.8,0.0,166.7,2016
-121.76,49.243,AGASSIZ CDA,1100120,BC,4.4,0.0,231.9,2016
-122.955,50.129,WHISTLER - NESTERS,1100875,BC,-2.0,,152.5,2016
-122.936,50.102,BLACKCOMB BASE SLIDING CENTER,1100881,BC,-1.6,,164.6,2016
-122.918,49.278,BURNABY SIMON FRASER U,1101158,BC,7.0,0.0,97.0,2016
-123.111,50.144,CALLAGHAN VALLEY,1101300,BC,-0.7,,323.7,2016
-122.698,49.109,CLOVERDALE EAST,1101708,BC,-0.6,1.0,9.6,2016
-122.866,49.269,COQUITLAM COMO LAKE AVE,1101889,BC,,1.0,137.6,2016
-121.704,49.08,CHILLIWACK R HATCHERY,1101N65,BC,2.3,0.5,186.2,2016
-123.002,49.126,DELTA BURNS BOG,1102415,BC,3.8,,153.2,2016
-123.093,49.011,DELTA TSAWWASSEN BEACH,1102425,BC,5.1,0.0,117.0,2016
-122.551,49.145,FORT LANGLEY TELEGRAPH TRAIL,1102912,BC,4.2,0.6,194.4,2016
-122.573,49.264,HANEY UBC RF ADMIN,1103332,BC,4.1,0.0,309.0,2016
-121.579,49.356,LAIDLAW,1104488,BC,2.9,0.0,238.2,2016
-121.76,49.243,AGASSIZ RCS,1100119,BC,4.3,,211.3,2016
-119.441,49.028,OSOYOOS CS,1125852,BC,0.4,,34.3,2016
-119.717,49.783,PEACHLAND,1126070,BC,1.0,22.0,57.8,2016
-119.602,49.463,PENTICTON A,1126146,BC,0.8,23.6,42.3,2016
-114.883,49.745,SPARWOOD,1157630,BC,-4.8,17.8,25.0,2016
-114.884,49.745,SPARWOOD CS,1157631,BC,-5.1,,0.0,2016
-115.46,49.473,WARDNER KTNY HATCHERY,1158692,BC,-2.8,19.2,21.6,2016
-115.631,49.807,WASA,1158730,BC,-4.0,40.6,45.8,2016
-121.281,50.708,ASHCROFT,1160515,BC,-1.1,,11.0,2016
-119.29,52.129,BLUE RIVER A,1160899,BC,-5.6,100.4,108.5,2016
-119.29,52.129,BLUE RIVER CS,1160H99,BC,-5.5,,,2016
-121.083,51.709,BUFFALO LAKE,1161104,BC,-4.8,20.2,22.0,2016
-120.082,51.653,CLEARWATER AUTO,1161650,BC,-2.5,,32.4,2016
-121.685,51.266,CLINTON A,1161662,BC,-6.4,,14.7,2016
-121.505,51.144,CLINTON RCS,1161663,BC,-4.7,,28.2,2016
-120.728,51.03,CRISS CREEK,1162177,BC,-5.8,30.7,30.7,2016
-120.183,51.297,DARFIELD,1162265,BC,-1.7,17.0,23.6,2016
-116.061,50.631,KOOTENAY NP WEST GATE,1154410,BC,-3.6,30.2,33.4,2016
-120.449,50.703,KAMLOOPS A,1163781,BC,-1.1,18.2,18.0,2016
-121.217,51.681,100 MILE HOUSE 6NE,1165793,BC,-4.9,63.0,63.8,2016
-120.8,50.935,RED LAKE,1166658,BC,-3.5,39.1,42.1,2016
-119.234,50.686,SALMON ARM A,1166R45,BC,-1.4,49.1,50.6,2016
-119.35,50.545,SILVER CREEK,1167337,BC,-1.3,59.2,72.6,2016
-119.911,50.903,SUN PEAKS MOUNTAIN,1168204,BC,-6.3,69.0,69.0,2016
-119.778,51.576,VAVENBY,1168520,BC,-2.8,14.4,27.2,2016
-120.2,50.6,KAMLOOPS PRATT ROAD,116C8P0,BC,-2.2,10.0,13.8,2016
-119.291,50.703,SALMON ARM CS,116FRMN,BC,-0.6,,124.4,2016
-119.883,50.887,SUN PEAKS LOWER,116Q20D,BC,-3.6,54.0,54.0,2016
-119.918,50.902,SUN PEAKS UPPER,116QK0M,BC,-6.0,72.0,72.0,2016
-116.982,51.299,GOLDEN A,1173210,BC,-5.6,38.2,30.4,2016
-118.425,51.63,GOLDSTREAM RIVER,1173242,BC,-3.6,76.0,84.0,2016
-118.585,52.053,MICA DAM,1175122,BC,-2.2,103.0,112.0,2016
-120.442,50.702,KAMLOOPS AUT,1163842,BC,-0.6,,12.2,2016
-124.286,54.455,FORT ST JAMES AUTO,1092975,BC,-5.9,,26.9,2016
-115.962,49.632,KIMBERLEY PCC,1154203,BC,-2.8,26.6,26.6,2016
-114.855,50.149,FORDING RIVER COMINCO,1152899,BC,-7.3,23.0,26.0,2016
-120.513,49.468,PRINCETON A,1126510,BC,-4.5,22.1,23.9,2016
-119.31,50.264,VERNON BELLA VISTA,1128553,BC,-0.3,38.4,54.0,2016
-119.194,50.223,VERNON AUTO,1128582,BC,-1.5,,51.4,2016
-119.271,50.344,VERNON NORTH,1128583,BC,-0.9,55.4,62.2,2016
-119.056,50.359,VERNON SILVER STAR LODGE,1128584,BC,-4.7,104.0,104.0,2016
-119.415,50.037,WINFIELD,1128958,BC,-0.5,56.4,64.4,2016
-120.51,49.465,PRINCETON CS,112FN0M,BC,-5.1,,118.2,2016
-119.649,49.563,SUMMERLAND CS,112G8L1,BC,0.3,,48.8,2016
-118.772,49.004,MIDWAY,1135126,BC,-2.1,41.0,55.2,2016
-118.228,49.017,BILLINGS,1140876,BC,-0.8,38.3,81.1,2016
-117.633,49.296,CASTLEGAR A,1141455,BC,-0.1,89.2,123.2,2016
-117.774,49.343,CASTLEGAR BCHPA DAM,1141457,BC,0.2,21.0,73.4,2016
-116.518,49.097,CRESTON,1142160,BC,-0.6,53.0,115.8,2016
-115.461,49.524,FT STEELE DANDY CRK,1153034,BC,-4.8,24.0,24.0,2016
-116.972,50.239,DUNCAN LAKE DAM,1142574,BC,0.3,58.0,118.2,2016
-116.921,49.913,KASLO,1143900,BC,-0.6,47.4,141.2,2016
-116.458,49.032,LISTER,1144635,BC,-0.9,32.0,73.8,2016
-117.817,50.269,NAKUSP CS,1145297,BC,-0.5,,146.2,2016
-117.206,49.586,NELSON NE,1145442,BC,0.7,65.2,127.0,2016
-117.37,49.996,NEW DENVER,1145460,BC,0.1,31.4,82.5,2016
-117.305,49.491,NELSON CS,1145M29,BC,0.9,,94.5,2016
-117.739,49.112,WARFIELD RCS,1148705,BC,0.0,,108.5,2016
-116.501,49.082,CRESTON CAMPBELL SCIENTIFIC,114B1F0,BC,-0.6,,70.3,2016
-117.399,49.512,NELSON RIXEN CREEK,114EMDM,BC,-1.1,84.2,125.6,2016
-115.221,49.226,BAYNES LAKE KOOTENAY RIVER,1150690,BC,-3.5,25.4,29.8,2016
-115.782,49.612,CRANBROOK A,1152105,BC,-5.2,40.7,38.0,2016
-115.789,49.618,CRANBROOK AIRPORT AUTO,1152106,BC,-5.2,,32.3,2016
-115.073,49.489,FERNIE,1152850,BC,-3.1,11.6,47.0,2016
-118.068,49.872,FAUQUIER,1142820,BC,-0.4,58.4,64.0,2016
-124.286,54.455,FORT ST JAMES,1092970,BC,-4.9,15.0,16.5,2016
-120.7,53.6,CRESCENT SPUR,1092120,BC,-5.3,36.4,51.8,2016
-124.403,51.675,TATLAYOKO LAKE RCS,1088015,BC,-6.2,,66.3,2016
-125.033,49.686,COURTENAY PUNTLEDGE,1021989,BC,2.7,3.5,255.1,2016
-123.811,49.209,ENTRANCE ISLAND,1022689,BC,6.1,,88.4,2016
-125.993,50.454,FANNY ISLAND,1022795,BC,5.2,,226.6,2016
-123.734,49.154,GABRIOLA ISLAND,1023042,BC,4.4,0.0,167.2,2016
-125.203,50.099,HERIOT BAY SE,1023462,BC,3.9,4.6,216.2,2016
-124.512,49.353,LITTLE QUALICUM HATCHERY,1024638,BC,3.7,4.0,72.4,2016
-123.87,49.054,NANAIMO A,1025370,BC,3.4,9.4,219.4,2016
-123.988,49.199,NANAIMO CITY YARD,10253G0,BC,,2.7,202.0,2016
-127.367,50.681,PORT HARDY A,1026271,BC,4.1,0.0,198.6,2016
-124.394,49.337,QUALICUM BEACH AIRPORT,1026562,BC,3.7,,160.2,2016
-124.617,49.394,QUALICUM R FISH RESEARCH,1026565,BC,4.4,0.0,239.2,2016
-125.304,50.016,QUINSAM RIVER HATCHERY,1026639,BC,3.5,2.0,268.4,2016
-124.435,49.487,SISTERS ISLAND,1027403,BC,6.4,,,2016
-124.999,49.763,COURTENAY GRANTHAM,1021988,BC,3.6,10.0,274.2,2016
-123.809,49.209,ENTRANCE ISLAND,102BFHH,BC,5.4,0.0,124.9,2016
-125.216,48.786,CAPE BEALE LIGHT,1031316,BC,7.1,0.0,405.2,2016
-128.427,50.782,CAPE SCOTT,1031353,BC,6.3,0.0,0.0,2016
-124.751,48.612,CARMANAH POINT,1031402,BC,,2.2,426.0,2016
-126.418,49.8,CONUMA RIVER HATCHERY,1031844,BC,,0.0,500.0,2016
-126.543,49.383,ESTEVAN POINT,1032730,BC,6.8,0.0,337.8,2016
-126.543,49.383,ESTEVAN POINT CS,1032731,BC,6.5,,271.7,2016
-126.055,49.779,GOLD RIVER TOWNSITE,1033232,BC,1.8,3.0,345.6,2016
-125.923,49.111,LENNARD ISLAND,1034600,BC,6.8,0.0,439.4,2016
-124.655,48.859,NITINAT RIVER HATCHERY,1035612,BC,4.3,0.0,623.5,2016
-126.617,49.6,NOOTKA LIGHTSTATION,1035614,BC,6.6,0.0,343.4,2016
-125.097,48.723,PACHENA POINT,1035940,BC,6.7,0.0,431.0,2016
-124.752,49.202,PORT ALBERNI COX LAKE,1036208,BC,2.2,5.6,297.2,2016
-127.653,50.534,QUATSINO,1036570,BC,4.6,0.0,175.8,2016
-124.982,49.337,ALBERNI ROBERTSON CREEK,1030230,BC,2.2,0.0,379.4,2016
-128.033,50.441,QUATSINO LIGHTSTATION,1036572,BC,7.4,0.0,235.8,2016
-124.949,50.071,CORTES ISLAND TIBER BAY,1021960,BC,3.7,7.0,219.2,2016
-124.683,49.472,CHROME ISLAND,1021500,BC,5.7,5.0,262.4,2016
-123.742,48.935,CHEMAINUS,1011500,BC,4.9,7.2,278.9,2016
-124.052,48.829,LAKE COWICHAN,1012055,BC,4.1,4.0,417.8,2016
-123.226,48.425,DISCOVERY ISLAND,1012475,BC,,,,2016
-123.728,48.735,DUNCAN KELVIN CREEK,1012573,BC,3.9,4.8,256.4,2016
-123.439,48.432,ESQUIMALT HARBOUR,1012710,BC,6.4,,75.4,2016
-123.573,48.985,GALIANO NORTH,10130MN,BC,5.8,0.0,175.4,2016
-123.53,48.575,MALAHAT,1014820,BC,3.6,,156.2,2016
-123.561,48.374,METCHOSIN,1015105,BC,,0.0,118.0,2016
-123.718,48.824,NORTH COWICHAN,1015628,BC,,6.4,229.4,2016
-123.719,48.824,NORTH COWICHAN,1015630,BC,4.1,,217.8,2016
-123.287,48.764,NORTH PENDER ISLAND,1015638,BC,6.1,0.0,121.6,2016
-123.531,48.298,RACE ROCKS,1016640,BC,7.2,,,2016
-123.419,48.622,SAANICHTON CDA,1016940,BC,5.4,0.0,138.8,2016
-124.9,49.717,COMOX A,1021830,BC,4.2,4.0,206.1,2016
-123.546,48.888,SALTSPRING ST MARY'S L,1016995,BC,5.0,1.4,157.5,2016
-123.128,48.775,SATURNA CAPMON,1017098,BC,4.9,4.2,99.0,2016
-123.128,48.775,SATURNA CAPMON CS,1017099,BC,4.7,,100.9,2016
-123.045,48.784,SATURNA ISLAND CS,1017101,BC,6.6,,77.4,2016
-123.626,48.647,SHAWNIGAN LAKE,1017230,BC,3.7,4.8,242.0,2016
-123.921,48.377,SHERINGHAM POINT,1017254,BC,6.6,,18.8,2016
-123.305,48.457,VICTORIA UNIVERSITY CS,1018598,BC,6.1,,54.1,2016
-123.443,48.476,VICTORIA FRANCIS PARK,1018605,BC,,0.0,69.2,2016
-123.325,48.413,VICTORIA GONZALES CS,1018611,BC,6.2,,34.4,2016
-123.426,48.647,VICTORIA INTL A,1018621,BC,4.6,3.1,137.7,2016
-124.16,49.35,BALLENAS ISLAND,1020590,BC,6.0,,90.8,2016
-125.273,49.952,CAMPBELL RIVER A,1021261,BC,2.4,3.2,205.5,2016
-125.195,49.998,CAPE MUDGE,1021330,BC,5.0,4.0,248.2,2016
-125.446,50.333,CHATHAM POINT,1021480,BC,4.7,3.8,338.8,2016
-123.427,48.598,SAANICHTON MT NEWTON,1016RM0,BC,,0.0,84.0,2016
-118.183,50.967,REVELSTOKE A,1176745,BC,-1.1,,93.0,2016
-124.927,49.317,PORT ALBERNI (AUT),1036B06,BC,2.3,,291.6,2016
-127.94,50.112,SOLANDER ISLAND (AUT),1037553,BC,7.4,,167.2,2016
-131.602,53.03,CUMSHEWA ISLAND,1062251,BC,7.2,,263.4,2016
-128.112,52.185,DRYAD POINT,1062544,BC,5.7,1.0,141.0,2016
-130.708,54.569,GREEN ISLAND,1063298,BC,5.1,0.0,211.6,2016
-130.698,54.58,GREY ISLET (AUT),1063303,BC,5.2,,119.2,2016
-127.632,50.94,HERBERT ISLAND (AUT),1063461,BC,7.0,,59.0,2016
-130.361,54.172,HOLLAND ROCK,1063496,BC,6.2,,83.6,2016
-128.407,52.27,IVORY ISLAND,1063690,BC,5.9,0.0,165.4,2016
-128.634,54.054,KITIMAT TOWNSITE,1064320,BC,-1.3,15.6,235.4,2016
-130.609,54.296,LUCY ISLAND LIGHTSTATION,1064728,BC,6.4,,,2016
-128.719,52.262,MCINNES ISLAND,1065010,BC,4.2,,,2016
-130.445,54.286,PRINCE RUPERT,1066482,BC,4.6,,120.5,2016
-130.29,54.32,PRINCE RUPERT MONT CIRC,1066488,BC,,0.0,181.2,2016
-129.985,55.936,STEWART A,1067742,BC,-1.0,15.9,72.8,2016
-127.471,52.187,CATHEDRAL POINT (AUT),1061458,BC,3.9,,127.0,2016
-128.625,54.502,TERRACE PCC,1068131,BC,-0.7,3.4,80.2,2016
-130.88,54.295,TRIPLE ISLAND,1068250,BC,6.5,0.0,87.2,2016
-128.682,54.044,KITIMAT HATCHERY,106D289,BC,-1.5,3.3,160.6,2016
-126.277,54.199,EQUITY SILVER,1072692,BC,-7.1,45.6,50.2,2016
-126.668,54.396,HOUSTON,1073615,BC,-6.5,4.5,4.5,2016
-129.03,55.238,NASS CAMP,1075384,BC,-4.5,35.2,54.8,2016
-127.183,54.825,SMITHERS,1077499,BC,-6.3,,33.1,2016
-127.183,54.825,SMITHERS A,1077500,BC,-5.9,16.2,9.6,2016
-127.189,54.824,SMITHERS AIRPORT AUTO,1077501,BC,-5.9,,15.1,2016
-126.163,54.816,TOPLEY LANDING,1078209,BC,-5.9,35.0,35.0,2016
-127.171,55.289,SUSKWA VALLEY,107G879,BC,-6.4,22.2,28.6,2016
-125.997,53.772,OOTSA LAKESKINS LAKE CLIMATE,1085836,BC,-8.1,,124.5,2016
-122.734,50.306,PEMBERTON AIRPORT CS,1086082,BC,-1.8,,98.9,2016
-124.136,52.114,PUNTZI MOUNTAIN (AUT),1086558,BC,-9.2,,12.5,2016
-128.578,54.469,TERRACE A,1068134,BC,-2.7,26.7,107.9,2016
-128.908,50.821,SARTINE ISLAND (AUT),1037090,BC,7.2,,130.8,2016
-130.639,53.493,BONILLA ISLAND (AUT),1060R0K,BC,7.0,,85.2,2016
-128.524,52.643,BOAT BLUFF,1060901,BC,5.1,0.0,379.0,2016
-126.654,49.932,TAHSIS VILLAGE NORTH,1037899,BC,4.1,0.0,434.6,2016
-125.773,49.082,TOFINO A,1038205,BC,5.5,0.0,409.8,2016
-125.527,48.945,UCLUELET KENNEDY CAMP,1038332,BC,6.3,0.0,552.8,2016
-126.779,50.053,ZEBALLOS MURAUDE CREEK,1039035,BC,3.1,3.0,532.4,2016
-123.541,49.386,GIBSONS GOWER POINT,1043152,BC,5.6,2.6,211.4,2016
-123.913,49.468,MERRY ISLAND LIGHTSTATION,1045100,BC,6.2,0.0,151.3,2016
-123.299,49.488,HOWE SOUND - PAM ROCKS,10459NN,BC,5.6,,142.4,2016
-124.032,49.634,PENDER HARBOUR,1046115,BC,,3.0,141.8,2016
-123.496,49.526,PORT MELLON,1046332,BC,4.5,,504.6,2016
-124.5,49.834,POWELL RIVER A,1046391,BC,3.6,5.6,220.8,2016
-124.497,49.835,POWELL RIVER,1046392,BC,3.3,,201.6,2016
-123.715,49.458,SECHELT AUT,1047172,BC,4.6,,124.0,2016
-123.161,49.783,SQUAMISH AIRPORT,10476F0,BC,1.2,,418.1,2016
-130.638,53.493,BONILLA ISLAND,1060902,BC,6.7,0.0,169.0,2016
-122.955,50.129,WHISTLER,1048898,BC,-2.6,79.1,187.6,2016
-132.772,53.316,KINDAKUN ROCKS (AUT),1054222,BC,7.9,,92.8,2016
-133.058,54.255,LANGARA,1054500,BC,5.9,0.0,143.8,2016
-133.058,54.255,LANGARA ISLAND RCS,1054503,BC,5.8,,113.3,2016
-132.167,54.0,MASSET A,1054925,BC,5.4,0.0,169.3,2016
-131.661,54.159,ROSE SPIT (AUT),1056869,BC,6.5,,177.5,2016
-131.813,53.254,SANDSPIT A,1057050,BC,6.0,0.0,198.2,2016
