"Long","Lat","Stn_Name","Clim_ID","Prov_or_Ter","Tm","DwTm","D","Tx","DwTx","Tn","DwTn","S","DwS","S%N","P","DwP","P%N","S_G","Pd","BS","DwBS","BS%","HDD","CDD"
"-123.742","48.935","CHEMAINUS","1011500","BC","21.3","0","NA","32.0","0","13.5","0","0.0","0","NA","1.5","0","NA","0.0","0","","","NA","1.2","102.1"
"-124.052","48.829","LAKE COWICHAN","1012055","BC","22.0","16","3.9","37.5","11","9.5","11","0.0","10","NA","4.2","10","NA","0.0","2","","","NA","1.4","61.3"
"-123.226","48.425","DISCOVERY ISLAND","1012475","BC","16.3","0","NA","25.7","0","11.2","0","","","NA","","","NA","","","","","NA","61.3","7.9"
"-123.439","48.432","ESQUIMALT HARBOUR","1012710","BC","17.4","1","NA","25.5","1","12.0","1","","","NA","0.0","1","NA","","0","","","NA","25.8","6.8"
"-123.530","48.575","MALAHAT","1014820","BC","21.0","0","NA","31.4","0","10.5","0","","","NA","2.8","0","NA","","1","","","NA","6.3","98.3"
"-123.561","48.374","METCHOSIN","1015105","BC","","","NA","","","","","0.0","30","NA","0.0","30","NA","","0","","","NA","",""
"-123.718","48.824","NORTH COWICHAN","1015628","BC","","","NA","","","","","0.0","0","NA","0.4","0","1.0","0.0","0","","","NA","",""
"-123.719","48.824","NORTH COWICHAN","1015630","BC","20.7","0","NA","34.7","0","8.9","0","","","NA","0.4","0","NA","","0","","","NA","1.3","84.1"
"-123.287","48.764","NORTH PENDER ISLAND","1015638","BC","21.2","3","NA","34.0","3","1.0","3","0.0","3","NA","0.4","3","NA","0.0","0","","","NA","6.2","95.8"
"-124.326","48.592","PORT RENFREW","1016335","BC","15.2","27","-0.4","19.5","27","11.0","27","0.0","27","NA","10.0","27","NA","","1","","","NA","11.3","0.0"
"-123.531","48.298","RACE ROCKS","1016640","BC","15.9","0","NA","27.5","0","10.4","0","","","NA","","","NA","","","","","NA","71.6","7.9"
"-123.419","48.622","SAANICHTON CDA","1016940","BC","19.2","2","2.1","30.0","1","11.5","1","0.0","1","NA","1.2","1","NA","0.0","0","","","NA","10.3","45.6"
"-123.419","48.622","SAANICHTON CFIA","1016943","BC","17.8","0","NA","28.3","0","10.0","0","","","NA","0.7","0","NA","","0","","","NA","23.4","18.1"
"-123.546","48.888","SALTSPRING ST MARY'S L","1016995","BC","21.5","3","3.2","32.0","3","8.5","3","0.0","3","NA","1.0","3","NA","0.0","1","","","NA","2.0","100.5"
"-123.427","48.598","SAANICHTON MT NEWTON","1016RM0","BC","","","NA","","","","","0.0","0","NA","0.8","0","3.0","0.0","0","","","NA","",""
"-123.128","48.775","SATURNA CAPMON CS","1017099","BC","19.7","1","NA","30.8","1","11.5","1","","","NA","3.8","1","NA","","1","","","NA","15.6","66.4"
"-123.045","48.784","SATURNA ISLAND CS","1017101","BC","19.2","1","NA","27.7","1","12.6","1","","","NA","2.8","1","NA","","1","","","NA","5.5","40.6"
"-123.626","48.647","SHAWNIGAN LAKE","1017230","BC","20.6","0","2.8","33.0","0","10.5","0","0.0","0","NA","0.2","0","1.0","0.0","0","","","NA","1.7","83.1"
"-123.921","48.377","SHERINGHAM POINT","1017254","BC","15.2","0","NA","26.3","0","9.7","0","","","NA","0.8","0","NA","","0","","","NA","89.4","3.0"
"-123.305","48.457","VICTORIA UNIVERSITY CS","1018598","BC","18.8","0","NA","29.5","0","9.0","0","","","NA","0.2","0","NA","","0","","","NA","10.8","36.1"
"-123.325","48.413","VICTORIA GONZALES CS","1018611","BC","17.7","0","NA","30.2","0","11.3","0","","","NA","0.2","0","NA","","0","","","NA","35.7","25.7"
"-123.426","48.647","VICTORIA INTL A","1018621","BC","18.6","1","NA","30.2","1","10.2","1","0.0","1","NA","1.0","1","NA","","0","","","NA","14.5","33.3"
"-123.388","48.423","VICTORIA HARBOUR A","1018633","BC","17.1","0","NA","27.1","0","12.1","0","","","NA","","","NA","","","","","NA","34.3","6.6"
"-124.160","49.350","BALLENAS ISLAND","1020590","BC","20.4","0","NA","27.7","0","14.8","0","","","NA","0.6","0","NA","","0","","","NA","0.0","75.2"
"-125.273","49.952","CAMPBELL RIVER A","1021261","BC","19.9","0","2.7","34.0","0","-2.0","0","0.0","0","NA","6.7","0","15.0","0.0","2","","","NA","13.2","73.1"
"-125.273","49.952","CAMPBELL RIVER A","1021270","BC","20.0","0","NA","34.2","0","6.7","0","","","NA","","","NA","","","","","NA","12.4","73.2"
"-125.195","49.998","CAPE MUDGE","1021330","BC","19.9","2","2.8","33.0","2","11.0","2","0.0","2","NA","5.0","2","NA","0.0","2","","","NA","3.4","59.1"
"-125.446","50.333","CHATHAM POINT","1021480","BC","17.7","1","1.8","26.5","1","12.0","1","0.0","1","NA","32.4","1","NA","0.0","3","","","NA","19.9","12.2"
"-124.900","49.717","COMOX A","1021830","BC","20.7","0","2.8","31.6","0","12.3","0","0.0","0","NA","2.0","0","7.0","","1","","","NA","2.1","84.7"
"-123.811","49.209","ENTRANCE ISLAND","1022689","BC","20.3","0","NA","27.8","0","15.2","0","","","NA","2.8","0","NA","","0","","","NA","0.4","72.5"
"-125.993","50.454","FANNY ISLAND","1022795","BC","14.9","0","NA","25.2","0","10.3","0","","","NA","15.8","0","NA","","4","","","NA","97.0","0.4"
"-125.203","50.099","HERIOT BAY SE","1023462","BC","19.9","0","NA","29.5","0","11.0","0","0.0","0","NA","10.2","0","NA","0.0","3","","","NA","2.2","61.8"
"-124.512","49.353","LITTLE QUALICUM HATCHERY","1024638","BC","20.0","13","3.6","31.5","13","9.0","13","0.0","13","NA","0.6","13","NA","0.0","0","","","NA","2.6","38.4"
"-123.870","49.054","NANAIMO A","1025365","BC","20.8","0","NA","33.8","0","11.3","0","","","NA","","","NA","","","","","NA","1.6","87.1"
"-123.988","49.199","NANAIMO CITY YARD","10253G0","BC","","","NA","","","","","0.0","0","NA","1.4","0","5.0","0.0","0","","","NA","",""
"-127.367","50.681","PORT HARDY A","1026271","BC","15.9","0","NA","24.5","0","8.2","0","0.0","0","NA","34.1","0","NA","","6","","","NA","65.7","2.1"
"-124.394","49.337","QUALICUM BEACH AIRPORT","1026562","BC","20.1","0","NA","31.5","0","10.1","0","","","NA","0.7","0","NA","","0","","","NA","5.3","69.1"
"-124.617","49.394","QUALICUM R FISH RESEARCH","1026565","BC","20.0","3","3.3","30.5","3","9.0","3","0.0","3","NA","2.8","3","NA","0.0","1","","","NA","4.7","61.1"
"-125.304","50.016","QUINSAM RIVER HATCHERY","1026639","BC","20.3","0","2.9","34.0","0","8.0","0","0.0","0","NA","6.8","0","14.0","0.0","2","","","NA","3.4","73.5"
"-124.435","49.487","SISTERS ISLAND","1027403","BC","21.3","0","NA","29.7","0","14.6","0","","","NA","","","NA","","","","","NA","0.9","104.4"
"-123.809","49.209","ENTRANCE ISLAND","102BFHH","BC","19.9","0","NA","27.0","0","9.0","0","0.0","0","NA","4.8","0","NA","0.0","4","","","NA","5.7","65.6"
"-124.982","49.337","ALBERNI ROBERTSON CREEK","1030230","BC","21.8","0","3.3","38.0","0","9.0","0","0.0","0","NA","1.6","0","3.0","0.0","0","","","NA","0.5","119.7"
"-125.216","48.786","CAPE BEALE LIGHT","1031316","BC","15.7","0","1.7","25.0","0","10.5","0","0.0","0","NA","31.8","0","43.0","0.0","7","","","NA","74.6","3.0"
"-126.543","49.383","ESTEVAN POINT","1032730","BC","16.5","0","1.8","24.5","0","12.0","0","0.0","0","NA","12.0","0","12.0","0.0","4","","","NA","48.7","3.3"
"-126.543","49.383","ESTEVAN POINT CS","1032731","BC","16.1","6","NA","23.5","6","11.4","6","","","NA","7.4","6","NA","","2","","","NA","50.2","1.6"
"-125.923","49.111","LENNARD ISLAND","1034600","BC","16.2","0","NA","23.0","0","12.0","0","0.0","0","NA","21.2","0","25.0","0.0","4","","","NA","57.2","1.9"
"-124.655","48.859","NITINAT RIVER HATCHERY","1035612","BC","18.6","0","2.0","34.0","0","-4.0","0","0.0","0","NA","9.8","0","11.0","0.0","6","","","NA","22.5","42.6"
"-126.617","49.600","NOOTKA LIGHTSTATION","1035614","BC","17.8","0","1.6","26.0","0","10.0","0","0.0","0","NA","15.6","0","16.0","0.0","6","","","NA","24.2","19.0"
"-125.097","48.723","PACHENA POINT","1035940","BC","15.9","0","1.7","25.5","0","10.0","0","0.0","0","NA","36.8","0","43.0","0.0","5","","","NA","68.2","2.9"
"-127.653","50.534","QUATSINO","1036570","BC","16.9","1","1.1","26.5","1","9.0","1","0.0","1","NA","17.4","1","NA","0.0","8","","","NA","42.3","8.2"
"-128.033","50.441","QUATSINO LIGHTSTATION","1036572","BC","17.1","0","1.5","28.0","0","11.0","0","0.0","0","NA","19.4","0","17.0","0.0","5","","","NA","41.8","14.5"
"-124.927","49.317","PORT ALBERNI (AUT)","1036B06","BC","21.0","0","NA","37.3","0","7.7","0","","","NA","0.6","0","NA","","0","","","NA","2.3","96.6"
"-128.908","50.821","SARTINE ISLAND (AUT)","1037090","BC","14.0","4","NA","17.5","4","11.5","4","","","NA","25.8","4","NA","","6","","","NA","108.0","0.0"
"-127.940","50.112","SOLANDER ISLAND (AUT)","1037553","BC","14.4","4","NA","20.6","4","10.6","4","","","NA","18.2","4","NA","","5","","","NA","96.2","0.0"
"-126.654","49.932","TAHSIS VILLAGE NORTH","1037899","BC","20.3","13","NA","33.0","13","10.0","13","","","NA","14.2","30","NA","","1","","","NA","3.5","45.4"
"-125.773","49.082","TOFINO A","1038205","BC","16.8","5","1.8","28.0","4","9.5","5","0.0","2","NA","16.1","2","NA","0.0","5","","","NA","42.0","10.6"
"-125.773","49.082","TOFINO A","1038210","BC","16.7","7","NA","27.8","7","10.8","7","","","NA","","","NA","","","","","NA","39.7","9.4"
"-125.527","48.945","UCLUELET KENNEDY CAMP","1038332","BC","17.2","0","2.2","28.0","0","10.0","0","0.0","0","NA","27.0","0","31.0","0.0","6","","","NA","39.5","14.4"
"-126.779","50.053","ZEBALLOS MURAUDE CREEK","1039035","BC","19.8","2","NA","37.5","2","8.0","2","0.0","2","NA","27.2","2","NA","0.0","5","","","NA","8.6","61.1"
"-123.402","49.360","BOWEN ISLAND SUNSET PARK","104091B","BC","","","NA","","","","","0.0","19","NA","7.2","19","NA","","2","","","NA","",""
"-123.541","49.386","GIBSONS GOWER POINT","1043152","BC","20.2","0","2.3","27.5","0","13.5","0","0.0","0","NA","10.0","0","25.0","0.0","3","","","NA","1.2","69.7"
"-123.913","49.468","MERRY ISLAND LIGHTSTATION","1045100","BC","21.0","0","2.8","29.0","0","14.0","0","0.0","0","NA","1.4","0","4.0","0.0","1","","","NA","0.0","93.1"
"-123.299","49.488","HOWE SOUND - PAM ROCKS","10459NN","BC","20.7","0","NA","27.6","0","15.4","0","","","NA","7.8","0","NA","","1","","","NA","0.0","82.9"
"-124.032","49.634","PENDER HARBOUR","1046115","BC","","","NA","","","","","0.0","0","NA","4.0","0","NA","0.0","2","","","NA","",""
"-123.496","49.526","PORT MELLON","1046332","BC","21.1","0","NA","32.1","0","12.0","0","","","NA","7.7","0","NA","","1","","","NA","1.2","97.8"
"-124.500","49.834","POWELL RIVER A","1046391","BC","19.8","0","2.6","30.5","0","8.5","0","0.0","0","NA","9.4","0","21.0","0.0","3","","","NA","4.8","61.7"
"-124.497","49.835","POWELL RIVER","1046392","BC","19.8","0","NA","30.8","0","8.7","0","","","NA","10.7","0","NA","","3","","","NA","6.1","61.1"
"-124.500","49.834","POWELL RIVER A","1046396","BC","19.8","0","NA","30.7","0","8.3","0","","","NA","","","NA","","","","","NA","6.4","61.2"
"-123.715","49.458","SECHELT AUT","1047172","BC","20.3","0","NA","32.8","0","11.0","0","","","NA","3.1","0","NA","","1","","","NA","3.6","74.3"
"-123.161","49.783","SQUAMISH AIRPORT","10476F0","BC","21.0","5","NA","33.2","5","10.3","5","","","NA","5.8","5","NA","","2","","","NA","0.5","78.2"
"-122.955","50.129","WHISTLER","1048898","BC","20.2","8","3.7","34.5","8","7.0","8","0.0","8","NA","11.2","8","NA","0.0","1","","","NA","5.5","55.4"
"-131.016","51.936","CAPE ST JAMES","1051351","BC","13.8","24","NA","16.7","24","11.7","24","","","NA","","","NA","","","","","NA","29.3","0.0"
"-132.772","53.316","KINDAKUN ROCKS (AUT)","1054222","BC","14.9","3","NA","19.7","3","10.6","3","","","NA","0.0","3","NA","","0","","","NA","88.1","0.0"
"-133.058","54.255","LANGARA","1054500","BC","14.6","0","1.0","22.0","0","10.0","0","0.0","0","NA","65.2","0","49.0","0.0","7","","","NA","106.3","0.3"
"-133.058","54.255","LANGARA ISLAND RCS","1054503","BC","14.4","0","NA","21.3","0","10.2","0","","","NA","","","NA","","","","","NA","113.0","0.0"
"-132.125","54.027","MASSET A","1054929","BC","15.8","0","NA","27.0","0","9.8","0","","","NA","","","NA","","","","","NA","69.9","2.0"
"-131.661","54.159","ROSE SPIT (AUT)","1056869","BC","15.4","0","NA","21.1","0","8.8","0","","","NA","","","NA","","","","","NA","81.4","0.0"
"-131.813","53.249","SANDSPIT AIRPORT AUTO","1057051","BC","16.9","0","NA","24.7","0","11.5","0","","","NA","","","NA","","","","","NA","38.3","3.2"
"-131.814","53.254","SANDSPIT","1057052","BC","17.0","0","NA","23.6","0","11.8","0","","","NA","34.6","0","NA","","8","","","NA","33.8","3.8"
"-127.864","51.604","ADDENBROKE ISLAND","1060080","BC","17.0","0","1.8","24.0","0","12.0","0","0.0","0","NA","90.2","0","65.0","0.0","10","","","NA","34.5","3.1"
"-128.157","52.185","BELLA BELLA","1060815","BC","16.8","1","NA","27.3","1","8.3","1","","","NA","191.0","1","NA","","10","","","NA","41.0","3.7"
"-126.587","52.389","BELLA COOLA AIRPORT","1060844","BC","19.3","0","NA","30.7","0","9.6","0","","","NA","33.0","0","NA","","9","","","NA","13.5","54.9"
"-126.596","52.388","BELLA COOLA A","1060848","BC","19.2","1","NA","30.0","1","11.1","1","","","NA","","","NA","","","","","NA","13.7","49.6"
"-128.524","52.643","BOAT BLUFF","1060901","BC","17.0","0","1.9","26.5","0","11.0","0","0.0","0","NA","272.3","0","118.0","0.0","10","","","NA","44.2","12.0"
"-130.638","53.493","BONILLA ISLAND","1060902","BC","14.6","0","0.6","19.5","0","9.5","0","0.0","0","NA","81.0","0","72.0","0.0","7","","","NA","104.0","0.0"
"-130.639","53.493","BONILLA ISLAND (AUT)","1060R0K","BC","14.1","3","NA","19.3","3","9.6","3","","","NA","79.4","3","NA","","8","","","NA","109.8","0.0"
"-127.471","52.187","CATHEDRAL POINT (AUT)","1061458","BC","18.5","4","NA","26.3","4","12.5","4","","","NA","149.4","4","NA","","8","","","NA","15.9","30.2"
"-131.602","53.030","CUMSHEWA ISLAND","1062251","BC","16.7","3","NA","21.6","3","13.5","3","","","NA","","","NA","","","","","NA","38.1","1.3"
"-128.112","52.185","DRYAD POINT","1062544","BC","17.7","0","1.8","35.5","0","11.5","0","0.0","0","NA","162.0","0","111.0","0.0","9","","","NA","26.5","16.9"
"-127.835","51.247","EGG ISLAND","1062646","BC","15.4","22","1.5","19.5","22","13.0","22","0.0","22","NA","17.0","22","NA","0.0","2","","","NA","23.1","0.0"
"-130.708","54.569","GREEN ISLAND","1063298","BC","15.8","0","1.0","23.0","0","12.0","0","0.0","0","NA","213.6","0","129.0","0.0","8","","","NA","69.3","0.6"
"-130.698","54.580","GREY ISLET (AUT)","1063303","BC","15.4","0","NA","22.3","0","11.6","0","","","NA","148.6","0","NA","","10","","","NA","79.1","0.0"
"-127.632","50.940","HERBERT ISLAND (AUT)","1063461","BC","14.0","0","NA","21.2","0","10.4","0","","","NA","","","NA","","","","","NA","125.1","0.0"
"-130.361","54.172","HOLLAND ROCK","1063496","BC","14.3","0","NA","20.1","0","10.4","0","","","NA","105.2","0","NA","","7","","","NA","113.8","0.0"
"-128.407","52.270","IVORY ISLAND","1063690","BC","15.8","0","1.0","22.5","0","11.0","0","0.0","0","NA","151.0","0","92.0","0.0","9","","","NA","66.7","0.0"
"-127.943","53.563","KEMANO","1064020","BC","18.8","0","2.4","33.5","0","4.5","0","0.0","0","NA","80.6","0","105.0","0.0","6","","","NA","26.5","52.7"
"-128.634","54.054","KITIMAT TOWNSITE","1064320","BC","18.4","27","1.9","32.0","27","9.0","27","0.0","27","NA","22.0","27","NA","0.0","2","","","NA","5.0","6.5"
"-128.705","54.010","KITIMAT 2","1064321","BC","20.5","26","3.4","30.0","26","10.0","26","0.0","26","NA","0.0","26","NA","","0","","","NA","2.0","14.3"
"-128.634","54.054","KITIMAT FOREST AVE","1064324","BC","18.7","0","NA","32.7","0","10.0","0","","","NA","129.7","0","NA","","7","","","NA","26.2","47.3"
"-130.609","54.296","LUCY ISLAND LIGHTSTATION","1064728","BC","15.1","0","NA","21.3","0","10.8","0","","","NA","","","NA","","","","","NA","91.1","0.0"
"-128.719","52.262","MCINNES ISLAND","1065010","BC","15.7","0","1.0","21.0","0","12.0","0","0.0","0","NA","128.4","0","97.0","0.0","10","","","NA","70.7","0.3"
"-130.445","54.286","PRINCE RUPERT","1066482","BC","15.4","1","NA","23.3","1","9.7","1","","","NA","201.7","1","NA","","10","","","NA","79.3","1.3"
"-129.983","55.933","STEWART A","1067748","BC","16.2","1","NA","28.1","1","7.7","1","","","NA","","","NA","","","","","NA","60.1","5.6"
"-128.625","54.502","TERRACE PCC","1068131","BC","19.7","23","2.9","32.5","23","13.0","23","0.0","23","NA","4.1","23","NA","0.0","2","","","NA","4.0","17.2"
"-128.578","54.469","TERRACE A","1068134","BC","18.8","0","NA","32.2","0","8.8","0","0.0","0","NA","65.8","0","NA","","8","","","NA","27.8","51.6"
"-130.880","54.295","TRIPLE ISLAND","1068250","BC","14.7","0","NA","19.0","0","11.0","0","0.0","0","NA","107.2","0","NA","0.0","9","","","NA","102.7","0.0"
"-128.682","54.044","KITIMAT HATCHERY","106D289","BC","18.6","15","NA","33.0","15","10.0","15","0.0","15","NA","97.5","15","NA","0.0","5","","","NA","14.3","24.6"
"-126.668","54.396","HOUSTON","1073615","BC","17.9","7","NA","34.0","7","3.0","7","0.0","10","NA","34.3","10","NA","0.0","5","","","NA","32.0","28.5"
"-127.183","54.825","SMITHERS","1077499","BC","17.1","0","NA","31.7","0","4.2","0","","","NA","35.3","0","NA","","5","","","NA","46.2","16.9"
"-127.189","54.824","SMITHERS AIRPORT AUTO","1077501","BC","17.4","0","NA","31.8","0","5.6","0","","","NA","32.3","0","NA","","4","","","NA","43.5","23.5"
"-127.171","55.289","SUSKWA VALLEY","107G879","BC","17.3","2","3.4","32.0","2","6.0","2","0.0","2","NA","62.2","2","NA","0.0","11","","","NA","41.9","20.9"
"-125.997","53.772","OOTSA LAKESKINS LAKE CLIMATE","1085836","BC","17.1","0","NA","30.6","0","6.3","0","","","NA","14.7","0","NA","","5","","","NA","51.8","25.4"
"-122.738","50.302","PEMBERTON AIRPORT (WIND)","1086081","BC","22.1","0","NA","37.6","0","9.0","0","","","NA","","","NA","","","","","NA","1.9","128.5"
"-122.734","50.306","PEMBERTON AIRPORT CS","1086082","BC","22.3","0","NA","37.0","0","9.1","0","","","NA","15.6","0","NA","","2","","","NA","1.8","133.9"
"-124.136","52.114","PUNTZI MOUNTAIN (AUT)","1086558","BC","17.1","1","NA","32.8","1","2.1","1","","","NA","15.0","1","NA","","2","","","NA","44.2","18.5"
"-124.403","51.675","TATLAYOKO LAKE RCS","1088015","BC","17.4","0","NA","34.7","0","0.3","0","","","NA","21.2","27","NA","","3","","","NA","36.1","16.0"
"-121.515","53.069","BARKERVILLE","1090660","BC","15.4","0","3.2","30.0","0","4.0","0","0.0","0","NA","74.5","0","92.0","0.0","11","","","NA","89.3","8.1"
"-125.959","54.383","BURNS LAKE DECKER LAKE","1091174","BC","15.4","0","NA","31.3","0","0.3","0","","","NA","65.0","0","NA","","8","","","NA","85.2","4.6"
"-124.286","54.455","FORT ST JAMES AUTO","1092975","BC","17.9","3","NA","30.9","3","5.8","3","","","NA","49.6","3","NA","","6","","","NA","32.0","27.9"
"-124.293","54.459","FORT ST JAMES GOLF CLUB","1092977","BC","18.1","0","NA","30.8","0","6.7","0","","","NA","50.1","0","NA","","6","","","NA","36.0","37.7"
"-122.286","52.531","MCLEESE LAKE GRANITE MT","1095018","BC","17.8","13","NA","32.0","8","5.0","9","0.0","8","NA","61.3","8","NA","0.0","9","","","NA","26.1","22.3"
"-122.678","53.884","PRINCE GEORGE","1096439","BC","17.1","0","NA","31.3","0","2.2","0","","","NA","41.7","0","NA","","9","","","NA","43.3","16.4"
"-122.672","53.889","PRINCE GEORGE AIRPORT AUTO","1096453","BC","17.1","0","NA","31.4","0","2.1","0","","","NA","37.1","0","NA","","8","","","NA","43.9","16.0"
"-122.791","53.900","PRINCE GEORGE MASSEY AUTO","1096454","BC","19.5","0","NA","32.4","0","7.7","0","","","NA","40.7","0","NA","","9","","","NA","18.6","63.6"
"-122.768","53.880","PRINCE GEORGE STP","1096468","BC","","","","","","","","0.0","4","NA","28.3","4","NA","0.0","7","","","NA","",""
"-122.510","53.026","QUESNEL","1096629","BC","19.3","0","NA","33.6","0","5.8","0","","","NA","51.4","0","NA","","9","","","NA","20.2","61.4"
"-122.506","53.027","QUESNEL AIRPORT AUTO","1096631","BC","19.3","0","NA","33.7","0","5.8","0","","","NA","43.7","0","NA","","9","","","NA","20.1","60.0"
"-121.686","52.184","SPOKIN LAKE 4E","1097646","BC","14.5","0","1.8","29.0","0","-1.5","0","0.0","0","NA","54.0","0","103.0","0.0","11","","","NA","108.9","0.8"
"-122.054","52.183","WILLIAMS LAKE A","1098941","BC","18.9","3","NA","34.5","3","7.1","3","0.0","0","NA","42.6","0","NA","","8","","","NA","29.3","53.8"
"-122.360","49.025","ABBOTSFORD A","1100031","BC","21.0","0","NA","33.8","0","11.1","0","0.0","0","NA","7.1","0","NA","","2","","","NA","0.7","93.5"
"-122.360","49.025","ABBOTSFORD A","1100032","BC","21.0","0","NA","33.8","0","11.1","0","","","NA","","","NA","","","","","NA","0.7","93.5"
"-121.760","49.243","AGASSIZ RCS","1100119","BC","21.4","0","2.6","33.4","0","11.4","0","","","NA","10.5","0","NA","","2","","","NA","0.7","105.6"
"-121.760","49.243","AGASSIZ CDA","1100120","BC","21.6","0","2.9","34.0","0","11.0","0","0.0","0","NA","10.2","0","18.0","0.0","1","","","NA","0.7","111.9"
"-122.955","50.129","WHISTLER - NESTERS","1100875","BC","20.0","0","NA","36.6","0","7.3","0","","","NA","10.7","0","NA","","1","","","NA","11.4","74.9"
"-123.111","50.144","CALLAGHAN VALLEY","1101300","BC","18.7","0","NA","34.1","0","5.5","0","","","NA","17.2","0","NA","","3","","","NA","31.9","54.7"
"-122.698","49.109","CLOVERDALE EAST","1101708","BC","21.7","2","NA","33.5","1","11.5","2","0.0","1","NA","8.3","1","NA","0.0","1","","","NA","0.5","107.8"
"-121.979","49.079","CULTUS LAKE","1102221","BC","21.8","0","NA","36.2","0","10.7","0","","","NA","7.0","0","NA","","1","","","NA","0.7","117.0"
"-123.002","49.126","DELTA BURNS BOG","1102415","BC","19.5","0","NA","31.7","0","8.6","0","","","NA","4.5","0","NA","","1","","","NA","7.5","53.7"
"-123.093","49.011","DELTA TSAWWASSEN BEACH","1102425","BC","20.4","1","2.4","27.0","1","14.0","1","0.0","1","NA","7.2","1","NA","0.0","2","","","NA","0.2","70.9"
"-122.551","49.145","FORT LANGLEY TELEGRAPH TRAIL","1102912","BC","21.2","0","NA","34.0","0","11.0","0","0.0","0","NA","8.0","0","NA","0.0","2","","","NA","1.9","101.4"
"-122.573","49.264","HANEY UBC RF ADMIN","1103332","BC","21.1","4","3.3","34.0","4","10.5","4","0.0","4","NA","8.0","4","NA","0.0","2","","","NA","3.7","86.9"
"-122.271","49.153","MISSION WEST ABBEY","1105192","BC","21.5","0","3.2","33.0","0","12.5","0","0.0","0","NA","15.2","0","24.0","0.0","2","","","NA","5.0","113.7"
"-123.078","49.381","N VANC GROUSE MTN RESORT","1105658","BC","17.9","2","3.9","28.5","2","7.0","2","0.0","2","NA","23.8","2","NA","0.0","4","","","NA","57.5","55.7"
"-123.115","49.315","N VANCOUVER WHARVES","1105669","BC","","","NA","","","","","0.0","6","NA","7.3","6","NA","","1","","","NA","",""
"-122.690","49.208","PITT MEADOWS CS","1106178","BC","21.8","1","NA","34.0","1","11.2","1","","","NA","5.7","1","NA","","1","","","NA","0.1","114.4"
"-123.265","49.330","POINT ATKINSON","1106200","BC","20.5","0","NA","27.5","0","14.6","0","","","NA","16.6","0","NA","","4","","","NA","0.9","77.8"
"-123.087","49.179","RICHMOND DALLYN 2","1106764","BC","","","NA","","","","","0.0","0","NA","9.0","0","NA","0.0","1","","","NA","",""
"-122.881","49.279","PORT MOODY GLENAYRE","1106CL2","BC","21.1","0","3.0","32.0","0","12.0","0","0.0","0","NA","11.6","0","18.0","0.0","1","","","NA","0.9","97.4"
"-123.093","49.171","RICHMOND NATURE PARK","1106PF7","BC","20.7","0","2.5","31.5","0","10.0","0","0.0","0","NA","8.6","0","21.0","0.0","1","","","NA","1.0","84.8"
"-123.303","49.106","SANDHEADS CS","1107010","BC","20.1","0","NA","26.8","0","15.1","0","","","NA","","","NA","","","","","NA","0.8","64.8"
"-122.110","49.113","SUMAS CANAL","1107785","BC","22.3","23","NA","35.0","17","13.0","17","0.0","17","NA","0.0","17","NA","0.0","0","","","NA","0.0","34.0"
"-123.187","49.183","VANCOUVER SEA ISLAND CCG","1108380","BC","20.3","0","NA","28.3","0","12.5","0","","","NA","6.9","0","NA","","1","","","NA","0.5","71.3"
"-123.184","49.195","VANCOUVER INTL A","1108395","BC","19.8","3","NA","26.9","3","11.8","3","0.0","0","NA","6.4","0","NA","","1","","","NA","1.5","51.8"
"-123.122","49.295","VANCOUVER HARBOUR CS","1108446","BC","21.0","0","NA","29.2","0","13.5","0","","","NA","6.6","0","NA","","1","","","NA","0.1","91.9"
"-123.193","49.347","WEST VANCOUVER AUT","1108824","BC","21.3","0","NA","31.7","0","12.2","0","","","NA","11.6","0","NA","","3","","","NA","2.1","104.2"
"-122.947","50.068","WHISTLER ROUNDHOUSE","1108906","BC","14.1","4","NA","24.0","4","3.0","4","0.0","4","NA","17.5","4","NA","0.0","2","","","NA","112.7","6.1"
"-122.784","49.018","WHITE ROCK CAMPBELL SCIENTIFIC","1108910","BC","19.7","0","NA","29.4","0","12.0","0","","","NA","10.8","0","NA","","2","","","NA","0.2","51.9"
"-121.498","49.368","HOPE A","1113542","BC","22.3","1","NA","36.4","1","12.3","1","","","NA","9.8","1","NA","","2","","","NA","1.1","129.5"
"-121.493","49.370","HOPE AIRPORT","1113543","BC","22.0","0","NA","36.3","0","11.7","0","","","NA","10.5","0","NA","","2","","","NA","1.3","126.8"
"-121.233","49.267","HOPE SLIDE","1113581","BC","18.9","0","3.7","34.5","0","7.0","0","0.0","0","NA","10.4","0","25.0","0.0","3","","","NA","20.9","49.5"
"-121.934","50.684","LILLOOET","1114619","BC","24.5","1","NA","38.2","1","11.1","1","","","NA","31.4","1","NA","","5","","","NA","2.4","197.6"
"-121.582","50.224","LYTTON A","1114738","BC","25.1","0","NA","39.7","0","10.5","0","","","NA","7.4","0","NA","","1","","","NA","1.7","221.1"
"-121.582","50.224","LYTTON RCS","1114746","BC","25.4","0","NA","39.5","0","10.5","0","","","NA","11.3","1","NA","","1","","","NA","1.5","231.9"
"-120.333","49.673","JELLICOE","1123721","BC","19.5","4","NA","35.5","4","5.0","4","0.0","4","NA","24.4","4","NA","0.0","7","","","NA","13.7","54.7"
"-119.378","49.957","KELOWNA","1123939","BC","22.1","0","NA","35.3","0","7.3","0","","","NA","12.5","0","NA","","5","","","NA","2.7","130.4"
"-119.400","49.941","KELOWNA UBCO","1123996","BC","23.6","0","NA","35.6","0","9.4","0","","","NA","25.1","0","NA","","4","","","NA","0.9","173.4"
"-120.778","50.113","MERRITT","1125073","BC","20.8","0","NA","35.6","0","4.1","0","","","NA","29.4","0","NA","","4","","","NA","13.2","100.4"
"-119.441","49.028","OSOYOOS CS","1125852","BC","24.8","0","2.4","37.9","0","10.6","0","","","NA","0.5","0","NA","","0","","","NA","0.0","209.7"
"-119.717","49.783","PEACHLAND","1126070","BC","24.3","0","3.4","36.0","0","13.0","0","0.0","0","NA","21.0","0","80.0","0.0","3","","","NA","0.0","194.8"
"-119.602","49.463","PENTICTON A","1126146","BC","22.9","1","NA","35.6","1","7.2","1","0.0","0","NA","27.7","0","NA","","4","","","NA","0.9","148.2"
"-120.513","49.468","PRINCETON A","1126510","BC","21.1","0","3.2","36.5","0","4.0","0","0.0","0","NA","52.6","0","216.0","0.0","4","","","NA","8.6","103.5"
"-120.513","49.468","PRINCETON A","1126518","BC","21.1","1","NA","36.8","1","4.2","1","","","NA","","","NA","","","","","NA","9.8","102.5"
"-119.194","50.223","VERNON AUTO","1128582","BC","23.2","1","NA","35.5","1","9.2","1","","","NA","1.5","23","NA","","0","","","NA","1.0","157.6"
"-119.056","50.359","VERNON SILVER STAR LODGE","1128584","BC","18.0","0","NA","30.0","0","0.0","0","0.0","0","NA","12.4","0","NA","0.0","4","","","NA","45.7","46.3"
"-120.510","49.465","PRINCETON CS","112FN0M","BC","21.0","0","NA","36.1","0","4.7","0","","","NA","41.5","0","NA","","4","","","NA","10.0","101.8"
"-119.649","49.563","SUMMERLAND CS","112G8L1","BC","23.8","0","2.8","35.1","0","10.4","0","","","NA","6.6","0","NA","","2","","","NA","0.2","180.6"
"-118.772","49.004","MIDWAY","1135126","BC","21.4","3","2.7","38.0","3","5.0","3","0.0","3","NA","12.8","3","NA","0.0","3","","","NA","3.5","97.8"
"-118.228","49.017","BILLINGS","1140876","BC","22.8","0","2.5","38.0","0","9.0","0","0.0","0","NA","9.6","0","42.0","0.0","2","","","NA","0.0","150.3"
"-117.633","49.296","CASTLEGAR A","1141455","BC","22.7","0","2.7","36.5","0","6.5","0","0.0","0","NA","6.4","0","21.0","0.0","2","","","NA","1.5","147.6"
"-117.774","49.343","CASTLEGAR BCHPA DAM","1141457","BC","22.3","0","2.5","34.0","0","10.0","0","0.0","0","NA","5.2","0","15.0","0.0","4","","","NA","0.0","133.7"
"-117.633","49.296","CASTLEGAR A","1141460","BC","22.1","0","NA","37.2","0","5.8","0","","","NA","","","NA","","","","","NA","1.9","130.4"
"-116.972","50.239","DUNCAN LAKE DAM","1142574","BC","20.1","0","3.1","34.5","0","6.5","0","0.0","0","NA","15.0","0","29.0","0.0","4","","","NA","8.0","73.5"
"-117.817","50.269","NAKUSP CS","1145297","BC","20.4","1","NA","35.3","1","6.7","1","","","NA","6.4","1","NA","","2","","","NA","9.1","81.3"
"-117.206","49.586","NELSON NE","1145442","BC","21.5","2","NA","34.5","2","7.5","2","0.0","1","NA","9.6","1","NA","0.0","4","","","NA","1.7","103.2"
"-117.370","49.996","NEW DENVER","1145460","BC","21.9","0","3.0","35.0","0","8.0","0","0.0","0","NA","34.2","0","62.0","0.0","5","","","NA","2.0","122.3"
"-117.305","49.491","NELSON CS","1145M29","BC","22.5","0","NA","36.7","0","7.9","0","","","NA","7.1","0","NA","","2","","","NA","0.0","140.0"
"-117.739","49.112","WARFIELD RCS","1148705","BC","23.6","0","NA","38.6","0","6.7","0","","","NA","1.3","0","NA","","0","","","NA","0.5","174.3"
"-116.501","49.082","CRESTON CAMPBELL SCIENTIFIC","114B1F0","BC","23.5","0","NA","36.0","0","8.9","0","","","NA","19.2","0","NA","","3","","","NA","1.0","172.0"
"-117.399","49.512","NELSON RIXEN CREEK","114EMDM","BC","22.4","0","NA","37.0","0","6.5","0","0.0","0","NA","21.0","0","NA","0.0","6","","","NA","2.9","138.2"
"-115.782","49.612","CRANBROOK A","1152105","BC","21.6","3","NA","36.0","3","3.3","3","0.0","0","NA","4.3","0","NA","","1","","","NA","10.2","110.9"
"-115.789","49.618","CRANBROOK AIRPORT AUTO","1152106","BC","21.5","0","NA","36.5","0","3.3","0","","","NA","3.9","0","NA","","1","","","NA","9.7","118.8"
"-115.073","49.489","FERNIE","1152850","BC","19.8","2","3.5","35.0","2","2.0","2","0.0","2","NA","25.5","2","NA","0.0","3","","","NA","17.1","68.8"
"-115.461","49.524","FT STEELE DANDY CRK","1153034","BC","21.1","10","NA","36.0","5","4.0","5","0.0","5","NA","12.4","5","NA","","2","","","NA","2.6","68.4"
"-115.962","49.632","KIMBERLEY PCC","1154203","BC","22.4","19","4.7","35.0","19","7.0","19","0.0","19","NA","1.7","19","NA","","0","","","NA","2.5","55.0"
"-116.061","50.631","KOOTENAY NP WEST GATE","1154410","BC","21.2","20","3.4","33.5","20","7.0","20","0.0","20","NA","14.0","20","NA","","2","","","NA","1.5","36.4"
"-114.884","49.745","SPARWOOD CS","1157631","BC","18.4","0","NA","33.6","0","3.0","0","","","NA","10.8","0","NA","","3","","","NA","27.2","40.4"
"-114.883","49.833","SPARWOOD A","1157635","BC","18.5","0","NA","33.6","0","3.0","0","","","NA","","","NA","","","","","NA","25.5","42.1"
"-121.281","50.708","ASHCROFT","1160515","BC","25.3","0","NA","37.9","0","10.6","0","","","NA","31.8","0","NA","","3","","","NA","1.8","227.4"
"-119.290","52.129","BLUE RIVER A","1160899","BC","18.7","0","2.7","33.5","0","6.0","0","0.0","0","NA","104.2","0","126.0","0.0","6","","","NA","23.7","45.5"
"-119.293","52.125","BLUE RIVER A","1160902","BC","18.4","2","NA","33.5","2","5.9","2","","","NA","","","NA","","","","","NA","25.7","37.1"
"-119.290","52.129","BLUE RIVER CS","1160H99","BC","18.6","0","NA","33.9","0","6.0","0","","","NA","97.5","1","NA","","7","","","NA","25.4","44.5"
"-120.082","51.653","CLEARWATER AUTO","1161650","BC","21.2","0","NA","36.4","0","7.3","0","","","NA","42.3","0","NA","","5","","","NA","11.1","108.8"
"-121.685","51.266","CLINTON A","1161662","BC","16.5","3","NA","32.5","3","0.1","3","","","NA","29.4","1","NA","","4","","","NA","52.0","9.9"
"-121.505","51.144","CLINTON RCS","1161663","BC","19.1","0","NA","32.9","0","3.9","0","","","NA","10.9","0","NA","","2","","","NA","30.2","65.4"
"-120.449","50.703","KAMLOOPS A","1163781","BC","24.3","2","NA","37.5","2","9.9","2","0.0","0","NA","8.0","0","NA","","3","","","NA","1.3","183.4"
"-120.442","50.702","KAMLOOPS AUT","1163842","BC","23.9","0","NA","36.8","0","9.9","0","","","NA","7.1","0","NA","","3","","","NA","1.5","184.6"
"-121.217","51.681","100 MILE HOUSE 6NE","1165793","BC","16.6","0","NA","33.0","0","-1.0","0","0.0","0","NA","31.6","0","NA","0.0","5","","","NA","61.2","17.5"
"-119.778","51.576","VAVENBY","1168520","BC","21.0","3","3.4","36.0","2","7.0","2","0.0","2","NA","36.0","2","NA","0.0","5","","","NA","6.4","89.3"
"-120.172","50.630","KAMLOOPS PRATT ROAD","116C8P0","BC","22.7","5","NA","34.0","5","10.0","5","0.0","5","NA","23.2","5","NA","0.0","3","","","NA","3.2","124.9"
"-119.291","50.703","SALMON ARM CS","116FRMN","BC","21.8","4","2.0","34.2","4","8.5","4","","","NA","12.8","4","NA","","5","","","NA","2.3","103.8"
"-116.982","51.299","GOLDEN A","1173210","BC","19.6","0","2.9","33.0","0","7.0","0","0.0","0","NA","42.0","0","93.0","0.0","10","","","NA","16.1","65.4"
"-116.982","51.299","GOLDEN A","1173214","BC","19.4","0","NA","33.2","0","7.1","0","","","NA","","","NA","","","","","NA","18.7","63.2"
"-116.984","51.300","GOLDEN AIRPORT","1173220","BC","19.5","0","NA","33.7","0","7.2","0","","","NA","39.4","0","NA","","7","","","NA","19.0","64.8"
"-118.585","52.053","MICA DAM","1175122","BC","17.8","17","1.6","28.0","13","6.0","13","0.0","13","NA","28.4","13","NA","","4","","","NA","12.9","9.5"
"-118.183","50.967","REVELSTOKE A","1176745","BC","20.8","0","NA","35.1","0","8.4","0","","","NA","31.3","0","NA","","6","","","NA","8.2","94.3"
"-118.176","50.958","REVELSTOKE AIRPORT AUTO","1176755","BC","21.0","0","NA","35.5","0","8.7","0","","","NA","33.2","0","NA","","6","","","NA","7.4","101.2"
"-116.345","51.443","YOHO PARK","11790J1","BC","16.1","0","NA","32.5","0","1.0","0","","","NA","36.0","0","NA","0.0","8","","","NA","69.1","10.6"
"-121.627","55.687","CHETWYND A","1181508","BC","18.4","0","3.9","33.0","0","5.0","0","0.0","0","NA","11.2","0","22.0","0.0","4","","","NA","23.6","34.5"
"-121.627","55.687","CHETWYND A","1181513","BC","18.3","0","NA","33.1","0","5.1","0","","","NA","","","NA","","","","","NA","23.1","31.1"
"-120.183","55.742","DAWSON CREEK A","1182289","BC","18.5","1","NA","31.7","1","5.6","1","","","NA","13.4","1","NA","","3","","","NA","16.7","30.8"
"-120.740","56.238","FORT ST. JOHN A","1183001","BC","18.6","0","NA","30.7","0","9.0","0","0.0","0","NA","38.5","0","NA","","5","","","NA","21.9","41.8"
"-120.750","56.248","FORT ST JOHN AIRPORT","1183002","BC","18.7","1","NA","31.0","1","8.6","1","","","NA","42.4","1","NA","","5","","","NA","19.9","40.2"
"-123.133","55.299","MACKENZIE","1184791","BC","17.6","0","NA","32.0","0","4.3","0","","","NA","25.5","0","NA","","6","","","NA","38.9","26.9"
"-123.138","55.305","MACKENZIE AIRPORT AUTO","1184793","BC","17.9","0","NA","32.3","0","5.3","0","","","NA","26.5","0","NA","","6","","","NA","36.4","33.8"
"-130.031","58.422","DEASE LAKE A","1192341","BC","13.7","0","NA","27.8","0","1.3","0","","","NA","61.7","0","NA","","11","","","NA","134.1","0.0"
"-122.597","58.836","FORT NELSON A","1192946","BC","18.0","1","NA","33.2","1","5.5","1","0.0","1","NA","44.3","1","NA","","6","","","NA","32.8","33.7"
"-122.574","58.841","FORT NELSON","1192948","BC","18.3","0","NA","31.6","0","6.1","0","","","NA","51.5","0","NA","","6","","","NA","28.5","39.3"
"-130.025","58.426","DEASE LAKE (AUT)","119BLM0","BC","13.7","0","NA","28.1","0","1.2","0","","","NA","58.4","0","NA","","11","","","NA","133.4","0.1"
"-140.869","62.410","BEAVER CREEK A","2100155","YT","11.9","0","NA","26.0","0","-1.1","0","","","NA","","","NA","","","","","NA","188.3","0.0"
"-139.040","61.371","BURWASH A","2100181","YT","11.1","0","NA","23.4","0","-3.2","0","","","NA","13.0","0","NA","","4","","","NA","212.8","0.0"
"-139.017","61.367","BURWASH AIRPORT AUTO","2100184","YT","11.1","0","NA","23.4","0","-3.1","0","","","NA","34.5","0","NA","","5","","","NA","214.1","0.0"
"-136.192","62.115","CARMACKS CS","2100301","YT","14.5","0","NA","27.6","0","1.1","0","","","NA","19.2","0","NA","","6","","","NA","112.0","2.2"
"-139.130","64.042","DAWSON CITY A","2100407","YT","13.8","0","NA","28.3","0","1.1","0","","","NA","","","NA","","","","","NA","130.9","0.9"
"-133.376","62.208","FARO (AUT)","2100518","YT","13.6","0","NA","27.2","0","1.1","0","","","NA","33.4","0","NA","","11","","","NA","136.3","0.0"
"-133.373","62.207","FARO A","2100527","YT","13.5","0","NA","27.0","0","1.1","0","","","NA","","","NA","","","","","NA","140.1","0.0"
"-137.580","60.773","HAINES JUNCTION","2100630","YT","12.1","0","NA","24.4","0","-3.5","0","","","NA","","","NA","","","","","NA","182.8","0.0"
"-140.150","69.164","IVVAVIK NAT. PARK","2100660","YT","10.0","1","NA","24.3","1","-3.2","1","","","NA","28.9","2","NA","","6","","","NA","239.5","0.0"
"-140.197","69.612","KOMAKUK BEACH","2100682","YT","7.7","0","NA","26.2","0","-0.1","0","","","NA","","","NA","","","","","NA","319.5","0.3"
"-130.037","63.244","MACMILLAN PASS","2100693","YT","10.0","2","NA","23.2","2","-0.7","2","","","NA","79.3","2","NA","0.0","14","","","NA","231.2","0.0"
"-140.848","68.801","MARGARET LAKE","2100697","YT","9.7","1","NA","21.5","1","-1.5","1","","","NA","49.4","2","NA","","11","","","NA","248.5","0.0"
"-135.868","63.616","MAYO A","2100701","YT","14.4","1","NA","27.6","1","2.5","1","0.0","0","NA","65.0","0","NA","","9","","","NA","112.0","3.4"
"-135.869","63.617","MAYO A","2100702","YT","14.5","0","NA","27.6","0","2.5","0","","","NA","","","NA","","","","","NA","113.4","3.4"
"-139.839","67.571","OLD CROW RCS","2100805","YT","12.4","0","NA","27.0","0","2.6","0","","","NA","","","NA","","","","","NA","174.8","0.0"
"-139.840","67.570","OLD CROW A","2100807","YT","12.3","0","NA","26.8","0","2.5","0","","","NA","","","NA","","","","","NA","175.8","0.0"
"-137.050","61.033","OTTER FALLS NCPC","2100840","YT","13.1","2","2.3","25.0","2","-3.0","2","0.0","2","NA","53.0","2","NA","0.0","6","","","NA","141.3","0.0"
"-137.367","62.817","PELLY RANCH FORT SELKIRK","2100881","YT","14.8","3","NA","26.8","3","2.4","3","","","NA","","","NA","3.0","","","","NA","89.8","0.9"
"-136.218","66.981","ROCK RIVER","2100935","YT","10.9","4","NA","25.4","4","1.8","4","","","NA","77.0","4","NA","","12","","","NA","191.4","0.7"
"-137.217","68.950","SHINGLE POINT A","2100950","YT","9.8","0","NA","26.2","0","2.6","0","","","NA","","","NA","","","","","NA","254.6","0.9"
"-139.127","64.061","DAWSON","2100LRP","YT","13.8","0","NA","28.5","0","1.1","0","","","NA","","","NA","","","","","NA","130.8","0.9"
"-132.733","60.167","TESLIN (AUT)","2101102","YT","13.6","0","NA","26.0","0","2.0","0","","","NA","26.3","0","NA","","5","","","NA","136.5","0.8"
"-132.742","60.173","TESLIN A","2101106","YT","13.7","0","NA","25.8","0","2.5","0","","","NA","","","NA","","","","","NA","132.8","0.7"
"-128.823","60.116","WATSON LAKE A","2101201","YT","15.2","5","NA","28.4","5","3.5","5","","","NA","","","NA","","","","","NA","78.1","5.1"
"-128.823","60.116","WATSON LAKE A","2101202","YT","15.2","0","NA","28.4","0","3.5","0","","","NA","","","NA","","","","","NA","92.1","5.1"
"-128.832","60.116","WATSON LAKE (AUT)","2101204","YT","15.2","0","NA","28.6","0","3.9","0","","","NA","22.9","0","NA","","7","","","NA","90.1","4.8"
"-135.067","60.709","WHITEHORSE A","2101303","YT","14.4","1","NA","25.0","1","3.8","1","","","NA","","","NA","","","","","NA","107.7","0.2"
"-135.098","60.733","WHITEHORSE AUTO","2101310","YT","14.2","0","NA","24.8","0","2.7","0","","","NA","20.2","0","NA","","7","","","NA","118.5","0.0"
"-135.006","68.223","AKLAVIK A","2200105","NT","12.4","1","NA","26.3","1","4.2","1","","","NA","","","NA","","","","","NA","171.8","2.3"
"-124.717","70.167","CAPE PARRY A","2200675","NT","6.5","0","NA","17.9","0","-0.2","0","","","NA","","","NA","","","","","NA","356.3","0.0"
"-126.123","67.021","COLVILLE LAKE","2200824","NT","12.7","15","NA","24.3","15","1.4","15","","","NA","","","NA","","","","","NA","84.8","0.6"
"-126.129","67.021","COLVILLE LAKE A","2200827","NT","13.5","0","NA","28.1","0","1.0","0","","","NA","13.1","0","NA","","3","","","NA","145.3","4.3"
"-123.433","65.209","DELINE CS","2201022","NT","14.4","0","NA","28.3","0","2.6","0","","","NA","14.7","0","NA","","5","","","NA","118.7","6.7"
"-123.436","65.211","DELINE A","2201023","NT","14.6","0","NA","28.1","0","2.9","0","","","NA","","","NA","","","","","NA","113.9","8.5"
"-124.468","61.257","DEADMEN VALLEY","22010H0","NT","16.9","3","NA","33.1","3","1.5","3","","","NA","25.0","3","NA","","3","","","NA","52.6","21.9"
"-128.648","66.241","FORT GOOD HOPE A","2201406","NT","15.1","5","NA","31.2","5","4.9","5","","","NA","","","NA","","","","","NA","80.2","4.6"
"-128.644","66.242","FORT GOOD HOPE CS","2201450","NT","15.2","0","NA","31.4","0","5.2","0","","","NA","43.4","0","NA","0.0","6","","","NA","94.0","7.0"
"-123.467","60.233","FORT LIARD","2201579","NT","17.9","1","NA","32.2","1","4.2","1","","","NA","34.1","1","NA","","6","","","NA","35.6","31.4"
"-123.470","60.236","FORT LIARD A","2201581","NT","17.8","2","NA","31.9","2","4.3","2","","","NA","","","NA","","","","","NA","34.6","29.8"
"-134.860","67.407","FORT MCPHERSON A","2201606","NT","13.5","2","NA","29.3","2","3.3","2","","","NA","","","NA","","","","","NA","134.6","4.7"
"-125.569","64.910","TULITA A","2201705","NT","16.5","0","NA","30.4","0","5.6","0","","","NA","","","NA","","","","","NA","62.5","15.7"
"-109.168","62.711","FORT RELIANCE (AUT)","2201903","NT","15.6","6","NA","29.9","6","3.9","6","","","NA","","","NA","","","","","NA","73.3","13.8"
"-113.690","61.181","FORT RESOLUTION A","2202010","NT","16.3","3","NA","30.2","3","4.6","3","","","NA","","","NA","","","","","NA","67.3","20.2"
"-121.237","61.760","FORT SIMPSON CLIMATE","2202102","NT","17.5","0","NA","31.4","0","2.9","0","","","NA","40.1","0","NA","","7","","","NA","50.3","34.3"
"-121.237","61.760","FORT SIMPSON A","2202103","NT","17.7","6","NA","31.1","6","3.5","6","0.0","2","NA","48.0","2","NA","","9","","","NA","37.7","31.3"
"-121.237","61.760","FORT SIMPSON A","2202104","NT","17.6","0","NA","31.1","0","3.5","0","","","NA","","","NA","","","","","NA","48.2","36.9"
"-111.962","60.020","FORT SMITH A","2202201","NT","17.4","4","NA","31.8","4","3.2","4","0.0","0","NA","24.1","0","NA","","7","","","NA","48.2","31.0"
"-111.929","60.026","FORT SMITH CLIMATE","2202202","NT","17.6","0","NA","31.9","0","2.2","0","","","NA","17.7","0","NA","","6","","","NA","53.3","40.5"
"-111.962","60.020","FORT SMITH A","2202203","NT","17.6","0","NA","31.8","0","3.2","0","","","NA","","","NA","","","","","NA","52.0","39.8"
"-105.133","63.600","HANBURY RIVER","2202351","NT","12.2","6","NA","27.3","6","0.7","6","","","NA","41.8","7","NA","","3","","","NA","147.2","2.8"
"-115.783","60.840","HAY RIVER A","2202401","NT","17.1","12","NA","31.7","12","5.5","12","0.0","12","NA","0.0","12","NA","","0","","","NA","36.0","19.6"
"-115.777","60.839","HAY RIVER CLIMATE","2202402","NT","17.2","0","NA","31.7","0","6.0","0","","","NA","16.3","0","NA","","1","","","NA","56.5","31.2"
"-115.783","60.840","HAY RIVER A","2202403","NT","16.8","0","NA","31.7","0","5.0","0","","","NA","","","NA","","","","","NA","64.5","26.5"
"-113.726","61.920","INNER WHALEBACKS","2202560","NT","16.8","3","NA","22.9","3","10.8","3","","","NA","40.7","3","NA","","5","","","NA","44.3","10.3"
"-133.483","68.304","INUVIK A","2202571","NT","12.9","0","NA","26.9","0","1.5","0","","","NA","","","NA","","","","","NA","161.7","4.0"
"-133.517","68.317","INUVIK CLIMATE","2202578","NT","12.7","0","NA","28.2","0","2.2","0","","","NA","52.5","0","NA","","6","","","NA","167.5","4.2"
"-121.673","69.673","KEATS POINT","2202663","NT","8.8","0","NA","24.0","0","-2.2","0","","","NA","","","NA","","","","","NA","286.6","0.9"
"-117.245","63.134","WHATI","2202678","NT","14.8","1","NA","28.8","1","-0.8","1","","","NA","57.9","1","NA","0.0","5","","","NA","106.0","9.1"
"-110.682","62.418","LUTSELK'E A","2202690","NT","14.9","4","NA","31.1","4","2.8","4","","","NA","","","NA","","","","","NA","101.1","16.5"
"-128.974","69.925","NICHOLSON PENINSULA 2","2202751","NT","8.9","0","NA","24.6","0","0.7","0","","","NA","","","NA","","","","","NA","281.8","0.0"
"-126.799","65.281","NORMAN WELLS A","2202801","NT","15.5","1","NA","30.3","1","3.1","1","0.0","0","NA","37.5","0","NA","","7","","","NA","83.4","9.2"
"-126.753","65.288","NORMAN WELLS CLIMATE","2202810","NT","15.1","0","NA","30.2","0","1.8","0","","","NA","39.7","0","NA","","7","","","NA","99.1","7.9"
"-124.076","69.361","PAULATUK A","2203055","NT","10.3","0","NA","25.1","0","0.6","0","","","NA","","","NA","","","","","NA","240.8","1.1"
"-124.083","69.358","PAULATUK","2203058","NT","10.4","1","NA","25.3","1","1.0","1","","","NA","44.4","1","NA","","9","","","NA","229.7","1.3"
"-135.444","69.633","PELLY ISLAND","2203095","NT","9.4","4","NA","24.0","4","1.5","4","","","NA","","","NA","","","","","NA","234.7","1.6"
"-127.209","61.963","RABBIT KETTLE","2203342","NT","15.4","3","NA","31.0","3","0.9","3","","","NA","16.0","3","NA","","6","","","NA","78.8","5.1"
"-117.328","64.112","GAMETI","2203359","NT","16.3","4","NA","27.9","4","6.2","4","","","NA","14.4","5","NA","","5","","","NA","62.3","15.3"
"-117.310","64.116","GAMETI A","2203365","NT","16.3","1","NA","28.0","1","6.3","1","","","NA","","","NA","","","","","NA","66.0","15.5"
"-133.026","69.433","TUKTOYAKTUK A","2203911","NT","10.6","1","NA","26.3","1","1.3","1","","","NA","","","NA","","","","","NA","223.8","2.0"
"-133.017","69.433","TUKTOYAKTUK","2203914","NT","10.7","0","NA","26.3","0","1.7","0","","","NA","63.8","0","NA","","11","","","NA","228.4","1.8"
"-122.359","69.199","TUKTUT NOGAIT","2203918","NT","9.1","4","NA","22.6","4","-2.3","4","","","NA","79.2","4","NA","","8","","","NA","239.1","0.0"
"-114.077","64.191","WEKWEETI A","2203980","NT","14.5","0","NA","26.7","0","3.5","0","","","NA","48.8","0","NA","","7","","","NA","118.4","8.8"
"-123.437","63.210","WRIGLEY A","2204005","NT","16.8","0","NA","30.2","0","1.2","0","","","NA","","","NA","","","","","NA","60.8","23.3"
"-114.440","62.463","YELLOWKNIFE A","2204101","NT","16.1","0","NA","28.9","0","6.5","0","0.0","0","NA","31.1","0","NA","","7","","","NA","72.5","14.6"
"-123.742","61.242","YOHIN","2204300","NT","18.6","8","NA","34.7","8","3.7","8","","","NA","3.2","13","NA","","1","","","NA","21.0","34.1"
"-130.911","69.604","LIVERPOOL BAY","220B68C","NT","9.9","1","NA","25.0","1","0.3","1","","","NA","","","NA","","","","","NA","242.5","0.7"
"-130.228","67.179","LITTLE CHICAGO","220B6Q3","NT","15.2","2","NA","32.2","2","2.0","2","","","NA","","","NA","","","","","NA","88.8","7.3"
"-121.239","60.441","SAMBAA K'E","220CQHR","NT","16.3","1","NA","32.7","1","2.2","1","","","NA","11.1","1","NA","","3","","","NA","70.6","20.3"
"-133.942","68.911","STORM HILLS","220LQJJ","NT","10.3","0","NA","25.5","0","0.4","0","","","NA","","","NA","","","","","NA","242.1","2.4"
"-122.851","61.125","LINDBURG LANDING","220N003","NT","17.3","3","NA","33.0","3","4.6","3","","","NA","","","NA","","","","","NA","40.9","21.0"
"-113.863","63.603","LOWER CARP LAKE","220N004","NT","11.4","27","NA","14.2","27","6.4","27","","","NA","","","NA","","","","","NA","26.6","0.0"
"-133.502","68.746","TRAIL VALLEY","220N005","NT","11.6","6","NA","27.5","6","1.6","6","","","NA","25.4","6","NA","","8","","","NA","162.6","2.4"
"-94.072","61.094","ARVIAT A","2300427","NU","11.8","0","NA","27.1","0","2.5","0","","","NA","104.1","0","NA","","10","","","NA","193.8","1.1"
"-96.000","64.317","BAKER LAKE CLIMATE","2300501","NU","11.1","0","NA","26.9","0","0.6","0","","","NA","23.0","0","NA","","6","","","NA","215.9","2.9"
"-96.078","64.299","BAKER LAKE A","2300503","NU","12.3","17","NA","28.6","17","2.1","17","0.0","2","NA","28.7","2","NA","","6","","","NA","83.2","2.7"
"-96.078","64.299","BAKER LAKE A","2300504","NU","11.4","2","NA","28.6","2","1.4","2","","","NA","","","NA","","","","","NA","195.0","2.9"
"-108.015","66.838","BATHURST INLET","2300551","NU","12.0","5","NA","29.5","5","-0.4","5","","","NA","6.1","9","NA","","3","","","NA","160.8","5.2"
"-114.940","68.755","BERNARD HARBOUR","2300556","NU","11.5","25","NA","19.0","25","4.8","25","","","NA","","","NA","","","","","NA","38.9","0.0"
"-90.731","63.347","CHESTERFIELD INLET A","2300710","NU","11.3","0","NA","27.7","0","2.6","0","","","NA","","","NA","","","","","NA","212.7","3.6"
"-115.144","67.817","KUGLUKTUK A","2300903","NU","11.2","3","NA","26.9","3","-0.9","3","0.0","0","NA","56.3","0","NA","","5","","","NA","190.6","0.0"
"-115.135","67.817","KUGLUKTUK CLIMATE","2300904","NU","11.2","0","NA","27.0","0","-0.7","0","","","NA","53.5","0","NA","","5","","","NA","212.3","0.0"
"-115.144","67.817","KUGLUKTUK A","2300905","NU","11.2","0","NA","26.9","0","-0.9","0","","","NA","","","NA","","","","","NA","211.5","0.0"
"-83.359","64.193","CORAL HARBOUR A","2301002","NU","","","NA","","","","","0.0","10","NA","11.4","10","NA","","3","","","NA","",""
"-83.359","64.193","CORAL HARBOUR A","2301004","NU","8.1","11","NA","20.0","11","-1.6","11","","","NA","","","NA","","","","","NA","198.4","0.0"
"-83.350","64.183","CORAL HARBOUR RCS","2301010","NU","8.7","0","NA","19.9","0","-1.2","0","","","NA","24.4","0","NA","","6","","","NA","287.7","0.0"
"-100.884","61.132","ENNADAI LAKE (AUT)","2301102","NU","12.8","5","NA","26.3","5","2.1","5","","","NA","6.7","24","NA","","3","","","NA","140.9","6.4"
"-94.067","61.100","ARVIAT CLIMATE","2301153","NU","11.9","0","NA","27.3","0","2.2","0","","","NA","86.0","0","NA","","10","","","NA","191.6","1.1"
"-95.850","68.636","GJOA HAVEN A","2302337","NU","7.1","0","NA","20.9","0","-0.4","0","","","NA","23.5","0","NA","","6","","","NA","338.2","0.0"
"-95.850","68.636","GJOA HAVEN CLIMATE","2302340","NU","","","NA","","","","","","","NA","30.9","2","NA","","7","","","NA","",""
"-89.796","68.538","KUGAARUK CLIMATE","2303094","NU","7.3","1","NA","22.1","1","-1.5","1","","","NA","33.0","1","NA","","6","","","NA","321.4","0.0"
"-89.805","68.536","KUGAARUK A","2303095","NU","7.2","0","NA","22.2","0","-1.4","0","","","NA","","","NA","","","","","NA","335.2","0.0"
"-92.115","62.811","RANKIN INLET A","2303405","NU","11.6","1","NA","25.3","1","2.5","1","0.0","0","NA","46.0","0","NA","","11","","","NA","193.4","0.7"
"-102.429","65.100","ROBERTSON LAKE (AUT)","2303610","NU","10.9","6","NA","28.4","6","-1.4","6","","","NA","29.8","6","NA","","6","","","NA","177.8","0.8"
"-79.250","56.537","SANIKILUAQ A","2303660","NU","10.3","0","NA","22.1","0","4.3","0","","","NA","","","NA","","","","","NA","238.4","0.0"
"-79.260","56.537","SANIKILUAQ","2303668","NU","10.5","3","NA","22.1","3","4.3","3","","","NA","","","NA","","","","","NA","211.2","0.0"
"-93.433","68.817","SHEPHERD BAY A","2303685","NU","7.0","0","NA","19.8","0","0.5","0","","","NA","","","NA","","","","","NA","340.3","0.0"
"-92.598","62.240","WHALE COVE A","2303990","NU","11.2","0","NA","26.1","0","4.2","0","","","NA","","","NA","","","","","NA","212.0","0.7"
"-111.246","65.755","LUPIN CS","230N002","NU","11.0","12","NA","25.0","12","-3.2","12","","","NA","1.4","11","NA","","1","","","NA","132.7","0.0"
"-62.333","82.500","ALERT CLIMATE","2400305","NU","1.8","0","NA","15.1","0","-5.0","0","","","NA","2.6","0","NA","","1","","","NA","502.1","0.0"
"-62.333","82.500","ALERT UA","2400306","NU","","","NA","","","","","0.4","0","NA","2.8","0","NA","0.0","1","","","NA","",""
"-85.047","73.006","ARCTIC BAY","2400399","NU","5.9","1","NA","15.7","1","-2.7","1","","","NA","","","NA","","","","","NA","362.4","0.0"
"-85.012","72.993","ARCTIC BAY CS","2400404","NU","5.5","0","NA","15.3","0","-2.5","0","","","NA","15.1","0","NA","","4","","","NA","386.5","0.0"
"-77.230","69.224","BRAY ISLAND","2400561","NU","8.4","27","NA","17.0","27","1.3","27","","","NA","","","NA","","","","","NA","38.6","0.0"
"-64.146","63.340","BREVOORT ISLAND","2400565","NU","2.9","24","NA","10.0","24","-0.5","24","","","NA","","","NA","","","","","NA","105.8","0.0"
"-63.789","67.536","BROUGHTON ISLAND","2400570","NU","4.7","19","NA","16.1","19","-1.4","19","","","NA","","","NA","","","","","NA","159.8","0.0"
"-64.033","67.547","QIKIQTARJUAQ CLIMATE","2400573","NU","5.0","4","NA","19.2","4","-0.2","4","","","NA","34.1","4","NA","","8","","","NA","349.8","0.0"
"-64.032","67.547","QIKIQTARJUAQ A","2400577","NU","4.9","0","NA","19.2","0","-0.2","0","","","NA","34.5","0","NA","","8","","","NA","407.0","0.0"
"-105.137","69.108","CAMBRIDGE BAY A","2400601","NU","8.4","2","NA","20.1","2","-0.6","2","0.0","0","NA","26.4","0","NA","","4","","","NA","277.0","0.0"
"-105.138","69.108","CAMBRIDGE BAY GSN","2400602","NU","8.5","0","NA","20.3","0","-0.5","0","","","NA","24.7","0","NA","","3","","","NA","293.0","0.0"
"-105.137","69.108","CAMBRIDGE BAY A","2400603","NU","8.4","1","NA","20.1","1","-0.6","1","","","NA","","","NA","","","","","NA","287.1","0.0"
"-76.530","64.231","KINNGAIT","2400636","NU","7.6","0","NA","17.8","0","0.2","0","","","NA","50.9","0","NA","","11","","","NA","322.4","0.0"
"-76.525","64.230","KINNGAIT AIRPORT","2400637","NU","7.7","0","NA","17.8","0","0.3","0","","","NA","53.0","0","NA","","12","","","NA","319.1","0.0"
"-61.383","66.650","CAPE DYER","2400650","NU","2.7","1","NA","12.5","1","-2.2","1","","","NA","","","NA","","","","","NA","458.7","0.0"
"-78.293","73.668","CAPE LIVERPOOL","2400675","NU","3.7","4","NA","14.5","4","-1.2","4","","","NA","36.7","7","NA","","9","","","NA","386.1","0.0"
"-107.823","69.036","CAPE PEEL WEST","2400697","NU","8.3","0","NA","21.0","0","0.4","0","","","NA","","","NA","","","","","NA","299.9","0.0"
"-68.517","70.483","CLYDE RIVER CLIMATE","2400802","NU","4.8","0","NA","15.7","0","-0.2","0","","","NA","","","NA","","","","","NA","410.6","0.0"
"-68.517","70.486","CLYDE RIVER A","2400804","NU","4.7","0","NA","15.5","0","-0.2","0","","","NA","51.5","0","NA","","9","","","NA","411.3","0.0"
"-71.167","68.650","DEWAR LAKES","2401030","NU","5.2","1","NA","15.6","1","-2.0","1","","","NA","","","NA","","","","","NA","383.8","0.0"
"-85.934","79.989","EUREKA CLIMATE","2401199","NU","5.1","0","NA","14.7","0","-1.1","0","","","NA","0.6","0","NA","","0","","","NA","399.0","0.0"
"-85.812","79.994","EUREKA A","2401208","NU","6.1","0","NA","15.0","0","-2.6","0","","","NA","","","NA","","","","","NA","367.8","0.0"
"-94.198","72.018","FORT ROSS","2402051","NU","4.7","3","NA","15.8","3","0.6","3","","","NA","40.4","3","NA","","6","","","NA","372.3","0.0"
"-100.267","70.633","GATESHEAD ISLAND","2402332","NU","2.4","2","NA","15.9","2","-2.2","2","","","NA","13.7","4","NA","","4","","","NA","451.3","0.0"
"-82.902","76.423","GRISE FIORD CLIMATE","2402351","NU","3.8","0","NA","10.4","0","-1.5","0","","","NA","19.5","0","NA","","4","","","NA","441.7","0.0"
"-81.244","68.776","SANIRAJAK","2402353","NU","6.8","2","NA","19.2","2","0.8","2","","","NA","13.5","2","NA","","4","","","NA","324.1","0.0"
"-81.243","68.776","SANIRAJAK AIRPORT","2402354","NU","8.9","17","NA","19.6","17","2.6","17","","","NA","15.0","0","NA","","6","","","NA","127.5","0.0"
"-82.908","76.426","GRISE FIORD A","2402360","NU","3.9","0","NA","11.2","0","-1.6","0","","","NA","","","NA","","","","","NA","437.2","0.0"
"-81.816","69.365","IGLOOLIK A","2402546","NU","6.7","0","NA","17.9","0","-1.1","0","","","NA","","","NA","","","","","NA","349.5","0.0"
"-68.544","63.747","IQALUIT CLIMATE","2402592","NU","7.3","1","NA","17.4","1","0.2","1","","","NA","63.8","1","NA","","15","","","NA","320.5","0.0"
"-68.556","63.757","IQALUIT A","2402596","NU","6.3","15","NA","13.6","15","1.0","15","","","NA","","","NA","","","","","NA","187.4","0.0"
"-103.554","78.792","ISACHSEN (AUT)","2402604","NU","2.2","13","NA","10.7","13","-3.9","13","","","NA","6.1","13","NA","","2","","","NA","283.7","0.0"
"-69.877","62.848","KIMMIRUT A","2402673","NU","7.9","1","NA","18.4","1","3.0","1","","","NA","","","NA","","","","","NA","301.9","0.0"
"-75.141","68.899","LONGSTAFF BLUFF","2402684","NU","7.0","1","NA","15.6","1","1.4","1","","","NA","","","NA","","","","","NA","329.2","0.0"
"-65.711","66.143","PANGNIRTUNG","2403049","NU","7.3","0","NA","16.5","0","2.8","0","","","NA","59.8","0","NA","","10","","","NA","332.5","0.0"
"-65.714","66.145","PANGNIRTUNG A","2403054","NU","7.6","0","NA","19.7","0","2.6","0","","","NA","","","NA","","","","","NA","321.0","0.0"
"-77.958","72.693","POND INLET CLIMATE","2403204","NU","6.0","0","NA","18.5","0","-1.6","0","","","NA","14.3","1","NA","","3","","","NA","371.8","0.0"
"-77.969","72.689","POND INLET A","2403206","NU","6.1","1","NA","18.5","1","-1.3","1","","","NA","16.6","1","NA","","4","","","NA","357.5","0.0"
"-105.715","75.377","REA POINT","2403450","NU","2.7","2","NA","15.6","2","-3.1","2","","","NA","68.7","2","NA","","6","","","NA","442.7","0.0"
"-86.225","66.521","NAUJAAT A","2403495","NU","7.9","0","NA","18.1","0","1.4","0","","","NA","","","NA","","","","","NA","312.7","0.0"
"-94.969","74.717","RESOLUTE BAY A","2403497","NU","3.8","2","NA","13.5","2","-1.4","2","","","NA","","","NA","","","","","NA","410.8","0.0"
"-94.969","74.717","RESOLUTE BAY A","2403498","NU","3.9","7","NA","13.5","7","-1.4","7","1.0","0","NA","22.6","0","NA","","6","","","NA","339.4","0.0"
"-94.983","74.716","RESOLUTE CS","2403505","NU","3.7","0","NA","13.6","0","-1.1","0","","","NA","18.2","0","NA","","4","","","NA","443.5","0.0"
"-105.296","73.766","STEFANSSON ISLAND","2403756","NU","2.1","7","NA","18.1","7","-2.5","7","","","NA","30.8","7","NA","","4","","","NA","380.9","0.0"
"-91.816","81.161","SVARTEVAEG","2403833","NU","1.5","1","NA","9.0","1","-3.6","1","","","NA","4.6","1","NA","1.0","2","","","NA","496.0","0.0"
"-93.577","69.547","TALOYOAK A","2403855","NU","8.0","14","NA","19.5","14","0.1","14","0.0","9","NA","26.9","9","NA","","2","","","NA","169.6","0.0"
"-93.577","69.547","TALOYOAK A","2403856","NU","7.3","1","NA","19.5","1","0.1","1","","","NA","","","NA","","","","","NA","320.3","0.0"
"-89.446","65.879","WAGER BAY (AUT)","2403945","NU","10.0","6","NA","23.0","6","1.6","6","","","NA","14.1","10","NA","","6","","","NA","200.3","0.0"
"-119.989","74.139","NANGMAGVIK LAKE","2500440","NT","4.8","2","NA","18.8","2","-2.9","2","","","NA","11.6","3","NA","","3","","","NA","382.9","0.0"
"-112.161","74.457","CAPE PROVIDENCE","2501419","NT","3.1","10","NA","10.6","9","-2.5","10","","","NA","15.2","11","NA","","3","","","NA","313.0","0.0"
"-117.806","70.763","ULUKHAKTOK A","2502503","NT","7.7","0","NA","21.1","0","-1.7","0","","","NA","","","NA","","","","","NA","320.0","0.0"
"-117.800","70.761","HOLMAN CS","2502505","NT","7.6","2","NA","20.9","2","-1.6","2","","","NA","40.4","2","NA","","8","","","NA","300.4","0.0"
"-125.254","71.993","SACHS HARBOUR CLIMATE","2503648","NT","5.7","0","NA","19.4","0","-2.0","0","","","NA","45.6","0","NA","","6","","","NA","380.8","0.0"
"-125.241","71.994","SACHS HARBOUR A","2503649","NT","5.6","0","NA","19.5","0","-2.2","0","","","NA","","","NA","","","","","NA","384.7","0.0"
"-119.538","73.231","THOMSEN RIVER","2503886","NT","6.6","9","NA","19.0","9","-1.1","9","","","NA","16.3","9","NA","","2","","","NA","250.0","0.0"
"-119.347","76.238","MOULD BAY CS","250M001","NT","3.2","4","NA","14.3","4","-2.7","4","","","NA","1.8","7","NA","","0","","","NA","400.7","0.0"
"-112.967","54.283","ABEE AGDM","3010010","AB","16.1","0","NA","30.4","0","0.0","0","","","NA","27.5","7","NA","","4","","","NA","69.3","11.1"
"-111.181","53.113","ALBERT HALL AGCM","3010060","AB","18.0","1","NA","33.4","1","5.2","1","","","NA","21.6","1","NA","","5","","","NA","29.6","28.7"
"-111.779","52.315","ALLIANCE AGCM","3010162","AB","18.9","5","NA","33.0","5","6.8","5","","","NA","22.6","5","NA","","3","","","NA","17.0","41.1"
"-112.279","53.917","ANDREW AGDM","3010237","AB","17.6","2","NA","31.1","2","4.3","2","","","NA","35.0","6","NA","","6","","","NA","36.4","23.9"
"-111.465","52.582","BELLSHILL AGCM","3010650","AB","19.8","0","NA","34.7","0","7.0","0","","","NA","15.5","0","NA","","4","","","NA","15.3","71.8"
"-110.101","52.124","BODO AGDM","3010730","AB","19.9","2","NA","34.7","2","5.4","2","","","NA","34.7","2","NA","","3","","","NA","16.4","72.8"
"-114.441","53.089","BRETON PLOTS","3010816","AB","18.0","0","NA","31.8","0","4.7","0","","","NA","31.0","1","NA","","8","","","NA","31.2","29.8"
"-113.922","53.931","BUSBY AGCM","3010979","AB","18.0","1","NA","31.7","1","3.1","1","","","NA","54.1","1","NA","","6","","","NA","28.4","27.1"
"-110.510","52.334","CADOGAN AGCM","3010992","AB","19.7","1","NA","34.8","1","5.1","1","","","NA","20.0","5","NA","","5","","","NA","12.8","63.7"
"-112.817","53.050","CAMROSE","3011240","AB","17.9","0","2.1","31.4","0","5.3","0","","","NA","20.1","0","39.0","","3","","","NA","31.5","28.4"
"-110.713","51.937","CONSORT AGDM","3011815","AB","19.5","0","NA","34.8","0","3.2","0","","","NA","29.1","0","NA","","3","","","NA","21.2","67.6"
"-111.449","52.074","CORONATION CLIMATE","3011887","AB","18.5","0","NA","34.9","0","3.5","0","","","NA","36.7","0","NA","0.0","2","","","NA","25.2","40.6"
"-113.903","52.733","CRESTOMERE AGCM","3011892","AB","17.0","4","NA","30.5","4","3.8","4","","","NA","5.3","4","NA","","1","","","NA","36.9","11.0"
"-113.176","52.183","DELBURNE AGCM","3012050","AB","18.6","6","NA","33.0","6","5.9","6","","","NA","14.1","10","NA","","1","","","NA","17.5","32.4"
"-110.588","53.659","DEWBERRY AGCM","3012073","AB","18.3","2","NA","32.4","2","7.3","2","","","NA","24.7","2","NA","","7","","","NA","26.5","34.4"
"-110.433","52.778","EDGERTON AGCM","3012192","AB","18.9","0","NA","34.1","0","5.3","0","","","NA","30.3","0","NA","","6","","","NA","19.9","46.9"
"-113.606","53.307","EDMONTON INTERNATIONAL CS","3012206","AB","17.5","0","NA","31.5","0","3.3","0","","","NA","13.6","1","NA","","2","","","NA","36.9","22.6"
"-113.517","53.573","EDMONTON BLATCHFORD","3012209","AB","20.6","0","NA","32.1","0","9.1","0","","","NA","25.6","0","NA","","3","","","NA","10.9","90.6"
"-113.579","53.310","EDMONTON INTL A","3012216","AB","17.5","2","NA","31.7","2","3.5","2","0.0","0","NA","18.9","0","NA","","5","","","NA","36.5","20.9"
"-113.538","53.490","EDMONTON SOUTH CAMPUS","3012220","AB","18.8","5","NA","30.6","5","6.2","5","","","NA","23.7","7","NA","","3","","","NA","19.9","40.7"
"-113.856","53.668","EDMONTON VILLENEUVE A","3012229","AB","18.2","2","NA","31.0","2","5.8","2","","","NA","29.4","4","NA","","4","","","NA","23.9","30.3"
"-114.108","53.548","EDMONTON STONY PLAIN","301222F","AB","19.6","0","3.6","31.0","0","8.5","0","0.0","0","0.0","28.9","0","46.0","0.0","5","","","NA","17.6","67.8"
"-112.868","53.683","ELK ISLAND NAT PARK","3012275","AB","18.6","0","2.9","30.6","0","5.9","0","","","NA","34.4","0","65.0","","6","","","NA","28.8","47.7"
"-111.000","52.967","FABYAN","3012515","AB","18.5","0","2.6","32.5","0","4.0","0","0.0","0","0.0","18.2","0","30.0","0.0","5","","","NA","22.5","38.5"
"-112.858","52.744","FERINTOSH AGCM","3012590","AB","17.3","0","NA","31.5","0","3.0","0","","","NA","22.4","0","NA","","3","","","NA","40.9","20.2"
"-111.813","52.041","FLEET AGCM","3012635","AB","18.1","14","NA","33.8","14","5.5","14","","","NA","26.3","15","NA","","4","","","NA","18.5","19.8"
"-112.123","52.548","FORESTBURG AGCM","3012653","AB","18.4","2","NA","33.1","2","5.2","2","","","NA","20.2","2","NA","","3","","","NA","25.8","36.8"
"-113.183","53.717","FORT SASKATCHEWAN","3012710","AB","18.4","8","2.4","30.0","8","7.0","8","0.0","8","NA","35.1","8","NA","0.0","6","","","NA","14.2","22.7"
"-110.621","53.071","GILT EDGE NORTH AGCM","3012790","AB","18.6","1","NA","33.6","1","6.9","1","","","NA","20.1","2","NA","","4","","","NA","23.2","40.2"
"-114.320","53.295","ST. FRANCIS","3012799","AB","18.8","5","NA","31.3","5","8.6","5","","","NA","14.9","5","NA","","4","","","NA","21.7","42.0"
"-112.278","52.987","GLADSTONE AGCM","3012810","AB","17.7","2","NA","32.4","2","4.4","2","","","NA","29.9","5","NA","","5","","","NA","35.6","27.4"
"-114.539","53.833","GLENEVIS AGCM","3012818","AB","18.7","5","NA","31.1","5","5.4","5","","","NA","","","NA","","","","","NA","19.8","37.9"
"-110.803","52.113","GOOSEBERRY LAKE AGCM","3012871","AB","18.9","4","NA","35.1","4","0.9","4","","","NA","27.8","14","NA","","3","","","NA","24.9","48.6"
"-112.164","52.116","HALKIRK AGCM","3012999","AB","18.3","11","NA","32.6","11","4.2","11","","","NA","","","NA","","","","","NA","22.4","28.8"
"-111.212","51.780","HEMARUKA AGCM","3013140","AB","20.2","10","NA","34.5","10","5.5","10","","","NA","6.7","16","NA","","1","","","NA","9.9","56.2"
"-112.246","53.185","HOLDEN AGDM","3013340","AB","18.2","2","NA","31.6","2","5.9","2","","","NA","15.1","23","NA","","3","","","NA","25.4","31.3"
"-110.784","52.578","HUGHENDEN AGCM","3013362","AB","18.7","7","NA","34.3","7","3.9","7","","","NA","9.1","7","NA","","4","","","NA","20.6","38.3"
"-111.872","52.848","KILLAM AGDM","3013640","AB","18.5","1","NA","32.9","1","5.4","1","","","NA","","","NA","","","","","NA","26.2","40.4"
"-111.113","52.290","KESSLER AGCM","3013644","AB","18.5","10","NA","34.1","10","6.4","10","","","NA","","","NA","","","","","NA","17.5","28.3"
"-111.548","53.047","KINSELLA RESEARC STATION","3013647","AB","18.0","0","NA","32.8","0","5.3","0","","","NA","23.1","0","NA","","4","","","NA","32.9","34.3"
"-110.416","53.353","KITSCOTY AGCM","3013660","AB","18.7","0","NA","31.6","0","6.6","0","","","NA","51.2","0","NA","","4","","","NA","26.2","48.6"
"-113.474","54.003","LEGAL AGCM","3013790","AB","18.3","5","NA","30.9","5","8.1","5","","","NA","28.9","5","NA","","6","","","NA","25.3","33.0"
"-110.579","53.943","LINDBERGH AGDM","3013921","AB","17.4","0","NA","30.6","0","5.9","0","","","NA","56.0","1","NA","","8","","","NA","38.3","20.4"
"-110.073","53.309","LLOYDMINSTER","3013959","AB","18.4","2","NA","32.1","2","6.6","2","","","NA","23.1","2","NA","","5","","","NA","29.5","42.4"
"-110.073","53.309","LLOYDMINSTER A","3013961","AB","18.8","0","2.9","32.0","0","6.5","0","0.0","0","0.0","30.8","0","51.0","0.0","7","","","NA","24.7","51.0"
"-111.255","53.456","MANNVILLE AGCM","3014195","AB","18.4","0","NA","32.3","0","6.2","0","","","NA","34.7","0","NA","","8","","","NA","30.3","42.9"
"-110.550","52.017","MONITOR","3014600","AB","","","NA","","","","","0.0","0","NA","18.0","0","34.0","0.0","2","","","NA","",""
"-111.114","53.720","MYRNAM AGCM","3014690","AB","17.3","1","NA","32.5","1","4.2","1","","","NA","28.9","1","NA","","7","","","NA","41.5","20.8"
"-113.165","53.262","NEW SAREPTA AGCM","3014795","AB","18.1","0","NA","31.3","0","5.0","0","","","NA","19.7","0","NA","","4","","","NA","33.0","34.6"
"-113.350","53.650","OLIVER AGDM","3014921","AB","18.2","0","NA","31.7","0","5.6","0","","","NA","","","NA","","","","","NA","25.7","31.9"
"-111.726","53.425","RANFURLY AUTO","3015401","AB","18.6","1","NA","32.0","1","6.5","1","","","NA","20.0","1","NA","","6","","","NA","27.2","46.0"
"-110.343","52.587","RIBSTONE SOUTH AGCM","3015480","AB","18.7","0","NA","34.3","0","5.1","0","","","NA","36.9","0","NA","","6","","","NA","20.9","41.7"
"-110.102","53.019","RIVERCOURSE AGCM","3015501","AB","18.4","0","NA","33.0","0","5.7","0","","","NA","22.1","1","NA","","4","","","NA","31.7","44.6"
"-114.912","52.421","ROCKY MTN HOUSE (AUT)","3015523","AB","16.9","0","NA","30.2","0","2.1","0","","","NA","42.2","0","NA","","7","","","NA","48.9","14.3"
"-112.422","52.792","ROSALIND AGCM","3015600","AB","18.2","2","NA","33.6","2","5.3","2","","","NA","12.2","5","NA","","2","","","NA","29.0","34.2"
"-111.453","54.282","ST. LINA AGCM","3015673","AB","17.8","1","NA","30.3","1","5.7","1","","","NA","35.0","11","NA","","3","","","NA","32.2","26.8"
"-111.272","54.011","ST. PAUL AGCM","3015676","AB","18.0","1","NA","30.4","1","5.7","1","","","NA","25.7","2","NA","","5","","","NA","34.4","34.6"
"-110.755","51.590","SEDALIA AGCM","3015797","AB","20.5","5","NA","35.4","5","2.7","5","","","NA","6.2","7","NA","","1","","","NA","12.3","76.4"
"-112.539","53.333","SHONTS AGCM","3015900","AB","17.3","0","NA","31.9","0","3.8","0","","","NA","11.1","0","NA","","4","","","NA","42.9","22.2"
"-112.499","54.278","SMOKY LAKE AGDM","3016022","AB","18.1","0","NA","30.7","0","5.1","0","","","NA","49.8","0","NA","","6","","","NA","35.9","37.7"
"-111.683","51.816","SPONDIN AGCM","3016070","AB","19.1","5","NA","34.7","5","3.0","5","","","NA","12.3","27","NA","","2","","","NA","20.0","48.9"
"-112.596","52.347","STETTLER AGDM","3016124","AB","19.0","0","NA","33.3","0","6.2","0","","","NA","25.9","1","NA","","3","","","NA","20.5","52.2"
"-113.895","53.217","THORSBY AGCM","3016441","AB","18.1","0","NA","32.1","0","5.8","0","","","NA","28.9","1","NA","","5","","","NA","29.6","31.9"
"-114.718","53.439","TOMAHAWK AGDM","3016505","AB","18.3","1","NA","30.3","1","6.0","1","","","NA","32.6","1","NA","","3","","","NA","23.4","31.0"
"-110.081","53.664","TULLIBY LAKE AGCM","3016593","AB","18.4","0","NA","32.0","0","4.8","0","","","NA","38.3","0","NA","","5","","","NA","29.9","42.7"
"-113.033","53.500","UNCAS","3016650","AB","","","NA","","","","","0.0","0","NA","25.6","0","NA","0.0","5","","","NA","",""
"-111.678","53.625","TWO HILLS AGDM","3016655","AB","18.7","5","NA","31.0","5","7.0","5","","","NA","43.9","5","NA","","7","","","NA","21.6","40.0"
"-110.882","53.344","VERMILION AGDM","3016802","AB","18.4","0","NA","32.7","0","5.5","0","","","NA","40.1","1","NA","","6","","","NA","28.0","39.4"
"-111.732","53.182","VIKING AGCM","3016841","AB","18.5","0","NA","32.9","0","5.9","0","","","NA","15.1","1","NA","","4","","","NA","30.8","47.0"
"-111.921","54.130","VILNA AGCM","3016852","AB","17.2","2","NA","30.6","2","5.2","2","","","NA","44.4","2","NA","","6","","","NA","39.5","16.7"
"-112.098","53.505","VEGREVILLE","3016GF0","AB","18.0","0","2.4","31.1","0","4.4","0","","","NA","34.2","0","66.0","","5","","","NA","31.8","30.8"
"-113.444","52.980","WETASKIWIN AGCM","3017282","AB","17.6","2","NA","31.0","2","4.8","2","","","NA","10.1","10","NA","","4","","","NA","33.4","21.6"
"-111.224","51.491","YOUNGSTOWN AGCM","3017705","AB","20.2","4","NA","35.4","4","3.5","4","","","NA","54.4","5","NA","","3","","","NA","14.5","74.5"
"-114.108","53.547","EDMONTON STONY PLAIN CS","301A001","AB","18.9","0","NA","30.5","0","8.1","0","","","NA","26.6","0","NA","","5","","","NA","21.9","51.1"
"-110.206","51.670","ESTHER 1","301B460","AB","20.1","0","NA","35.8","0","2.2","0","","","NA","10.9","0","NA","","3","","","NA","13.0","79.4"
"-111.096","52.829","WAINWRIGHT CFB AIRFIELD 21","301S001","AB","19.4","0","NA","35.0","0","6.0","0","","","NA","14.2","0","NA","","5","","","NA","17.0","60.4"
"-113.821","54.308","PIBROCH AGCM","301X001","AB","17.1","13","NA","31.1","13","3.3","13","","","NA","19.8","14","NA","0.0","3","","","NA","24.8","8.5"
"-110.317","51.066","ACADIA VALLEY","3020035","AB","21.4","7","NA","35.3","7","6.8","7","","","NA","1.3","7","NA","","0","","","NA","8.4","89.0"
"-111.006","50.810","ATLEE AGCM","3020405","AB","21.1","9","NA","34.3","9","4.7","9","","","NA","4.0","9","NA","","2","","","NA","9.8","78.7"
"-113.357","51.379","BEISEKER AGCM","3020610","AB","18.2","1","NA","34.1","1","1.8","1","","","NA","13.5","4","NA","","3","","","NA","26.2","33.1"
"-112.803","51.998","BIG VALLEY AGCM","3020679","AB","19.8","0","NA","33.3","0","4.9","0","","","NA","40.6","1","NA","","3","","","NA","15.3","70.8"
"-110.686","50.798","BUFFALO AGCM","3020950","AB","21.6","1","NA","36.1","1","5.0","1","","","NA","11.5","1","NA","","2","","","NA","8.6","117.7"
"-111.221","51.024","CABIN LAKE AGCM","3021000","AB","20.9","0","NA","35.3","0","2.7","0","","","NA","","","NA","","","","","NA","11.3","101.8"
"-110.797","51.067","CAPPON","3021200","AB","20.7","0","NA","35.3","0","2.0","0","","","NA","16.5","1","NA","","4","","","NA","15.0","98.7"
"-110.824","51.276","CEREAL AGCM","3021463","AB","20.6","3","NA","35.4","3","2.3","3","","","NA","3.5","3","NA","","2","","","NA","14.0","87.3"
"-112.252","51.775","CRAIGMYLE AGCM","3021912","AB","19.5","6","NA","34.0","6","3.8","6","","","NA","1.5","7","NA","","0","","","NA","17.0","55.3"
"-112.677","51.445","DRUMHELLER EAST","30221LG","AB","21.5","0","NA","36.1","0","4.7","0","","","NA","17.6","0","NA","","5","","","NA","6.4","113.5"
"-112.097","51.053","FINNEGAN AGCM","3022650","AB","20.0","15","NA","33.7","15","5.7","15","","","NA","","","NA","","","","","NA","6.6","38.1"
"-112.135","51.453","HAND HILLS AGCM","3022990","AB","19.5","1","NA","33.2","1","2.6","1","","","NA","17.6","3","NA","","2","","","NA","21.0","67.1"
"-114.486","52.310","HESPERO AGCM","3023200","AB","17.4","0","NA","30.8","0","3.5","0","","","NA","45.3","2","NA","","6","","","NA","37.1","18.2"
"-112.500","51.183","HUSSAR AGDM","3023402","AB","19.7","3","NA","32.9","3","6.7","3","","","NA","40.6","3","NA","","5","","","NA","13.2","59.7"
"-110.359","51.913","KIRRIEMUIR AGCM","3023660","AB","20.9","9","NA","34.7","9","8.4","9","","","NA","20.9","19","NA","","2","","","NA","1.9","66.3"
"-113.756","52.449","LACOMBE CDA 2","3023722","AB","17.9","1","NA","31.8","1","4.6","1","","","NA","16.6","1","NA","","2","","","NA","25.7","22.9"
"-114.473","52.553","LEEDALE AGDM","3023740","AB","16.3","2","NA","30.1","2","1.6","2","","","NA","10.2","3","NA","","3","","","NA","56.9","7.5"
"-113.656","51.619","LINDEN AGCM","3023850","AB","20.7","29","NA","33.8","29","5.7","29","","","NA","0.0","30","NA","","0","","","NA","0.0","5.3"
"-110.341","49.458","LODGE CREEK","3023900","AB","19.7","5","NA","33.9","5","4.3","5","","","NA","12.0","5","NA","","3","","","NA","15.6","59.1"
"-112.675","51.660","MORRIN AGDM","3024668","AB","19.4","0","NA","34.2","0","3.9","0","","","NA","0.5","27","NA","","0","","","NA","18.8","63.0"
"-114.085","51.759","OLDS AGDM","3024925","AB","18.1","1","NA","32.2","1","5.6","1","","","NA","14.5","3","NA","","3","","","NA","27.9","29.6"
"-110.350","51.383","OYEN AGDM","3024965","AB","20.5","2","NA","35.5","2","3.7","2","","","NA","8.0","10","NA","","2","","","NA","11.5","85.4"
"-111.621","50.740","PATRICIA AGCM","3025013","AB","19.5","16","NA","34.2","16","2.9","16","","","NA","6.7","17","NA","","3","","","NA","11.7","34.9"
"-111.705","51.125","POLLOCKVILLE AGDM","3025243","AB","20.3","4","NA","35.1","4","0.7","4","","","NA","17.2","4","NA","","2","","","NA","14.9","76.3"
"-113.600","52.433","PRENTISS","3025297","AB","18.2","1","NA","31.6","1","6.6","1","","","NA","13.9","7","NA","","3","","","NA","25.9","32.3"
"-113.894","52.182","RED DEER REGIONAL A","3025484","AB","17.7","1","NA","31.1","1","4.9","1","","","NA","29.0","1","NA","","2","","","NA","29.0","19.5"
"-113.620","53.692","ST. ALBERT RESEARCH STATION","3025750","AB","17.9","0","NA","32.5","0","3.6","0","","","NA","27.8","0","NA","","6","","","NA","32.3","30.1"
"-110.091","50.307","SCHULER AGDM","3025768","AB","20.8","3","NA","36.0","3","2.1","3","","","NA","8.8","7","NA","","1","","","NA","10.4","87.9"
"-111.646","51.463","SHEERNESS AGCM","3025890","AB","20.5","2","NA","34.4","2","5.0","2","","","NA","24.3","2","NA","","1","","","NA","10.6","84.4"
"-111.388","51.301","SUNNYNOOK AGCM","3026264","AB","19.5","7","NA","34.7","7","0.1","7","","","NA","50.9","11","NA","","2","","","NA","19.7","54.9"
"-113.206","51.768","THREE HILLS","3026479","AB","18.2","1","NA","33.7","1","3.3","1","","","NA","11.1","1","NA","","4","","","NA","23.5","29.7"
"-111.955","50.895","VERGER","3026800","AB","19.9","5","NA","34.5","5","1.6","5","","","NA","21.0","7","NA","","3","","","NA","10.8","61.0"
"-114.683","51.778","SUNDRE A","3026KNQ","AB","16.6","0","NA","31.3","0","1.7","0","","","NA","","","NA","","","","","NA","52.9","10.9"
"-113.591","51.936","WIMBORNE AGCM","3027582","AB","17.7","5","NA","32.6","5","4.3","5","","","NA","39.7","9","NA","","7","","","NA","25.8","17.0"
"-113.434","49.528","ARDENVILLE","3030200","AB","20.7","3","NA","34.5","3","7.6","1","","","NA","29.6","2","NA","","3","","","NA","5.5","82.1"
"-114.013","50.512","AZURE","3030450","AB","19.2","2","NA","33.4","2","0.0","2","","","NA","30.4","13","NA","","4","","","NA","18.6","53.5"
"-112.300","49.800","BARNWELL AGDM","3030525","AB","20.7","13","NA","35.7","13","3.9","13","","","NA","13.8","14","NA","","3","","","NA","4.2","52.0"
"-113.224","50.026","BARONS AGCM","3030529","AB","19.7","2","NA","35.3","2","3.0","2","","","NA","34.5","13","NA","","6","","","NA","10.8","61.0"
"-112.465","50.893","BASSANO AGCM","3030540","AB","19.7","1","NA","35.6","1","3.3","1","","","NA","65.6","1","NA","","4","","","NA","13.4","65.0"
"-114.152","50.707","BLACK DIAMOND","3030680","AB","18.7","2","NA","33.4","2","1.6","2","","","NA","21.6","2","NA","","3","","","NA","19.9","40.6"
"-113.640","50.546","BLACKIE AGCM","3030690","AB","18.8","3","NA","33.6","3","1.5","3","","","NA","15.9","6","NA","","3","","","NA","18.2","40.4"
"-113.050","49.567","BLOOD TRIBE AGDM","3030720","AB","20.0","4","NA","34.6","4","3.9","4","","","NA","44.0","4","NA","","7","","","NA","8.9","63.7"
"-111.450","49.734","BOW ISLAND","3030768","AB","21.2","1","NA","35.0","1","6.1","1","","","NA","17.3","1","NA","","2","","","NA","7.7","102.9"
"-113.817","49.617","BROCKET AGDM","3030830","AB","","","NA","","","","","","","NA","53.4","0","NA","","2","","","NA","",""
"-110.484","50.339","BULL SPRINGS AGCM","3030879","AB","22.2","6","NA","35.9","6","4.5","6","","","NA","10.3","9","NA","","1","","","NA","4.0","110.1"
"-111.849","50.555","BROOKS","3030QLP","AB","20.6","1","NA","35.6","1","3.5","1","","","NA","20.8","1","NA","","4","","","NA","9.8","86.8"
"-114.013","51.123","CALGARY INTL A","3031092","AB","20.0","0","NA","32.0","0","7.3","0","0.0","0","NA","30.1","0","NA","","5","","","NA","13.2","75.4"
"-114.000","51.109","CALGARY INT'L CS","3031094","AB","19.2","0","NA","31.8","0","6.9","0","","","NA","26.6","0","NA","","5","","","NA","20.3","57.0"
"-114.371","51.105","CALGARY SPRINGBANK A","3031109","AB","17.5","2","NA","31.0","2","1.3","2","","","NA","37.7","2","NA","","6","","","NA","36.3","21.3"
"-113.286","49.201","CARDSTON","3031322","AB","20.0","0","NA","32.8","0","5.1","0","","","NA","65.5","0","NA","","5","","","NA","12.1","73.4"
"-113.376","49.001","CARWAY","3031402","AB","19.1","5","NA","32.5","5","6.6","5","","","NA","35.1","6","NA","","2","","","NA","17.2","46.6"
"-113.350","50.282","CHAMPION AGDM","3031480","AB","19.3","11","NA","34.0","11","3.0","11","","","NA","34.1","12","NA","","2","","","NA","9.6","35.8"
"-113.639","50.004","CLARESHOLM","3031640","AB","20.1","0","NA","34.8","0","3.8","0","","","NA","56.1","0","NA","","4","","","NA","11.8","76.7"
"-114.222","51.076","COP UPPER","3031875","AB","19.8","0","NA","31.8","0","6.3","0","","","NA","50.3","0","NA","","5","","","NA","20.5","75.5"
"-112.433","50.183","ENCHANT AGDM","3032422","AB","20.2","1","NA","33.9","1","6.9","1","","","NA","33.4","3","NA","","5","","","NA","8.3","74.3"
"-112.033","49.800","FINCASTLE AGDM","3032550","AB","20.9","4","NA","35.5","4","4.7","4","","","NA","37.3","4","NA","","4","","","NA","7.8","86.4"
"-111.486","49.483","FOREMOST AGDM","3032642","AB","21.1","1","NA","34.9","1","6.6","1","","","NA","28.0","7","NA","","4","","","NA","8.0","100.3"
"-113.379","49.786","FORT MACLEOD AGCM","3032683","AB","20.0","3","NA","34.6","3","3.9","3","","","NA","132.7","3","NA","","4","","","NA","7.6","64.9"
"-112.941","50.934","GLEICHEN AGCM","3032801","AB","19.7","0","NA","34.1","0","5.4","0","","","NA","49.3","3","NA","","3","","","NA","13.7","65.7"
"-111.733","49.874","GRASSY LAKE","3032927","AB","21.4","1","NA","35.9","1","6.0","1","","","NA","17.9","8","NA","","4","","","NA","6.2","108.8"
"-112.733","49.900","IRON SPRINGS AGDM","3033498","AB","21.6","26","NA","33.0","26","9.1","26","","","NA","6.5","27","NA","","1","","","NA","0.0","18.2"
"-114.292","50.869","PRIDDIS OBSERVATORY","3033505","AB","19.1","3","NA","31.8","3","3.8","3","","","NA","44.8","3","NA","","5","","","NA","25.5","55.8"
"-110.261","49.989","IRVINE AGCM","3033550","AB","22.9","3","NA","35.7","3","4.4","3","","","NA","12.1","3","NA","","2","","","NA","4.3","141.8"
"-113.631","51.191","KEOMA AGCM","3033620","AB","18.7","2","NA","33.1","2","3.2","2","","","NA","22.8","4","NA","","4","","","NA","18.9","39.7"
"-112.299","50.600","LATHOM AGCM","3033770","AB","20.2","0","NA","35.3","0","4.6","0","","","NA","16.4","19","NA","","2","","","NA","10.7","78.1"
"-112.799","49.630","LETHBRIDGE","3033875","AB","20.5","4","NA","35.4","4","4.0","4","","","NA","58.6","3","NA","","7","","","NA","7.8","74.7"
"-112.763","49.647","LETHBRIDGE AGTECH AGCM","3033877","AB","20.1","0","NA","34.6","0","4.0","0","","","NA","48.7","9","NA","","7","","","NA","9.7","76.0"
"-112.768","49.695","LETHBRIDGE CDA","3033890","AB","21.4","1","NA","35.8","1","5.9","1","","","NA","","","NA","","","","","NA","6.4","107.4"
"-112.783","49.700","LETHBRIDGE CDA 2","3033892","AB","","","NA","","","","","0.0","0","NA","38.6","0","NA","0.0","4","","","NA","",""
"-112.750","49.683","LETHBRIDGE DEMO FARM AGDM","3033897","AB","20.3","17","NA","33.8","17","5.0","17","","","NA","0.4","20","NA","","0","","","NA","4.2","37.0"
"-110.721","50.019","MEDICINE HAT","3034479","AB","22.5","0","NA","35.8","0","5.2","0","","","NA","7.6","0","NA","","1","","","NA","4.6","144.3"
"-110.717","50.025","MEDICINE HAT RCS","3034485","AB","22.5","0","NA","35.7","0","5.4","0","","","NA","6.5","0","NA","","1","","","NA","5.4","145.6"
"-113.349","50.673","MOSSLEIGH AGCM","3034577","AB","19.1","8","NA","34.0","8","1.5","8","","","NA","13.8","11","NA","","2","","","NA","14.1","39.3"
"-114.099","51.369","NIER AGDM","3034795","AB","17.7","1","NA","32.1","1","4.3","1","","","NA","12.6","7","NA","","4","","","NA","37.0","29.4"
"-113.997","49.521","PINCHER CREEK","3035198","AB","19.1","1","NA","32.7","1","3.3","1","","","NA","16.1","1","NA","","4","","","NA","16.5","49.7"
"-114.005","49.522","PINCHER CREEK CLIMATE","3035208","AB","19.3","1","NA","32.7","1","3.7","1","","","NA","9.0","1","NA","","2","","","NA","15.7","54.9"
"-112.983","50.606","QUEENSTOWN","3035340","AB","20.7","0","3.5","35.0","0","6.0","0","0.0","0","0.0","41.8","0","85.0","0.0","3","","","NA","7.4","90.2"
"-112.117","50.367","RAINIER AGCM","3035355","AB","20.7","3","NA","35.5","3","4.9","3","","","NA","14.9","3","NA","","3","","","NA","8.7","83.6"
"-111.213","50.099","RALSTON AGCM","3035362","AB","22.2","4","NA","35.6","4","6.8","4","","","NA","8.1","14","NA","","3","","","NA","5.6","119.3"
"-112.683","49.483","RAYMOND AGDM","3035422","AB","20.2","4","NA","34.4","4","5.0","4","","","NA","16.7","13","NA","","4","","","NA","6.8","66.6"
"-111.701","50.265","ROLLING HILLS AGCM","3035530","AB","20.6","5","NA","35.9","5","2.9","5","","","NA","8.6","14","NA","","2","","","NA","8.4","75.3"
"-112.050","50.833","ROSEMARY AGDM","3035650","AB","19.7","7","NA","34.6","7","1.8","7","","","NA","7.9","12","NA","","2","","","NA","8.6","49.3"
"-110.917","49.917","SEVEN PERSONS AGDM","3035845","AB","21.6","0","NA","34.9","0","5.4","0","","","NA","6.3","1","NA","","4","","","NA","9.1","119.4"
"-110.215","50.732","SOCIAL PLAINS AGCM","3036040","AB","22.4","14","NA","36.0","14","5.1","14","","","NA","9.3","14","NA","","2","","","NA","7.1","82.4"
"-112.982","51.228","STANDARD AGCM","3036086","AB","20.1","5","NA","34.0","5","6.3","5","","","NA","28.2","15","NA","","4","","","NA","13.3","67.5"
"-113.883","50.183","STAVELY AAFC","3036099","AB","18.5","11","NA","31.3","11","6.2","11","","","NA","25.9","11","NA","","3","","","NA","22.7","33.5"
"-113.283","51.033","STRATHMORE AGDM","3036205","AB","19.3","0","NA","32.6","0","6.3","0","","","NA","12.0","30","NA","","1","","","NA","16.6","58.3"
"-112.124","49.792","TABER","3036360","AB","21.9","13","NA","35.5","9","5.5","9","0.0","9","NA","30.8","9","NA","0.0","4","","","NA","0.0","70.7"
"-111.321","50.456","TIDE LAKE AGCM","3036485","AB","21.2","15","NA","35.6","15","3.2","15","","","NA","5.5","16","NA","","3","","","NA","5.6","56.6"
"-112.133","50.050","VAUXHALL CDA CS","3036682","AB","20.7","0","NA","35.2","0","4.6","0","","","NA","","","NA","","","","","NA","8.7","93.9"
"-112.117","49.500","WRENTHAM AGDM","3037675","AB","21.1","3","NA","34.4","3","6.5","3","","","NA","38.2","3","NA","","4","","","NA","6.8","93.5"
"-113.961","50.729","OKOTOKS","303M9JM","AB","19.9","0","3.7","34.0","0","5.0","0","0.0","0","0.0","19.6","0","32.0","0.0","4","","","NA","16.3","73.9"
"-112.788","49.871","PICTURE BUTTE WEST","303N1G3","AB","20.0","0","NA","35.5","0","5.0","0","0.0","0","NA","21.8","0","NA","0.0","5","","","NA","9.6","71.7"
"-112.817","49.050","DEL BONITA AGDM","3042045","AB","19.3","0","NA","33.7","0","3.5","0","","","NA","36.0","2","NA","","4","","","NA","19.4","58.6"
"-110.678","49.364","MANYBERRIES AGCM","3044203","AB","20.3","9","NA","34.1","9","3.6","9","","","NA","33.9","9","NA","","3","","","NA","11.1","61.3"
"-111.652","49.137","MASINASIN AGDM","3044232","AB","21.7","3","NA","35.5","3","7.4","3","","","NA","16.1","4","NA","","4","","","NA","5.7","110.5"
"-112.050","49.133","MILK RIVER","3044533","AB","20.9","3","NA","36.0","3","6.0","3","","","NA","12.3","3","NA","","3","","","NA","4.5","84.4"
"-110.467","49.117","ONEFOUR CDA","3044923","AB","22.2","0","NA","35.9","0","5.9","0","","","NA","15.2","0","NA","","3","","","NA","7.0","138.1"
"-111.126","49.225","PAKOWKI LAKE AGCM","3045000","AB","22.6","20","NA","35.2","20","9.7","20","","","NA","2.7","20","NA","","1","","","NA","2.3","53.3"
"-111.025","49.029","PINHORN AGCM","3045100","AB","22.6","26","NA","34.0","26","9.5","26","","","NA","0.0","26","NA","","0","","","NA","0.0","23.2"
"-112.160","49.283","WARNER AGCM","3046951","AB","21.0","4","NA","34.9","4","5.4","4","","","NA","6.6","7","NA","","3","","","NA","8.7","88.4"
"-115.552","51.193","BANFF CS","3050519","AB","17.4","0","NA","32.7","0","1.4","0","","","NA","31.8","0","NA","","5","","","NA","46.2","26.4"
"-114.175","49.468","BEAVER MINES","3050602","AB","18.4","0","NA","31.6","0","2.2","0","","","NA","25.8","0","NA","","5","","","NA","26.8","39.8"
"-115.067","51.083","BOW VALLEY","3050778","AB","18.3","0","NA","33.3","0","0.5","0","","","NA","","","NA","","","","","NA","31.2","41.0"
"-114.482","49.628","CROWSNEST","3051R4R","AB","16.5","0","NA","30.3","0","1.7","0","","","NA","23.6","0","NA","","6","","","NA","52.8","7.2"
"-118.030","52.926","JASPER WARDEN","3053536","AB","17.4","0","NA","34.0","0","1.0","0","","","NA","47.4","0","NA","","7","","","NA","37.5","19.9"
"-115.035","51.028","KANANASKIS","3053600","AB","17.5","0","3.7","31.5","0","1.5","0","0.0","0","0.0","41.6","0","59.0","0.0","6","","","NA","40.9","24.6"
"-116.040","52.492","NORDEGG CS","3054843","AB","16.3","10","NA","29.9","10","2.1","10","","","NA","26.3","10","NA","","5","","","NA","43.6","7.3"
"-114.416","50.368","PEKISKO","3055119","AB","17.0","8","NA","30.5","8","5.9","8","","","NA","87.6","10","NA","","6","","","NA","28.7","6.1"
"-113.809","49.131","WATERTON PARK GATE","3056214","AB","18.4","10","NA","31.1","10","4.8","10","","","NA","18.4","14","NA","","4","","","NA","22.0","30.1"
"-115.787","54.144","WHITECOURT A","3057376","AB","18.0","0","NA","30.8","0","5.7","0","","","NA","","","NA","","","","","NA","31.1","32.6"
"-115.190","50.943","NAKISKA RIDGETOP","305MGFF","AB","12.5","1","NA","23.5","1","1.2","1","","","NA","","","NA","","","","","NA","165.1","0.3"
"-113.382","54.635","ATHABASCA AGCM","3060330","AB","18.1","2","NA","30.6","2","5.7","2","","","NA","22.8","25","NA","","1","","","NA","31.0","34.5"
"-112.825","54.782","ATMORE AGDM","3060406","AB","16.7","15","NA","30.5","15","3.9","15","","","NA","13.0","15","NA","","1","","","NA","26.5","6.1"
"-114.448","54.095","BARRHEAD CS","3060535","AB","18.2","0","NA","31.4","0","4.6","0","","","NA","32.8","0","NA","","5","","","NA","27.2","33.4"
"-117.867","53.350","BRULE BLACK CAT","3060903","AB","17.7","19","4.4","32.5","14","2.0","13","0.0","6","NA","37.6","6","NA","0.0","6","","","NA","11.9","7.7"
"-114.678","54.131","CAMPSIE AUTO","3061201","AB","17.9","0","NA","32.1","0","2.2","0","","","NA","24.4","0","NA","","7","","","NA","30.5","26.7"
"-115.894","53.623","CARROT CREEK","3061350","AB","16.9","1","NA","31.7","1","3.0","1","","","NA","59.9","1","NA","","8","","","NA","44.3","10.3"
"-116.465","53.579","EDSON","3062239","AB","17.0","0","NA","30.2","0","2.4","0","","","NA","135.8","0","NA","","11","","","NA","48.8","18.5"
"-116.453","53.580","EDSON CLIMATE","3062246","AB","17.0","0","NA","30.6","0","2.6","0","","","NA","136.3","0","NA","","11","","","NA","48.4","18.5"
"-114.983","53.600","ENTWISTLE","3062451","AB","18.8","1","3.4","32.0","1","6.0","1","0.0","1","NA","105.0","1","NA","0.0","8","","","NA","22.0","47.0"
"-115.062","53.614","EVANSBURG2 AGCM","3062476","AB","16.6","4","NA","30.7","4","1.6","4","","","NA","62.3","4","NA","","5","","","NA","48.3","10.5"
"-114.769","54.410","FORT ASSINIBOINE AGCM","3062660","AB","17.8","4","NA","32.5","4","3.8","4","","","NA","40.5","9","NA","","6","","","NA","32.9","27.6"
"-111.213","56.651","FORT MCMURRAY CS","3062696","AB","18.0","0","NA","31.7","0","4.1","0","","","NA","90.6","0","NA","","7","","","NA","39.3","39.1"
"-111.223","56.653","FORT MCMURRAY A","3062697","AB","18.1","0","NA","31.9","0","4.2","0","","","NA","89.0","0","NA","","7","","","NA","38.3","42.5"
"-118.447","53.795","HENDRICKSON CREEK","3063135","AB","12.9","0","NA","28.3","0","-2.4","0","","","NA","59.8","0","NA","1.0","10","","","NA","156.8","0.0"
"-116.479","55.396","HIGH PRAIRIE AGDM","3063165","AB","17.7","4","NA","30.7","4","3.2","4","","","NA","51.8","18","NA","","5","","","NA","28.5","19.9"
"-113.543","54.821","ISLAND LAKE SOUTH","3063600","AB","17.5","0","NA","30.4","0","6.3","0","","","NA","64.8","0","NA","","5","","","NA","37.7","21.3"
"-112.981","54.563","KINIKINIK","3063640","AB","18.4","1","NA","30.7","1","3.2","1","","","NA","32.2","15","NA","","4","","","NA","33.0","46.0"
"-112.024","54.769","LAC LA BICHE CLIMATE","3063686","AB","18.6","0","NA","30.6","0","7.3","0","","","NA","35.6","0","NA","","4","","","NA","23.3","40.8"
"-111.559","57.041","MILDRED LAKE","3064528","AB","19.3","0","NA","32.7","0","7.0","0","","","NA","84.3","0","NA","","7","","","NA","23.7","63.7"
"-113.321","54.964","PLEASANT VIEW","3065200","AB","17.8","1","NA","30.4","1","6.6","1","","","NA","82.0","1","NA","","5","","","NA","37.8","33.1"
"-111.700","54.500","RICH LAKE AGDM","3065475","AB","16.6","8","NA","29.3","8","4.9","8","","","NA","58.1","8","NA","","6","","","NA","41.8","10.3"
"-111.835","53.851","ISPAS","3065712","AB","18.1","14","NA","31.5","14","8.7","14","","","NA","46.5","14","NA","","6","","","NA","20.3","22.3"
"-114.777","55.293","SLAVE LAKE","3065995","AB","18.0","0","NA","29.5","0","6.3","0","","","NA","101.0","0","NA","","6","","","NA","29.0","28.8"
"-114.777","55.293","SLAVE LAKE RCS","3065997","AB","17.7","2","NA","29.5","2","6.1","2","","","NA","26.9","22","NA","","2","","","NA","32.8","22.8"
"-113.520","54.300","TAWATINAW AGCM","3066367","AB","18.4","0","NA","31.1","0","5.7","0","","","NA","61.8","0","NA","","6","","","NA","31.8","42.9"
"-118.348","53.386","WILLOW CREEK 1","306GE70","AB","13.6","3","NA","29.6","3","-2.1","3","","","NA","63.3","3","NA","","6","","","NA","122.2","0.0"
"-117.236","55.577","BALLATER AGCM","3070495","AB","18.6","9","NA","32.3","9","6.5","9","","","NA","22.1","9","NA","","4","","","NA","19.2","31.3"
"-119.396","55.197","BEAVERLODGE RCS","3070600","AB","18.1","0","NA","31.0","0","6.7","0","","","NA","26.0","0","NA","","3","","","NA","26.0","29.7"
"-117.886","56.118","BROWNVALE AGCM","3070800","AB","18.1","0","NA","31.6","0","4.0","0","","","NA","49.9","1","NA","","4","","","NA","31.2","33.6"
"-117.933","56.529","CLEAR HILLS AGCM","3071661","AB","17.8","13","NA","29.8","13","4.2","13","","","NA","9.1","19","NA","","1","","","NA","17.0","12.5"
"-117.543","56.715","DEADWOOD AGCM","3071957","AB","18.3","2","NA","31.9","2","7.5","2","","","NA","56.3","2","NA","","6","","","NA","26.3","34.1"
"-117.887","55.808","EAGLESHAM AGCM","3072151","AB","18.3","0","NA","31.6","0","4.8","0","","","NA","37.7","0","NA","","4","","","NA","25.8","35.7"
"-110.439","58.981","EGG ISLAND","3072246","AB","18.4","5","NA","25.9","5","12.5","5","","","NA","","","NA","","","","","NA","15.2","24.5"
"-118.439","56.081","FAIRVIEW AGDM","3072525","AB","18.2","6","NA","30.5","6","3.9","6","","","NA","23.9","7","NA","","5","","","NA","26.1","30.0"
"-111.117","58.767","FORT CHIPEWYAN","3072655","AB","17.5","0","NA","31.4","0","3.3","0","","","NA","32.3","0","NA","","4","","","NA","50.2","35.7"
"-111.117","58.767","FORT CHIPEWYAN RCS","3072659","AB","17.7","0","NA","32.0","0","3.6","0","","","NA","31.5","0","NA","","4","","","NA","44.9","37.0"
"-116.040","58.382","FORT VERMILION","3072723","AB","18.1","0","NA","32.6","0","5.2","0","","","NA","15.8","0","NA","","3","","","NA","36.0","40.3"
"-118.885","55.180","GRANDE PRAIRIE A","3072921","AB","18.4","0","NA","31.2","0","5.5","0","0.0","0","NA","27.2","0","NA","","5","","","NA","22.4","34.3"
"-117.298","57.265","HAWK HILLS AGCM","3073071","AB","16.9","23","NA","27.0","23","6.8","23","","","NA","17.1","23","NA","","2","","","NA","11.9","3.2"
"-117.165","58.622","HIGH LEVEL A","3073140","AB","17.8","4","NA","31.7","4","3.4","4","","","NA","4.6","4","NA","","1","","","NA","32.9","27.6"
"-117.164","58.631","HIGH LEVEL","3073148","AB","16.2","0","NA","31.5","0","0.9","0","","","NA","6.2","0","NA","","2","","","NA","66.1","10.7"
"-117.120","55.913","JEAN COTE AGCM","3073535","AB","18.0","5","NA","31.7","5","6.2","5","","","NA","62.6","5","NA","","6","","","NA","30.6","31.0"
"-117.677","57.788","KEG RIVER AGCM","3073644","AB","17.2","2","NA","31.2","2","2.0","2","","","NA","68.2","12","NA","","5","","","NA","44.5","19.9"
"-116.343","58.172","LA CRETE AGCM","3073730","AB","18.6","9","NA","31.9","9","6.3","9","","","NA","6.2","9","NA","","1","","","NA","18.0","32.1"
"-119.255","55.422","LA GLACE AGCM","3073740","AB","17.5","8","NA","31.3","8","2.8","8","","","NA","25.1","16","NA","","3","","","NA","27.3","14.7"
"-117.451","56.974","MANNING AGDM","3074190","AB","17.1","2","NA","29.9","2","3.7","2","","","NA","","","NA","","","","","NA","38.6","12.8"
"-119.745","56.314","CLEARDALE AGDM","3074935","AB","18.3","0","NA","30.9","0","3.9","0","","","NA","33.0","2","NA","","6","","","NA","28.4","38.2"
"-117.448","56.227","PEACE RIVER A","3075041","AB","17.9","0","NA","30.8","0","3.8","0","0.0","0","NA","63.5","0","NA","","5","","","NA","29.5","26.9"
"-117.452","56.193","ROMA","3075043","AB","18.3","0","NA","31.5","0","4.8","0","","","NA","47.9","0","NA","","6","","","NA","25.8","34.2"
"-118.293","55.621","PEORIA AGDM","3075160","AB","17.6","0","NA","31.8","0","2.5","0","","","NA","21.6","7","NA","","6","","","NA","35.8","24.4"
"-115.278","56.552","RED EARTH","3075488","AB","17.9","1","NA","31.7","1","4.6","1","","","NA","85.0","1","NA","","11","","","NA","38.7","34.2"
"-116.481","58.452","ROCKY LANE AGCM","3075550","AB","17.7","9","NA","32.5","9","2.1","9","","","NA","5.1","9","NA","","2","","","NA","30.7","25.1"
"-118.668","55.777","RYCROFT AGCM","3075601","AB","18.4","7","NA","32.3","7","4.0","7","","","NA","12.8","7","NA","","3","","","NA","19.4","29.0"
"-119.345","56.076","SAVANNA AGCM","3075770","AB","18.2","1","NA","31.6","1","0.0","1","","","NA","43.7","3","NA","","5","","","NA","27.2","32.9"
"-111.997","58.853","SWEETGRASS LANDING","3076330","AB","","","NA","","","","","","","NA","37.5","3","NA","","6","","","NA","",""
"-118.408","55.352","TEEPEE CREEK AGCM","3076366","AB","17.6","3","NA","31.9","3","3.1","3","","","NA","16.5","3","NA","","6","","","NA","27.7","17.3"
"-116.848","58.021","TOMPKINS LANDING AGCM","3076530","AB","18.1","3","NA","31.2","3","5.5","3","","","NA","23.7","5","NA","","4","","","NA","34.2","37.5"
"-117.199","55.098","VALLEYVIEW AGDM","3076680","AB","18.3","2","NA","31.0","2","6.3","2","","","NA","63.0","3","NA","","7","","","NA","28.3","35.6"
"-110.283","54.417","COLD LAKE A","3081680","AB","19.1","0","3.0","30.7","0","7.9","0","0.0","0","0.0","28.7","0","51.0","","5","","","NA","18.0","53.1"
"-110.868","54.367","DUPRE AGCM","3081690","AB","17.4","2","NA","31.9","2","4.9","2","","","NA","25.5","2","NA","","4","","","NA","35.4","18.8"
"-104.710","50.201","BRATT'S LAKE CLIMATE","4010811","SK","18.9","1","NA","34.0","1","4.9","1","","","NA","31.0","1","NA","","4","","","NA","19.8","46.2"
"-102.571","50.368","BROADVIEW","4010879","SK","18.6","1","1.7","32.0","1","4.7","1","","","NA","38.0","1","NA","","7","","","NA","24.9","42.5"
"-105.383","50.550","BUFFALO POUND LAKE","4010984","SK","20.6","0","NA","36.0","0","4.5","0","0.0","0","NA","25.3","0","NA","0.0","3","","","NA","7.4","89.1"
"-104.867","51.183","DUVAL","4012300","SK","19.9","0","1.8","34.0","0","7.0","0","0.0","0","NA","45.1","0","76.0","0.0","9","","","NA","12.0","72.0"
"-102.966","49.210","ESTEVAN A","4012403","SK","19.8","1","NA","33.5","1","8.4","1","","","NA","52.4","2","NA","","5","","","NA","11.4","65.5"
"-102.967","49.217","ESTEVAN","4012410","SK","19.9","0","NA","34.2","0","8.3","0","","","NA","51.5","0","NA","","5","","","NA","11.3","69.3"
"-103.650","50.550","INDIAN HEAD CDA","4013480","SK","18.3","0","0.8","31.5","0","4.7","0","","","NA","45.9","0","90.0","","5","","","NA","27.5","36.0"
"-103.753","51.257","KELLIHER","4013660","SK","19.1","0","2.1","32.5","0","7.5","0","0.0","0","NA","72.0","0","109.0","0.0","9","","","NA","17.3","51.7"
"-102.733","50.200","KIPLING","4014040","SK","19.1","0","2.0","32.0","0","7.0","0","0.0","0","NA","24.2","0","40.0","0.0","6","","","NA","19.1","53.1"
"-105.250","51.417","LAST MOUNTAIN CS","4014156","SK","19.9","1","2.3","34.6","1","4.3","1","","","NA","58.8","3","NA","","5","","","NA","16.1","71.6"
"-104.633","52.000","LEROY","4014322","SK","19.1","0","1.9","33.0","0","5.0","0","0.0","0","NA","76.8","0","123.0","0.0","7","","","NA","18.0","52.4"
"-103.889","51.152","LIPTON 2","4014481","SK","18.9","2","1.9","32.0","1","6.0","1","0.0","0","NA","49.4","0","76.0","0.0","7","","","NA","19.3","44.1"
"-105.538","50.332","MOOSE JAW CS","4015322","SK","20.0","0","NA","35.6","0","5.0","0","","","NA","26.3","0","NA","","5","","","NA","13.3","76.4"
"-105.000","52.333","MUENSTER","4015440","SK","18.6","0","1.6","31.0","0","5.0","0","0.0","0","NA","172.0","0","304.0","0.0","8","","","NA","22.5","42.0"
"-102.117","49.317","OXBOW","4015800","SK","19.9","5","NA","33.5","5","6.5","5","0.0","5","NA","17.8","5","NA","0.0","4","","","NA","8.4","57.6"
"-103.983","50.567","QU'APPELLE 1","4016322","SK","19.3","0","1.6","33.0","0","6.0","0","0.0","0","NA","45.8","0","79.0","0.0","6","","","NA","17.1","58.8"
"-104.666","50.432","REGINA INTL A","4016566","SK","19.9","0","NA","34.2","0","3.8","0","","","NA","","","NA","","","","","NA","12.8","70.7"
"-104.667","50.433","REGINA RCS","4016699","SK","19.8","0","NA","34.4","0","4.3","0","","","NA","18.9","0","NA","","7","","","NA","12.6","67.9"
"-105.400","51.667","WATROUS EAST","4018642","SK","19.4","0","NA","34.8","0","5.0","0","","","NA","30.7","0","NA","","4","","","NA","16.4","59.3"
"-104.183","49.817","YELLOW GRASS NORTH","4019041","SK","19.6","0","NA","35.2","0","6.9","0","","","NA","48.7","0","NA","","4","","","NA","14.4","65.3"
"-102.464","51.265","YORKTON","4019073","SK","18.9","0","NA","31.6","0","7.1","0","","","NA","90.8","0","NA","","7","","","NA","17.4","45.2"
"-102.462","51.265","YORKTON","4019075","SK","19.1","0","NA","31.6","0","7.3","0","","","NA","93.0","0","NA","","7","","","NA","15.3","48.6"
"-104.200","51.767","WYNYARD (AUT)","40190LN","SK","19.3","0","NA","32.4","0","6.7","0","","","NA","48.2","0","NA","","4","","","NA","16.6","57.3"
"-103.800","49.700","WEYBURN","401HP5R","SK","20.1","1","NA","35.0","1","7.5","1","","","NA","45.2","1","NA","","5","","","NA","10.5","73.2"
"-105.946","49.729","ASSINIBOIA AIRPORT","4020286","SK","20.5","0","NA","37.7","0","4.8","0","","","NA","8.7","0","NA","","2","","","NA","12.3","89.4"
"-107.311","50.832","BEECHY","4020560","SK","21.1","0","2.7","37.0","0","3.0","0","0.0","0","NA","24.2","0","60.0","0.0","2","","","NA","9.2","105.7"
"-106.583","51.133","ELBOW CS","4022359","SK","20.2","2","NA","35.5","2","5.8","2","","","NA","19.6","4","NA","","1","","","NA","10.4","74.0"
"-107.150","50.950","LUCKY LAKE","4024714","SK","20.7","1","NA","36.7","1","4.4","1","","","NA","10.0","1","NA","","2","","","NA","10.9","92.5"
"-109.466","49.903","MAPLE CREEK","4024919","SK","21.5","0","NA","35.5","0","1.9","0","","","NA","17.4","0","NA","","4","","","NA","10.1","117.3"
