"Long","Lat","Stn_Name","Clim_ID","Prov_or_Ter","Tm","DwTm","D","Tx","DwTx","Tn","DwTn","S","DwS","S%N","P","DwP","P%N","S_G","Pd","BS","DwBS","BS%","HDD","CDD"
"-123.742","48.935","CHEMAINUS","1011500","BC","20.5","0","NA","34.5","0","12.5","0","0.0","0","NA","14.6","0","NA","0.0","3","","","NA","5.4","81.8"
"-124.052","48.829","LAKE COWICHAN","1012055","BC","19.2","13","1.1","36.0","8","8.0","9","","","NA","18.8","25","NA","","3","","","NA","9.4","30.9"
"-123.226","48.425","DISCOVERY ISLAND","1012475","BC","","","NA","28.9","0","","","","","NA","","","NA","","","","","NA","",""
"-123.439","48.432","ESQUIMALT HARBOUR","1012710","BC","17.0","0","NA","29.1","0","11.7","0","","","NA","4.0","0","NA","","2","","","NA","45.7","13.2"
"-123.573","48.985","GALIANO NORTH","10130MN","BC","19.3","6","NA","30.5","6","12.0","6","0.0","6","NA","22.2","6","NA","0.0","5","","","NA","8.0","40.2"
"-123.530","48.575","MALAHAT","1014820","BC","19.3","0","NA","32.9","0","10.4","0","","","NA","6.6","0","NA","","2","","","NA","24.7","65.5"
"-123.561","48.374","METCHOSIN","1015105","BC","","","NA","","","","","0.0","17","NA","7.2","17","NA","0.0","3","","","NA","",""
"-123.718","48.824","NORTH COWICHAN","1015628","BC","","","NA","","","","","0.0","0","NA","14.4","0","48.0","0.0","3","","","NA","",""
"-123.719","48.824","NORTH COWICHAN","1015630","BC","19.3","0","NA","35.6","0","8.6","0","","","NA","13.4","0","NA","","3","","","NA","13.8","53.2"
"-123.287","48.764","NORTH PENDER ISLAND","1015638","BC","20.6","4","NA","35.0","4","10.0","4","0.0","4","NA","2.0","4","NA","","1","","","NA","7.9","79.3"
"-123.531","48.298","RACE ROCKS","1016640","BC","16.0","0","NA","31.6","0","10.5","0","","","NA","","","NA","","","","","NA","76.4","15.6"
"-123.419","48.622","SAANICHTON CDA","1016940","BC","18.4","1","1.3","32.0","0","9.5","1","0.0","0","NA","13.6","0","51.0","0.0","4","","","NA","27.7","39.9"
"-123.546","48.888","SALTSPRING ST MARY'S L","1016995","BC","20.2","4","1.9","33.0","4","12.5","4","0.0","4","NA","5.0","4","NA","0.0","2","","","NA","3.9","63.6"
"-123.128","48.775","SATURNA CAPMON","1017098","BC","18.7","0","1.4","33.9","0","9.7","0","0.0","0","NA","10.0","0","30.0","","5","","","NA","31.5","52.8"
"-123.128","48.775","SATURNA CAPMON CS","1017099","BC","18.6","0","NA","31.2","0","9.8","0","","","NA","8.4","0","NA","","4","","","NA","31.6","48.8"
"-123.045","48.784","SATURNA ISLAND CS","1017101","BC","18.3","1","NA","26.5","1","11.7","0","","","NA","8.2","1","NA","","3","","","NA","21.8","31.1"
"-123.626","48.647","SHAWNIGAN LAKE","1017230","BC","19.5","0","1.6","34.5","0","10.0","0","0.0","0","NA","5.4","0","19.0","0.0","1","","","NA","10.7","56.9"
"-123.921","48.377","SHERINGHAM POINT","1017254","BC","14.9","0","NA","29.8","0","10.1","0","","","NA","17.0","0","NA","","3","","","NA","103.1","8.1"
"-123.305","48.457","VICTORIA UNIVERSITY CS","1018598","BC","18.3","0","NA","33.3","0","9.7","0","","","NA","5.7","0","NA","","1","","","NA","24.7","32.7"
"-123.443","48.476","VICTORIA FRANCIS PARK","1018605","BC","","","NA","","","","","0.0","30","NA","1.8","30","NA","0.0","1","","","NA","",""
"-123.325","48.413","VICTORIA GONZALES CS","1018611","BC","17.4","0","NA","33.1","0","10.9","0","","","NA","7.2","0","NA","","2","","","NA","42.9","25.8"
"-123.426","48.647","VICTORIA INTL A","1018621","BC","18.3","0","NA","32.4","0","9.9","0","0.0","0","NA","3.2","0","NA","","1","","","NA","26.0","34.1"
"-124.160","49.350","BALLENAS ISLAND","1020590","BC","18.6","0","NA","26.8","0","13.7","0","","","NA","22.6","0","NA","","2","","","NA","14.3","33.3"
"-125.273","49.952","CAMPBELL RIVER A","1021261","BC","18.7","0","1.4","34.0","0","8.0","0","0.0","0","NA","75.4","0","169.0","0.0","9","","","NA","33.2","53.6"
"-125.195","49.998","CAPE MUDGE","1021330","BC","19.0","0","1.9","34.0","0","11.5","0","0.0","0","NA","72.0","0","158.0","0.0","8","","","NA","22.5","54.4"
"-124.683","49.472","CHROME ISLAND","1021500","BC","19.0","0","NA","31.5","0","10.0","0","0.0","0","NA","36.0","0","NA","0.0","9","","","NA","12.7","43.8"
"-124.900","49.717","COMOX A","1021830","BC","19.3","0","1.4","32.9","0","10.3","0","0.0","0","NA","25.8","0","89.0","0.0","8","","","NA","14.2","53.1"
"-124.949","50.071","CORTES ISLAND TIBER BAY","1021960","BC","19.4","4","NA","33.5","3","9.5","4","0.0","3","NA","39.0","3","NA","0.0","8","","","NA","14.3","51.8"
"-124.999","49.763","COURTENAY GRANTHAM","1021988","BC","19.0","9","NA","33.0","9","9.5","9","0.0","9","NA","32.0","9","NA","0.0","7","","","NA","10.5","33.0"
"-125.033","49.686","COURTENAY PUNTLEDGE","1021989","BC","19.2","1","NA","34.5","0","9.0","1","0.0","0","NA","51.5","0","NA","0.0","7","","","NA","14.3","49.5"
"-123.811","49.209","ENTRANCE ISLAND","1022689","BC","18.8","0","NA","26.0","0","13.3","0","","","NA","17.0","0","NA","","2","","","NA","15.5","40.6"
"-125.993","50.454","FANNY ISLAND","1022795","BC","14.5","0","NA","19.2","0","10.4","0","","","NA","48.6","0","NA","","6","","","NA","107.1","0.0"
"-123.734","49.154","GABRIOLA ISLAND","1023042","BC","18.6","0","1.8","31.0","0","7.5","0","0.0","0","NA","12.4","0","47.0","","4","","","NA","32.7","51.9"
"-125.203","50.099","HERIOT BAY SE","1023462","BC","19.0","4","NA","32.5","4","11.5","4","0.0","4","NA","52.2","4","NA","0.0","6","","","NA","11.2","38.4"
"-124.512","49.353","LITTLE QUALICUM HATCHERY","1024638","BC","17.6","18","1.2","32.0","18","7.5","18","0.0","18","NA","13.5","18","NA","","3","","","NA","14.3","9.5"
"-123.870","49.054","NANAIMO A","1025369","BC","19.4","12","NA","34.5","12","8.5","12","0.0","12","NA","23.4","12","NA","","4","","","NA","8.8","35.0"
"-123.988","49.199","NANAIMO CITY YARD","10253G0","BC","","","NA","","","","","0.0","1","NA","12.2","1","NA","0.0","4","","","NA","",""
"-127.367","50.681","PORT HARDY A","1026271","BC","15.2","0","NA","24.6","0","7.7","0","0.0","0","NA","59.0","0","NA","","8","","","NA","85.5","0.0"
"-124.394","49.337","QUALICUM BEACH AIRPORT","1026562","BC","18.7","0","NA","32.1","0","9.0","0","","","NA","15.7","0","NA","","5","","","NA","23.6","43.9"
"-124.617","49.394","QUALICUM R FISH RESEARCH","1026565","BC","18.4","1","1.6","31.5","1","9.0","1","0.0","1","NA","22.0","1","NA","0.0","7","","","NA","15.6","26.1"
"-125.304","50.016","QUINSAM RIVER HATCHERY","1026639","BC","18.9","3","1.5","34.0","3","9.0","3","0.0","3","NA","86.4","3","NA","0.0","7","","","NA","16.4","41.7"
"-124.435","49.487","SISTERS ISLAND","1027403","BC","18.9","0","NA","27.9","0","14.3","0","","","NA","","","NA","","","","","NA","10.3","38.4"
"-123.809","49.209","ENTRANCE ISLAND","102BFHH","BC","18.8","4","NA","26.0","4","14.0","4","0.0","4","NA","20.2","4","NA","0.0","4","","","NA","10.0","32.1"
"-124.982","49.337","ALBERNI ROBERTSON CREEK","1030230","BC","19.8","7","1.3","36.0","6","9.0","7","0.0","6","NA","53.2","6","NA","0.0","9","","","NA","10.8","54.9"
"-125.216","48.786","CAPE BEALE LIGHT","1031316","BC","15.4","1","1.4","30.0","1","10.5","1","0.0","1","NA","56.2","1","NA","0.0","6","","","NA","84.6","6.9"
"-124.751","48.612","CARMANAH POINT","1031402","BC","","","NA","","","","","0.0","0","NA","34.6","0","42.0","0.0","5","","","NA","",""
"-126.418","49.800","CONUMA RIVER HATCHERY","1031844","BC","","","NA","","","","","0.0","0","NA","142.7","0","99.0","0.0","8","","","NA","",""
"-126.543","49.383","ESTEVAN POINT","1032730","BC","15.3","0","0.6","24.0","0","10.0","0","0.0","0","NA","189.8","0","195.0","0.0","10","","","NA","84.9","1.8"
"-126.543","49.383","ESTEVAN POINT CS","1032731","BC","14.7","0","NA","23.2","0","10.1","0","","","NA","190.4","0","NA","","8","","","NA","101.8","0.6"
"-126.055","49.779","GOLD RIVER TOWNSITE","1033232","BC","18.4","16","0.3","34.5","16","9.0","16","0.0","16","NA","86.0","16","NA","0.0","7","","","NA","9.6","15.6"
"-125.923","49.111","LENNARD ISLAND","1034600","BC","14.6","0","NA","23.0","0","10.0","0","0.0","0","NA","156.6","0","188.0","0.0","8","","","NA","106.9","0.8"
"-124.655","48.859","NITINAT RIVER HATCHERY","1035612","BC","17.9","8","1.3","35.0","8","-1.0","8","","","NA","21.4","30","NA","","1","","","NA","26.5","25.1"
"-126.617","49.600","NOOTKA LIGHTSTATION","1035614","BC","17.2","1","0.9","25.5","1","11.0","1","0.0","1","NA","154.6","1","NA","0.0","7","","","NA","41.8","17.1"
"-125.097","48.723","PACHENA POINT","1035940","BC","15.2","0","1.0","29.0","0","9.0","0","0.0","0","NA","64.2","0","76.0","0.0","5","","","NA","92.9","5.1"
"-124.752","49.202","PORT ALBERNI COX LAKE","1036208","BC","20.7","9","3.1","36.5","9","9.0","9","0.0","9","NA","23.2","9","NA","0.0","2","","","NA","5.1","64.3"
"-127.653","50.534","QUATSINO","1036570","BC","16.7","3","1.0","27.0","3","9.5","3","0.0","3","NA","51.8","3","NA","0.0","7","","","NA","44.9","9.4"
"-124.927","49.317","PORT ALBERNI (AUT)","1036B06","BC","19.7","1","NA","36.6","1","7.4","1","","","NA","33.0","1","NA","","6","","","NA","11.9","64.1"
"-128.908","50.821","SARTINE ISLAND (AUT)","1037090","BC","13.8","3","NA","17.8","2","11.2","1","","","NA","27.2","3","NA","","5","","","NA","116.3","0.0"
"-127.940","50.112","SOLANDER ISLAND (AUT)","1037553","BC","12.9","3","NA","18.7","2","10.6","1","","","NA","34.2","3","NA","","5","","","NA","143.0","0.0"
"-126.654","49.932","TAHSIS VILLAGE NORTH","1037899","BC","18.7","17","NA","32.5","17","10.0","17","","","NA","105.4","28","NA","","3","","","NA","12.5","22.6"
"-125.773","49.082","TOFINO A","1038205","BC","16.0","0","1.0","31.5","0","8.5","0","0.0","0","NA","153.6","0","174.0","0.0","8","","","NA","72.9","9.9"
"-125.527","48.945","UCLUELET KENNEDY CAMP","1038332","BC","16.2","0","1.1","32.0","0","7.5","0","0.0","0","NA","171.2","0","195.0","0.0","8","","","NA","67.2","10.6"
"-126.779","50.053","ZEBALLOS MURAUDE CREEK","1039035","BC","18.6","0","NA","34.5","0","4.0","0","0.0","0","NA","190.2","0","NA","0.0","9","","","NA","33.8","51.6"
"-123.541","49.386","GIBSONS GOWER POINT","1043152","BC","18.2","7","0.3","28.5","7","13.0","7","0.0","7","NA","18.2","7","NA","0.0","3","","","NA","14.4","18.4"
"-123.913","49.468","MERRY ISLAND LIGHTSTATION","1045100","BC","18.9","0","0.6","26.0","0","13.0","0","0.0","0","NA","26.0","0","73.0","0.0","4","","","NA","5.5","32.0"
"-123.299","49.488","HOWE SOUND - PAM ROCKS","10459NN","BC","19.6","1","NA","30.1","1","14.6","0","","","NA","13.8","1","NA","","3","","","NA","6.0","53.1"
"-124.032","49.634","PENDER HARBOUR","1046115","BC","","","NA","","","","","0.0","0","NA","27.4","0","NA","0.0","5","","","NA","",""
"-123.496","49.526","PORT MELLON","1046332","BC","19.0","0","NA","32.9","0","11.0","0","","","NA","38.0","0","NA","","3","","","NA","20.5","52.2"
"-124.500","49.834","POWELL RIVER A","1046391","BC","18.1","0","0.9","32.0","0","8.0","0","0.0","0","NA","31.4","0","69.0","0.0","6","","","NA","25.1","28.1"
"-124.497","49.835","POWELL RIVER","1046392","BC","17.9","2","NA","31.5","2","8.8","0","","","NA","33.2","2","NA","","8","","","NA","26.7","23.6"
"-123.715","49.458","SECHELT AUT","1047172","BC","18.2","0","NA","32.4","0","8.7","0","","","NA","17.1","0","NA","","2","","","NA","26.8","31.6"
"-123.161","49.783","SQUAMISH AIRPORT","10476F0","BC","19.4","0","NA","36.9","0","8.6","0","","","NA","9.6","0","NA","","3","","","NA","14.8","59.6"
"-122.955","50.129","WHISTLER","1048898","BC","17.8","0","1.3","32.5","0","6.0","0","0.0","0","NA","29.1","0","61.0","0.0","6","","","NA","40.6","33.5"
"-131.016","51.936","CAPE ST JAMES","1051351","BC","14.6","3","NA","22.8","2","11.4","1","","","NA","","","NA","","","","","NA","94.1","0.0"
"-132.772","53.316","KINDAKUN ROCKS (AUT)","1054222","BC","13.9","3","NA","18.0","2","11.7","1","","","NA","68.2","3","NA","","12","","","NA","113.5","0.0"
"-133.058","54.255","LANGARA","1054500","BC","14.3","0","0.7","18.0","0","12.0","0","0.0","0","NA","66.8","0","50.0","0.0","10","","","NA","113.7","0.0"
"-133.058","54.255","LANGARA ISLAND RCS","1054503","BC","14.1","0","NA","17.7","0","11.9","0","","","NA","63.9","0","NA","","8","","","NA","121.1","0.0"
"-131.661","54.159","ROSE SPIT (AUT)","1056869","BC","15.0","0","NA","19.4","0","11.2","0","","","NA","48.3","0","NA","","9","","","NA","91.6","0.0"
"-131.813","53.254","SANDSPIT A","1057050","BC","18.0","0","2.8","25.5","0","12.5","0","0.0","0","NA","41.6","0","67.0","0.0","6","","","NA","21.2","20.8"
"-131.813","53.249","SANDSPIT AIRPORT AUTO","1057051","BC","17.9","0","NA","25.5","0","12.0","0","","","NA","21.9","0","NA","","6","","","NA","23.4","19.6"
"-131.814","53.254","SANDSPIT","1057052","BC","18.1","10","NA","24.5","10","13.3","10","","","NA","18.7","10","NA","","4","","","NA","14.3","15.5"
"-132.299","53.764","SEWALL MASSET INLET","105PA91","BC","16.9","9","NA","26.0","9","9.0","8","0.0","9","NA","53.8","9","NA","","7","","","NA","31.3","6.9"
"-127.864","51.604","ADDENBROKE ISLAND","1060080","BC","16.1","0","0.9","24.5","0","11.0","0","0.0","0","NA","140.6","0","102.0","0.0","9","","","NA","59.1","0.8"
"-128.157","52.185","BELLA BELLA","1060815","BC","16.4","9","NA","29.9","9","6.6","9","","","NA","160.9","11","NA","","5","","","NA","39.2","5.0"
"-126.596","52.388","BELLA COOLA A","1060841","BC","19.0","0","2.0","32.0","0","9.0","0","0.0","0","NA","89.0","0","148.0","0.0","13","","","NA","15.5","45.7"
"-126.587","52.389","BELLA COOLA AIRPORT","1060844","BC","18.4","0","NA","31.5","0","8.6","0","","","NA","77.7","0","NA","","8","","","NA","21.9","33.3"
"-128.524","52.643","BOAT BLUFF","1060901","BC","16.9","0","1.8","30.0","0","8.5","0","0.0","0","NA","158.8","0","69.0","0.0","10","","","NA","51.7","17.4"
"-130.638","53.493","BONILLA ISLAND","1060902","BC","14.3","0","0.3","19.5","0","10.5","0","0.0","0","NA","49.6","0","44.0","0.0","8","","","NA","114.5","0.0"
"-130.639","53.493","BONILLA ISLAND (AUT)","1060R0K","BC","13.6","12","NA","17.9","10","10.9","7","","","NA","23.2","12","NA","","5","","","NA","83.8","0.0"
"-127.471","52.187","CATHEDRAL POINT (AUT)","1061458","BC","18.0","3","NA","29.4","2","12.5","1","","","NA","124.2","3","NA","","8","","","NA","26.9","25.8"
"-131.602","53.030","CUMSHEWA ISLAND","1062251","BC","17.4","3","NA","23.9","2","13.5","1","","","NA","21.0","3","NA","","4","","","NA","29.0","11.3"
"-128.112","52.185","DRYAD POINT","1062544","BC","17.2","0","1.4","29.0","0","11.0","0","0.0","0","NA","171.2","0","118.0","0.0","9","","","NA","36.9","12.7"
"-127.835","51.247","EGG ISLAND","1062646","BC","14.7","2","0.8","18.5","2","10.5","2","0.0","2","NA","71.0","2","NA","0.0","8","","","NA","97.1","0.0"
"-130.708","54.569","GREEN ISLAND","1063298","BC","16.3","3","1.5","23.0","3","12.0","3","0.0","3","NA","48.2","3","NA","","8","","","NA","47.4","0.0"
"-130.698","54.580","GREY ISLET (AUT)","1063303","BC","15.7","0","NA","21.4","0","11.8","0","","","NA","61.8","0","NA","","10","","","NA","72.8","0.0"
"-127.632","50.940","HERBERT ISLAND (AUT)","1063461","BC","13.8","0","NA","19.0","0","9.8","0","","","NA","40.4","0","NA","","6","","","NA","128.7","0.0"
"-130.361","54.172","HOLLAND ROCK","1063496","BC","14.4","0","NA","19.0","0","11.1","0","","","NA","72.2","0","NA","","13","","","NA","111.5","0.0"
"-128.407","52.270","IVORY ISLAND","1063690","BC","15.7","0","0.8","22.0","0","11.0","0","0.0","0","NA","138.2","0","84.0","0.0","10","","","NA","72.7","0.0"
"-128.634","54.054","KITIMAT TOWNSITE","1064320","BC","18.1","0","1.6","35.0","0","1.0","0","0.0","0","NA","209.0","0","218.0","0.0","9","","","NA","36.1","40.3"
"-130.609","54.296","LUCY ISLAND LIGHTSTATION","1064728","BC","15.2","0","NA","20.2","0","12.2","0","","","NA","","","NA","","","","","NA","85.3","0.0"
"-128.719","52.262","MCINNES ISLAND","1065010","BC","15.3","2","0.6","20.0","2","11.5","2","0.0","2","NA","53.8","2","NA","0.0","8","","","NA","77.3","0.0"
"-130.445","54.286","PRINCE RUPERT","1066482","BC","15.4","7","NA","21.5","7","9.6","7","","","NA","53.6","7","NA","","11","","","NA","62.9","0.0"
"-130.290","54.320","PRINCE RUPERT MONT CIRC","1066488","BC","","","NA","","","","","0.0","11","NA","137.8","11","NA","0.0","10","","","NA","",""
"-128.625","54.502","TERRACE PCC","1068131","BC","19.0","1","2.3","31.5","1","8.5","1","0.0","1","NA","46.4","1","NA","0.0","8","","","NA","16.4","47.6"
"-128.578","54.469","TERRACE A","1068134","BC","18.2","0","NA","30.6","0","9.0","0","0.0","1","NA","55.5","0","NA","","9","","","NA","27.3","34.0"
"-130.880","54.295","TRIPLE ISLAND","1068250","BC","15.0","0","NA","19.0","0","12.0","0","0.0","0","NA","51.2","0","NA","0.0","8","","","NA","91.7","0.0"
"-128.682","54.044","KITIMAT HATCHERY","106D289","BC","19.1","13","NA","32.0","13","9.5","13","0.0","13","NA","26.6","13","NA","0.0","5","","","NA","9.4","28.4"
"-126.277","54.199","EQUITY SILVER","1072692","BC","13.3","0","1.8","24.5","0","3.5","0","0.0","0","NA","65.4","0","122.0","0.0","7","","","NA","145.2","0.0"
"-126.668","54.396","HOUSTON","1073615","BC","15.9","7","NA","29.0","7","3.5","7","0.0","12","NA","51.6","12","NA","0.0","5","","","NA","53.5","2.8"
"-129.030","55.238","NASS CAMP","1075384","BC","17.4","0","2.1","31.0","0","6.5","0","0.0","0","NA","68.6","0","89.0","","10","","","NA","35.8","17.0"
"-127.183","54.825","SMITHERS","1077499","BC","15.9","3","NA","28.6","3","4.2","3","","","NA","72.7","3","NA","","7","","","NA","60.2","2.7"
"-127.183","54.825","SMITHERS A","1077500","BC","16.3","0","1.7","28.0","0","5.0","0","0.0","0","NA","77.8","0","178.0","0.0","10","","","NA","58.1","5.0"
"-127.189","54.824","SMITHERS AIRPORT AUTO","1077501","BC","16.2","0","NA","28.3","0","5.3","0","","","NA","71.2","0","NA","","8","","","NA","60.2","4.7"
"-127.171","55.289","SUSKWA VALLEY","107G879","BC","13.9","4","-0.1","27.5","4","1.5","4","0.0","4","NA","114.8","4","NA","0.0","9","","","NA","111.9","0.0"
"-125.997","53.772","OOTSA LAKESKINS LAKE CLIMATE","1085836","BC","15.5","0","NA","25.4","0","3.2","0","","","NA","32.0","0","NA","","9","","","NA","76.6","0.5"
"-122.734","50.306","PEMBERTON AIRPORT CS","1086082","BC","20.7","0","NA","36.8","0","7.5","0","","","NA","16.1","0","NA","","5","","","NA","8.3","92.6"
"-124.136","52.114","PUNTZI MOUNTAIN (AUT)","1086558","BC","15.3","0","NA","31.0","0","3.0","0","","","NA","51.4","0","NA","","9","","","NA","85.4","1.3"
"-124.403","51.675","TATLAYOKO LAKE RCS","1088015","BC","15.7","0","NA","31.7","0","1.7","0","","","NA","45.6","0","NA","","5","","","NA","74.2","1.6"
"-125.959","54.383","BURNS LAKE DECKER LAKE","1091174","BC","13.8","0","NA","28.5","0","-1.0","0","","","NA","39.4","0","NA","","6","","","NA","130.9","0.0"
"-124.286","54.455","FORT ST JAMES","1092970","BC","16.1","13","1.3","27.0","13","5.5","13","0.0","13","NA","9.0","13","NA","0.0","2","","","NA","38.6","4.4"
"-124.286","54.455","FORT ST JAMES AUTO","1092975","BC","16.4","0","NA","26.9","0","5.5","0","","","NA","38.2","1","NA","","7","","","NA","57.2","7.3"
"-122.699","53.531","HIXON","1093474","BC","17.7","12","1.5","30.0","12","5.0","12","0.0","12","NA","24.8","12","NA","","4","","","NA","11.3","5.7"
"-122.286","52.531","MCLEESE LAKE GRANITE MT","1095018","BC","15.9","15","NA","27.0","10","2.5","11","0.0","10","NA","52.2","10","NA","0.0","6","","","NA","33.6","0.3"
"-122.678","53.884","PRINCE GEORGE","1096439","BC","16.1","8","NA","27.7","8","2.6","7","","","NA","34.7","8","NA","","7","","","NA","46.4","3.3"
"-122.672","53.889","PRINCE GEORGE AIRPORT AUTO","1096453","BC","15.9","0","NA","27.7","0","2.2","0","","","NA","43.3","0","NA","","8","","","NA","67.1","2.7"
"-122.768","53.880","PRINCE GEORGE STP","1096468","BC","17.9","3","1.9","30.0","3","6.0","3","0.0","3","NA","42.6","3","NA","0.0","10","","","NA","27.3","24.4"
"-122.510","53.026","QUESNEL","1096629","BC","17.3","10","NA","30.4","10","3.7","10","","","NA","32.8","10","NA","","7","","","NA","24.8","11.0"
"-122.506","53.027","QUESNEL AIRPORT AUTO","1096631","BC","17.4","0","NA","30.6","0","3.9","0","","","NA","29.7","0","NA","","7","","","NA","34.2","16.3"
"-121.686","52.184","SPOKIN LAKE 4E","1097646","BC","13.9","0","1.1","28.0","0","-1.0","0","0.0","0","NA","35.0","0","67.0","0.0","10","","","NA","128.0","0.3"
"-122.054","52.183","WILLIAMS LAKE A","1098941","BC","16.5","0","NA","29.0","0","5.5","0","0.0","1","NA","33.4","0","NA","","10","","","NA","54.0","6.3"
"-124.017","54.033","VANDERHOOF","1098D90","BC","17.1","0","1.2","30.0","0","2.5","0","0.0","0","NA","63.6","0","148.0","0.0","10","","","NA","44.9","16.1"
"-121.263","51.623","108 MILE HOUSE ABEL LAKE","109E7R6","BC","16.5","5","NA","30.5","5","6.0","5","0.0","5","NA","65.4","5","NA","","8","","","NA","46.0","8.0"
"-122.360","49.025","ABBOTSFORD A","1100031","BC","19.6","0","NA","34.6","0","9.8","0","0.0","0","NA","14.5","0","NA","","4","","","NA","13.3","62.5"
"-121.760","49.243","AGASSIZ RCS","1100119","BC","19.8","1","1.0","34.9","1","8.8","0","","","NA","3.1","1","NA","","1","","","NA","14.5","69.9"
"-121.760","49.243","AGASSIZ CDA","1100120","BC","20.4","2","1.7","35.0","1","9.0","1","0.0","0","NA","18.4","0","32.0","0.0","1","","","NA","9.9","78.4"
"-122.955","50.129","WHISTLER - NESTERS","1100875","BC","17.8","0","NA","33.5","0","6.2","0","","","NA","20.8","0","NA","","3","","","NA","41.6","35.4"
"-122.936","50.102","BLACKCOMB BASE SLIDING CENTER","1100881","BC","17.0","0","NA","30.6","0","6.9","0","","","NA","18.7","0","NA","","4","","","NA","70.2","38.6"
"-122.918","49.278","BURNABY SIMON FRASER U","1101158","BC","","","","","","16.0","30","","","NA","","","NA","","","","","NA","",""
"-123.111","50.144","CALLAGHAN VALLEY","1101300","BC","16.5","0","NA","31.2","0","6.2","0","","","NA","26.8","0","NA","","6","","","NA","71.6","25.4"
"-122.698","49.109","CLOVERDALE EAST","1101708","BC","19.8","5","NA","35.5","5","11.5","5","0.0","5","NA","19.0","5","NA","0.0","4","","","NA","6.8","53.9"
"-123.002","49.126","DELTA BURNS BOG","1102415","BC","18.4","0","NA","33.4","0","7.4","0","","","NA","11.7","0","NA","","3","","","NA","20.3","34.0"
"-123.093","49.011","DELTA TSAWWASSEN BEACH","1102425","BC","17.9","0","0.0","29.0","0","10.0","0","0.0","0","NA","9.6","0","34.0","0.0","3","","","NA","25.1","23.0"
"-122.551","49.145","FORT LANGLEY TELEGRAPH TRAIL","1102912","BC","19.5","3","NA","33.5","3","9.5","3","0.0","3","NA","10.0","3","NA","","2","","","NA","13.0","54.5"
"-122.573","49.264","HANEY UBC RF ADMIN","1103332","BC","19.1","0","1.3","34.5","0","9.0","0","0.0","0","NA","26.2","0","37.0","0.0","4","","","NA","24.2","58.4"
"-121.579","49.356","LAIDLAW","1104488","BC","20.5","0","1.3","35.5","0","11.0","0","0.0","0","NA","33.6","0","52.0","","5","","","NA","11.4","89.0"
"-122.271","49.153","MISSION WEST ABBEY","1105192","BC","19.9","0","1.6","33.5","0","11.5","0","0.0","0","NA","12.8","0","20.0","0.0","3","","","NA","16.9","77.0"
"-123.078","49.182","RICHMOND OPERATIONS CENTRE","1105210","BC","","","NA","","","","","","","NA","11.7","0","NA","","2","","","NA","",""
"-123.078","49.381","N VANC GROUSE MTN RESORT","1105658","BC","16.8","14","2.7","28.0","14","4.0","14","0.0","14","NA","10.2","14","NA","","2","","","NA","44.7","24.4"
"-123.115","49.315","N VANCOUVER WHARVES","1105669","BC","","","NA","","","","","0.0","0","NA","21.2","0","42.0","0.0","6","","","NA","",""
"-122.690","49.208","PITT MEADOWS CS","1106178","BC","19.8","0","NA","34.3","0","10.4","0","","","NA","22.2","0","NA","","4","","","NA","9.9","67.0"
"-123.265","49.330","POINT ATKINSON","1106200","BC","18.8","1","NA","26.5","1","13.8","0","","","NA","14.0","1","NA","","5","","","NA","11.8","34.4"
"-123.087","49.179","RICHMOND DALLYN 2","1106764","BC","","","NA","","","","","0.0","0","NA","15.4","0","NA","0.0","6","","","NA","",""
"-122.881","49.279","PORT MOODY GLENAYRE","1106CL2","BC","19.4","10","1.3","31.5","10","11.0","10","0.0","10","NA","18.8","10","NA","0.0","3","","","NA","10.7","40.0"
"-123.093","49.171","RICHMOND NATURE PARK","1106PF7","BC","19.2","0","1.0","32.0","0","9.5","0","0.0","0","NA","17.8","0","44.0","0.0","6","","","NA","7.8","46.0"
"-123.303","49.106","SANDHEADS CS","1107010","BC","18.6","1","NA","25.3","1","13.4","0","","","NA","","","NA","","","","","NA","14.1","32.0"
"-122.110","49.113","SUMAS CANAL","1107785","BC","21.1","26","NA","34.0","18","13.0","19","0.0","18","NA","19.0","18","NA","","1","","","NA","0.0","15.5"
"-123.187","49.183","VANCOUVER SEA ISLAND CCG","1108380","BC","18.9","0","NA","26.9","0","12.1","0","","","NA","8.1","0","NA","","2","","","NA","6.8","33.2"
"-123.184","49.195","VANCOUVER INTL A","1108395","BC","18.4","0","NA","26.4","0","11.5","0","0.0","0","NA","13.8","0","NA","0.0","3","","","NA","11.4","24.1"
"-123.122","49.295","VANCOUVER HARBOUR CS","1108446","BC","19.2","0","NA","29.8","0","12.1","0","","","NA","12.5","0","NA","","3","","","NA","8.3","44.5"
"-123.193","49.347","WEST VANCOUVER AUT","1108824","BC","19.3","0","NA","33.4","0","11.5","0","","","NA","24.0","0","NA","","4","","","NA","17.7","58.5"
"-122.947","50.068","WHISTLER ROUNDHOUSE","1108906","BC","12.1","11","NA","22.5","11","3.0","11","0.0","11","NA","17.2","11","NA","0.0","5","","","NA","117.4","0.0"
"-122.784","49.018","WHITE ROCK CAMPBELL SCIENTIFIC","1108910","BC","18.6","0","NA","32.1","0","11.2","0","","","NA","22.2","0","NA","","5","","","NA","17.2","35.8"
"-122.967","49.438","N VAN SEYMOUR HATCHERY","110N666","BC","18.5","8","1.3","34.0","8","7.0","8","0.0","8","NA","35.8","8","NA","0.0","6","","","NA","23.5","35.8"
"-121.498","49.368","HOPE A","1113542","BC","20.5","3","NA","35.3","3","10.0","3","","","NA","22.6","3","NA","","3","","","NA","9.4","79.4"
"-121.493","49.370","HOPE AIRPORT","1113543","BC","20.2","0","NA","35.4","0","9.7","0","","","NA","21.1","0","NA","","3","","","NA","11.2","80.8"
"-121.233","49.267","HOPE SLIDE","1113581","BC","16.6","0","1.4","31.0","0","6.0","0","0.0","0","NA","25.6","0","62.0","0.0","5","","","NA","59.3","16.9"
"-121.934","50.684","LILLOOET","1114619","BC","22.1","0","NA","35.3","0","11.9","0","","","NA","","","NA","","","","","NA","4.1","131.6"
"-121.582","50.224","LYTTON A","1114738","BC","23.0","4","NA","36.4","4","11.0","4","","","NA","0.0","4","NA","","0","","","NA","0.0","135.4"
"-121.582","50.224","LYTTON RCS","1114746","BC","22.6","0","NA","37.1","0","10.9","0","","","NA","20.4","0","NA","","2","","","NA","2.3","145.9"
"-120.069","49.364","HEDLEY N","1123370","BC","22.2","3","NA","38.0","3","9.0","3","0.0","3","NA","1.8","3","NA","0.0","0","","","NA","2.7","120.1"
"-120.333","49.673","JELLICOE","1123721","BC","17.6","4","NA","33.5","4","4.0","4","0.0","4","NA","6.4","4","NA","0.0","2","","","NA","27.9","17.3"
"-119.378","49.957","KELOWNA","1123939","BC","20.0","2","NA","33.8","2","6.9","1","","","NA","23.4","2","NA","","3","","","NA","3.1","60.4"
"-119.400","49.941","KELOWNA UBCO","1123996","BC","21.5","0","NA","34.6","0","8.9","0","","","NA","28.8","0","NA","","3","","","NA","2.0","109.6"
"-119.400","49.950","KELOWNA MWS0","11239R0","BC","21.6","11","NA","35.0","8","8.0","11","","","NA","24.6","30","NA","","1","","","NA","0.0","72.6"
"-120.778","50.113","MERRITT","1125073","BC","18.7","0","NA","33.9","0","5.3","0","","","NA","9.0","0","NA","","3","","","NA","18.1","38.6"
"-120.801","50.114","MERRITT STP","1125079","BC","19.6","0","1.0","34.5","0","7.5","0","0.0","0","NA","10.4","0","51.0","0.0","2","","","NA","11.6","60.4"
"-119.445","50.056","OKANAGAN CENTRE","1125700","BC","22.4","0","2.0","33.5","0","13.0","0","0.0","0","NA","12.2","0","38.0","0.0","2","","","NA","0.7","138.4"
"-119.545","49.179","OLIVER STP","1125766","BC","23.2","13","1.4","37.5","13","12.0","13","","","NA","","","NA","","","","","NA","0.0","93.6"
"-119.441","49.028","OSOYOOS CS","1125852","BC","22.8","0","0.5","36.7","0","11.2","0","","","NA","20.3","0","NA","","1","","","NA","0.0","148.9"
"-119.717","49.783","PEACHLAND","1126070","BC","22.6","0","1.8","32.0","0","12.0","0","0.0","0","NA","2.6","0","10.0","0.0","2","","","NA","1.0","143.3"
"-119.602","49.463","PENTICTON A","1126146","BC","21.2","0","NA","34.1","0","8.9","0","0.0","0","NA","2.2","0","NA","","1","","","NA","0.9","100.9"
"-120.513","49.468","PRINCETON A","1126510","BC","18.6","0","0.7","35.0","0","5.0","0","0.0","0","NA","6.4","0","26.0","0.0","4","","","NA","18.7","38.0"
"-119.310","50.264","VERNON BELLA VISTA","1128553","BC","21.3","0","1.7","34.5","0","9.5","0","0.0","0","NA","15.9","0","55.0","","5","","","NA","1.7","104.8"
"-119.194","50.223","VERNON AUTO","1128582","BC","21.1","0","NA","33.4","0","9.3","0","","","NA","6.4","0","NA","","4","","","NA","2.6","99.0"
"-119.271","50.344","VERNON NORTH","1128583","BC","21.8","0","1.3","34.0","0","10.0","0","0.0","0","NA","17.0","0","53.0","0.0","5","","","NA","1.5","118.2"
"-119.056","50.359","VERNON SILVER STAR LODGE","1128584","BC","15.4","12","NA","25.0","12","4.0","12","0.0","13","NA","13.6","12","NA","0.0","7","","","NA","52.1","3.6"
"-120.510","49.465","PRINCETON CS","112FN0M","BC","18.9","0","NA","35.3","0","5.7","0","","","NA","5.9","0","NA","","3","","","NA","14.1","43.4"
"-119.649","49.563","SUMMERLAND CS","112G8L1","BC","22.3","0","1.3","35.1","0","10.6","0","","","NA","6.4","0","NA","","2","","","NA","1.4","133.8"
"-118.772","49.004","MIDWAY","1135126","BC","19.5","3","0.8","36.0","3","5.0","3","0.0","3","NA","17.2","3","NA","0.0","3","","","NA","8.6","49.7"
"-118.228","49.017","BILLINGS","1140876","BC","21.3","4","1.0","36.0","4","9.0","4","0.0","4","NA","1.0","4","NA","0.0","1","","","NA","3.5","93.6"
"-117.633","49.296","CASTLEGAR A","1141455","BC","20.9","0","0.9","36.0","0","7.5","0","0.0","0","NA","10.0","0","33.0","0.0","3","","","NA","2.9","91.6"
"-117.774","49.343","CASTLEGAR BCHPA DAM","1141457","BC","20.2","10","0.4","35.0","8","10.0","8","0.0","8","NA","7.0","8","NA","0.0","3","","","NA","4.7","51.7"
"-116.518","49.097","CRESTON","1142160","BC","20.5","0","0.9","34.0","0","10.0","0","0.0","0","NA","16.0","0","52.0","0.0","5","","","NA","2.7","79.5"
"-116.972","50.239","DUNCAN LAKE DAM","1142574","BC","17.6","2","0.5","32.0","1","5.5","1","0.0","1","NA","33.8","1","NA","0.0","7","","","NA","29.1","16.5"
"-118.068","49.872","FAUQUIER","1142820","BC","19.7","0","1.5","33.0","0","9.0","0","0.0","0","NA","27.6","0","58.0","","7","","","NA","4.7","56.0"
"-116.921","49.913","KASLO","1143900","BC","19.4","0","1.1","33.5","0","8.0","0","0.0","0","NA","45.4","0","102.0","0.0","6","","","NA","10.1","52.6"
"-116.458","49.032","LISTER","1144635","BC","20.0","0","0.3","33.7","0","8.0","0","0.0","0","NA","14.8","0","53.0","","3","","","NA","5.6","66.7"
"-117.817","50.269","NAKUSP CS","1145297","BC","19.3","2","NA","31.8","2","8.0","1","","","NA","16.9","2","NA","","3","","","NA","5.1","42.0"
"-117.206","49.586","NELSON NE","1145442","BC","19.9","2","NA","33.5","2","8.5","2","0.0","2","NA","13.8","2","NA","0.0","3","","","NA","2.9","56.8"
"-117.370","49.996","NEW DENVER","1145460","BC","20.0","4","1.1","33.5","4","8.0","4","0.0","4","NA","32.2","4","NA","0.0","5","","","NA","5.4","58.1"
"-117.305","49.491","NELSON CS","1145M29","BC","20.7","0","NA","35.8","0","9.2","0","","","NA","33.5","0","NA","","5","","","NA","4.7","89.0"
"-117.739","49.112","WARFIELD RCS","1148705","BC","21.3","0","NA","37.5","0","7.6","0","","","NA","10.2","0","NA","","6","","","NA","3.4","104.7"
"-116.501","49.082","CRESTON CAMPBELL SCIENTIFIC","114B1F0","BC","21.0","1","NA","33.3","1","10.7","0","","","NA","13.6","1","NA","","3","","","NA","2.7","94.0"
"-117.399","49.512","NELSON RIXEN CREEK","114EMDM","BC","19.6","2","NA","34.5","2","7.5","2","0.0","2","NA","22.8","2","NA","0.0","5","","","NA","12.5","58.2"
"-115.221","49.226","BAYNES LAKE KOOTENAY RIVER","1150690","BC","18.3","4","0.5","34.5","4","4.5","4","0.0","4","NA","20.4","4","NA","","2","","","NA","23.0","32.2"
"-115.782","49.612","CRANBROOK A","1152105","BC","18.2","1","NA","32.8","1","4.7","0","0.0","0","NA","25.2","0","NA","","4","","","NA","30.0","35.8"
"-115.789","49.618","CRANBROOK AIRPORT AUTO","1152106","BC","18.0","0","NA","32.7","0","4.4","0","","","NA","24.9","0","NA","","4","","","NA","36.7","35.2"
"-115.073","49.489","FERNIE","1152850","BC","17.1","7","0.9","32.0","7","3.0","7","0.0","7","NA","7.6","7","NA","0.0","2","","","NA","27.5","6.4"
"-114.855","50.149","FORDING RIVER COMINCO","1152899","BC","10.8","27","-1.2","30.0","22","-2.5","22","0.0","22","NA","14.0","22","NA","","3","","","NA","28.7","0.0"
"-115.461","49.524","FT STEELE DANDY CRK","1153034","BC","17.5","18","NA","33.5","12","4.5","12","0.0","12","NA","16.4","12","NA","0.0","3","","","NA","14.8","8.6"
"-115.962","49.632","KIMBERLEY PCC","1154203","BC","18.7","13","1.1","34.0","13","5.0","13","0.0","13","NA","11.5","13","NA","0.0","3","","","NA","18.1","31.5"
"-116.061","50.631","KOOTENAY NP WEST GATE","1154410","BC","18.8","8","1.1","36.0","8","2.0","8","0.0","8","NA","42.2","8","NA","0.0","3","","","NA","17.4","36.6"
"-114.883","49.745","SPARWOOD","1157630","BC","16.1","0","0.6","31.0","0","3.0","0","0.0","0","0.0","25.2","0","72.0","0.0","5","","","NA","65.3","6.1"
"-114.884","49.745","SPARWOOD CS","1157631","BC","16.0","0","NA","31.1","0","2.8","0","","","NA","25.0","0","NA","","6","","","NA","65.4","4.4"
"-115.460","49.473","WARDNER KTNY HATCHERY","1158692","BC","18.4","11","0.2","34.0","8","3.0","11","0.0","3","NA","21.8","3","NA","0.0","4","","","NA","14.1","22.6"
"-115.631","49.807","WASA","1158730","BC","17.5","0","-0.2","30.5","0","5.5","0","0.0","0","NA","41.2","0","109.0","0.0","7","","","NA","39.9","24.6"
"-121.281","50.708","ASHCROFT","1160515","BC","22.7","0","NA","37.4","0","11.7","0","","","NA","32.8","0","NA","","5","","","NA","1.1","145.7"
"-119.290","52.129","BLUE RIVER A","1160899","BC","17.2","0","1.2","30.5","0","3.5","0","0.0","0","NA","59.0","0","72.0","0.0","11","","","NA","39.5","13.4"
"-119.290","52.129","BLUE RIVER CS","1160H99","BC","17.2","0","NA","30.7","0","3.4","0","","","NA","41.0","0","NA","","8","","","NA","38.5","15.1"
"-121.083","51.709","BUFFALO LAKE","1161104","BC","14.4","7","0.7","29.0","7","1.5","7","0.0","7","NA","40.0","7","NA","0.0","8","","","NA","85.6","0.0"
"-120.082","51.653","CLEARWATER AUTO","1161650","BC","19.7","0","NA","34.0","0","6.7","0","","","NA","42.9","0","NA","","9","","","NA","10.1","63.0"
"-121.685","51.266","CLINTON A","1161662","BC","14.6","8","NA","27.3","8","0.6","5","","","NA","40.7","8","NA","","6","","","NA","78.1","0.0"
"-121.505","51.144","CLINTON RCS","1161663","BC","16.2","0","NA","30.7","0","4.6","0","","","NA","46.7","0","NA","","7","","","NA","60.1","5.6"
"-120.728","51.030","CRISS CREEK","1162177","BC","14.4","2","1.2","28.5","2","1.0","2","0.0","2","NA","61.2","2","NA","0.0","8","","","NA","105.2","0.0"
"-120.183","51.292","DARFIELD","1162265","BC","19.5","0","1.2","34.0","0","8.5","0","0.0","0","NA","45.0","0","108.0","0.0","9","","","NA","12.3","60.1"
"-120.449","50.703","KAMLOOPS A","1163781","BC","22.2","0","NA","35.7","0","11.2","0","0.0","0","NA","20.5","0","NA","","7","","","NA","1.6","133.2"
"-120.442","50.702","KAMLOOPS AUT","1163842","BC","22.3","0","NA","35.6","0","10.9","0","","","NA","18.7","0","NA","","4","","","NA","1.8","134.4"
"-121.217","51.681","100 MILE HOUSE 6NE","1165793","BC","16.4","0","NA","30.0","0","5.0","0","0.0","0","NA","87.0","0","NA","0.0","11","","","NA","56.5","6.0"
"-120.800","50.935","RED LAKE","1166658","BC","16.9","0","2.0","31.0","0","5.5","0","0.0","0","NA","68.4","0","166.0","0.0","8","","","NA","50.9","15.5"
"-119.234","50.686","SALMON ARM A","1166R45","BC","20.0","1","1.5","32.0","1","7.0","1","0.0","1","NA","31.9","1","NA","","8","","","NA","8.5","68.5"
"-119.350","50.545","SILVER CREEK","1167337","BC","19.7","0","1.3","33.5","0","6.0","0","0.0","0","NA","19.2","0","57.0","0.0","4","","","NA","5.9","59.1"
"-119.778","51.576","VAVENBY","1168520","BC","18.7","0","1.2","33.5","0","6.0","0","0.0","0","NA","45.0","0","105.0","0.0","9","","","NA","10.1","32.4"
"-120.172","50.630","KAMLOOPS PRATT ROAD","116C8P0","BC","20.3","5","NA","32.0","5","8.0","5","0.0","5","NA","14.4","5","NA","0.0","5","","","NA","9.2","68.4"
"-119.291","50.703","SALMON ARM CS","116FRMN","BC","20.2","0","0.4","33.6","0","8.3","0","","","NA","15.5","0","NA","","4","","","NA","2.7","71.0"
"-119.472","52.719","CARIBOO LODGE","1171393","BC","14.7","0","1.0","26.0","0","2.0","0","0.0","0","NA","94.0","0","125.0","","10","","","NA","103.5","0.0"
"-116.982","51.299","GOLDEN A","1173210","BC","17.5","0","0.9","31.0","0","6.5","0","0.0","0","NA","27.2","0","60.0","0.0","9","","","NA","30.9","15.8"
"-116.984","51.300","GOLDEN AIRPORT","1173220","BC","17.6","0","NA","32.0","0","6.6","0","","","NA","18.6","0","NA","","6","","","NA","28.2","17.1"
"-118.425","51.630","GOLDSTREAM RIVER","1173242","BC","17.4","1","1.1","30.0","1","7.0","1","0.0","1","NA","73.0","1","NA","0.0","14","","","NA","25.5","8.5"
"-118.585","52.053","MICA DAM","1175122","BC","16.4","9","0.2","29.5","5","6.0","6","0.0","5","NA","64.8","5","NA","0.0","12","","","NA","38.9","3.4"
"-118.183","50.967","REVELSTOKE A","1176745","BC","19.1","5","NA","33.0","5","7.1","5","","","NA","24.1","5","NA","","4","","","NA","10.4","37.7"
"-118.176","50.958","REVELSTOKE AIRPORT AUTO","1176755","BC","19.6","0","NA","33.6","0","8.0","0","","","NA","25.8","0","NA","","4","","","NA","8.5","59.5"
"-116.345","51.443","YOHO PARK","11790J1","BC","12.8","0","NA","25.8","0","-0.3","0","","","NA","58.5","0","NA","","10","","","NA","161.1","0.0"
"-116.541","51.433","YOHO NP EMERALD LAKE","117R00G","BC","","","NA","","","-5.0","2","0.0","2","NA","31.8","2","NA","0.0","10","","","NA","",""
"-116.337","51.356","YOHO NP OHARA LAKE","117R00H","BC","10.4","1","NA","22.0","1","0.5","1","0.0","1","NA","113.0","1","NA","0.0","16","","","NA","227.1","0.0"
"-121.017","56.298","CHARLIE LAKE","11814FR","BC","14.3","6","NA","27.0","6","2.0","6","0.0","6","NA","123.8","6","NA","","14","","","NA","93.5","1.8"
"-121.627","55.687","CHETWYND A","1181508","BC","16.0","0","1.5","28.0","0","3.0","0","0.0","0","NA","160.8","0","313.0","0.0","15","","","NA","71.4","10.2"
"-120.183","55.742","DAWSON CREEK A","1182289","BC","14.8","10","NA","27.0","10","5.0","10","","","NA","110.2","10","NA","","10","","","NA","69.1","1.8"
"-120.740","56.238","FORT ST. JOHN A","1183001","BC","15.9","1","NA","27.2","1","2.0","0","0.0","1","NA","121.9","1","NA","","13","","","NA","73.9","9.5"
"-123.133","55.299","MACKENZIE","1184791","BC","15.5","6","NA","28.1","6","3.1","6","","","NA","78.0","6","NA","","10","","","NA","67.5","5.3"
"-123.138","55.305","MACKENZIE AIRPORT AUTO","1184793","BC","16.3","4","NA","29.0","4","3.4","3","","","NA","71.1","5","NA","","10","","","NA","56.3","10.4"
"-130.031","58.422","DEASE LAKE A","1192341","BC","13.5","14","NA","27.3","14","1.4","13","","","NA","39.4","14","NA","","8","","","NA","76.0","0.0"
"-122.597","58.836","FORT NELSON A","1192946","BC","16.8","1","NA","28.2","1","2.7","0","0.0","0","NA","106.2","0","NA","","10","","","NA","58.2","21.7"
"-122.574","58.841","FORT NELSON","1192948","BC","17.1","0","NA","28.7","0","3.1","0","","","NA","88.5","0","NA","","7","","","NA","56.9","30.3"
"-122.573","58.841","FORT NELSON UA","1192950","BC","17.0","0","NA","28.5","0","3.0","0","0.0","0","NA","100.6","0","NA","0.0","10","","","NA","58.9","26.7"
"-130.025","58.426","DEASE LAKE (AUT)","119BLM0","BC","12.7","0","NA","27.3","0","0.5","0","","","NA","55.0","0","NA","","10","","","NA","165.1","0.0"
"-133.700","59.567","ATLIN","1200560","BC","13.9","0","1.5","25.5","0","5.0","0","0.0","0","NA","51.6","0","151.0","0.0","10","","","NA","127.0","0.0"
"-136.367","59.450","PLEASANT CAMP","1206197","BC","13.4","0","0.1","25.5","0","3.0","0","0.0","0","NA","47.2","0","65.0","0.0","13","","","NA","141.8","0.0"
"-139.040","61.371","BURWASH A","2100181","YT","12.6","1","NA","23.3","1","-1.8","1","","","NA","0.0","1","NA","","0","","","NA","161.4","0.0"
"-139.017","61.367","BURWASH AIRPORT AUTO","2100184","YT","12.4","0","NA","23.4","0","-1.9","0","","","NA","35.1","0","NA","","7","","","NA","173.4","0.0"
"-136.192","62.115","CARMACKS CS","2100301","YT","14.5","0","NA","27.8","0","1.4","0","","","NA","26.1","0","NA","","5","","","NA","108.6","1.3"
"-133.376","62.208","FARO (AUT)","2100518","YT","13.9","1","NA","25.9","0","3.1","1","","","NA","63.6","1","NA","","10","","","NA","126.5","2.1"
"-137.580","60.773","HAINES JUNCTION","2100630","YT","12.9","3","NA","24.6","2","-1.7","2","","","NA","18.8","4","NA","","4","","","NA","142.5","0.1"
"-138.913","69.568","HERSCHEL ISLAND","2100636","YT","7.6","0","NA","18.8","0","1.6","0","","","NA","20.3","0","NA","","5","","","NA","320.9","0.0"
"-140.150","69.164","IVVAVIK NAT. PARK","2100660","YT","10.2","0","NA","26.4","0","-0.4","0","","","NA","44.8","0","NA","","9","","","NA","241.8","0.1"
"-130.037","63.244","MACMILLAN PASS","2100693","YT","9.4","1","NA","21.1","1","-2.7","0","","","NA","37.6","1","NA","","8","","","NA","257.1","0.0"
"-140.848","68.801","MARGARET LAKE","2100697","YT","9.3","0","NA","25.2","0","-3.7","0","","","NA","","","NA","","","","","NA","270.9","0.0"
"-135.868","63.616","MAYO A","2100701","YT","14.4","2","NA","26.0","1","3.9","1","0.0","1","NA","71.8","1","NA","","12","","","NA","106.5","3.2"
"-135.183","60.876","MAYO ROAD","2100709","YT","18.8","30","6.0","25.5","30","12.0","30","0.0","30","NA","0.0","30","NA","","0","","","NA","0.0","0.8"
"-139.839","67.571","OLD CROW RCS","2100805","YT","11.7","0","NA","25.3","0","1.6","0","","","NA","47.4","0","NA","","11","","","NA","195.5","0.0"
"-137.050","61.033","OTTER FALLS NCPC","2100840","YT","13.2","0","2.3","24.0","0","1.5","0","0.0","0","NA","34.7","0","81.0","","11","","","NA","149.8","0.0"
"-137.311","62.830","PELLY RANCH","2100880","YT","14.6","0","1.8","26.5","0","3.0","0","0.0","0","0.0","34.0","0","82.0","","10","","","NA","106.6","1.8"
"-136.218","66.981","ROCK RIVER","2100935","YT","10.6","1","NA","23.5","1","0.3","0","","","NA","130.8","2","NA","","15","","","NA","222.5","0.4"
"-129.132","61.182","HOUR LAKE","2100FCG","YT","12.3","0","NA","25.0","0","-1.0","0","0.0","0","NA","72.8","0","NA","","12","","","NA","176.7","0.0"
"-139.127","64.061","DAWSON","2100LRP","YT","14.1","0","NA","27.2","0","-2.2","0","","","NA","69.9","0","NA","","10","","","NA","124.9","2.7"
"-132.733","60.167","TESLIN (AUT)","2101102","YT","13.5","0","NA","26.2","0","3.1","0","","","NA","46.4","0","NA","","10","","","NA","139.0","0.0"
"-128.832","60.116","WATSON LAKE (AUT)","2101204","YT","14.4","0","NA","27.5","0","4.1","0","","","NA","40.9","0","NA","0.0","6","","","NA","117.1","4.5"
"-135.067","60.709","WHITEHORSE A","2101303","YT","14.4","1","NA","26.2","1","3.2","0","","","NA","","","NA","","","","","NA","111.5","2.7"
"-135.098","60.733","WHITEHORSE AUTO","2101310","YT","14.2","0","NA","26.1","0","3.0","0","","","NA","31.6","0","NA","0.0","8","","","NA","119.2","1.7"
"-126.123","67.021","COLVILLE LAKE","2200824","NT","13.0","6","NA","25.7","6","2.2","2","","","NA","","","NA","","","","","NA","126.1","0.4"
"-123.433","65.209","DELINE CS","2201022","NT","13.9","0","NA","27.4","0","-0.9","0","","","NA","","","NA","","","","","NA","130.9","4.5"
"-124.468","61.257","DEADMEN VALLEY","22010H0","NT","15.2","4","NA","27.4","3","-0.2","2","","","NA","41.7","6","NA","","10","","","NA","86.6","9.9"
"-128.644","66.242","FORT GOOD HOPE CS","2201450","NT","15.7","0","NA","29.0","0","3.3","0","","","NA","22.9","0","NA","","7","","","NA","91.0","18.4"
"-123.467","60.233","FORT LIARD","2201579","NT","16.5","0","NA","28.9","0","1.5","0","","","NA","","","NA","","","","","NA","69.4","22.0"
"-117.602","61.317","FORT PROVIDENCE","2201799","NT","15.4","2","NA","28.1","1","3.0","1","","","NA","","","NA","","","","","NA","81.7","7.0"
"-109.168","62.711","FORT RELIANCE (AUT)","2201903","NT","14.9","1","NA","27.3","1","5.3","0","","","NA","50.1","1","NA","","8","","","NA","99.3","5.8"
"-121.237","61.760","FORT SIMPSON CLIMATE","2202102","NT","16.1","0","NA","28.0","0","0.3","0","","","NA","13.3","0","NA","","7","","","NA","72.9","12.7"
"-121.237","61.760","FORT SIMPSON A","2202103","NT","16.4","1","NA","27.9","0","0.7","1","0.0","2","NA","14.4","0","NA","","7","","","NA","61.1","13.6"
"-111.962","60.020","FORT SMITH A","2202201","NT","15.9","1","NA","29.0","1","4.4","0","0.0","1","NA","53.0","1","NA","","8","","","NA","69.9","8.3"
"-111.929","60.026","FORT SMITH CLIMATE","2202202","NT","15.9","0","NA","29.8","0","5.1","0","","","NA","43.7","0","NA","","6","","","NA","73.0","8.8"
"-105.133","63.600","HANBURY RIVER","2202351","NT","11.3","2","NA","24.1","2","1.4","0","","","NA","19.8","2","NA","","4","","","NA","194.8","0.0"
"-115.783","60.840","HAY RIVER A","2202401","NT","15.6","1","NA","27.8","0","4.8","1","0.0","0","NA","53.2","1","NA","","9","","","NA","79.4","6.2"
"-115.777","60.839","HAY RIVER CLIMATE","2202402","NT","15.8","0","NA","27.4","0","5.6","0","","","NA","93.5","0","NA","","13","","","NA","75.9","8.0"
"-113.726","61.920","INNER WHALEBACKS","2202560","NT","16.1","18","NA","23.8","14","8.8","15","","","NA","0.2","24","NA","","0","","","NA","27.7","3.6"
"-133.517","68.317","INUVIK CLIMATE","2202578","NT","11.0","0","NA","27.7","0","1.4","0","","","NA","37.6","0","NA","","9","","","NA","219.3","3.1"
"-117.245","63.134","LAC LA MARTRE","2202678","NT","14.5","0","NA","28.1","0","-0.7","0","","","NA","","","NA","","","","","NA","115.7","7.3"
"-126.799","65.281","NORMAN WELLS A","2202801","NT","14.6","0","NA","27.5","0","2.0","0","0.0","0","NA","31.2","0","NA","","11","","","NA","110.9","5.8"
"-126.753","65.288","NORMAN WELLS CLIMATE","2202810","NT","14.3","0","NA","28.2","0","-0.3","0","","","NA","25.1","0","NA","","8","","","NA","120.7","6.7"
"-124.083","69.358","PAULATUK","2203058","NT","10.2","1","NA","26.2","1","1.9","0","","","NA","46.8","1","NA","","9","","","NA","237.2","2.0"
"-127.209","61.963","RABBIT KETTLE","2203342","NT","14.3","3","NA","28.6","3","1.7","1","","","NA","","","NA","","","","","NA","105.1","1.0"
"-133.017","69.433","TUKTOYAKTUK","2203914","NT","9.5","0","NA","25.1","0","2.1","0","","","NA","","","NA","","","","","NA","264.8","1.3"
"-122.359","69.199","TUKTUT NOGAIT","2203918","NT","8.3","7","NA","21.6","7","-1.7","6","","","NA","","","NA","","","","","NA","233.1","0.0"
"-114.440","62.463","YELLOWKNIFE A","2204101","NT","15.4","0","NA","26.6","0","4.2","0","0.0","0","NA","28.0","0","NA","","5","","","NA","87.1","6.7"
"-114.383","62.450","YELLOWKNIFE-HENDERSON","2204110","NT","15.4","0","NA","27.5","0","5.5","0","0.0","0","NA","18.6","0","NA","0.0","4","","","NA","89.7","8.6"
"-123.742","61.242","YOHIN","2204300","NT","16.2","6","NA","29.3","4","1.0","4","","","NA","","","NA","","","","","NA","56.2","12.3"
"-130.911","69.604","LIVERPOOL BAY","220B68C","NT","8.6","1","NA","23.4","0","0.9","1","","","NA","","","NA","","","","","NA","283.2","0.0"
"-130.228","67.179","LITTLE CHICAGO","220B6Q3","NT","13.8","1","NA","27.9","1","3.1","0","","","NA","","","NA","","","","","NA","130.9","5.8"
"-110.690","62.416","LUTSELK'E CS","220L002","NT","13.6","0","NA","26.4","0","0.2","0","","","NA","","","NA","","","","","NA","137.8","0.4"
"-122.851","61.125","LINDBURG LANDING","220N003","NT","15.7","1","NA","28.9","1","4.2","0","","","NA","53.1","1","NA","","9","","","NA","76.9","7.9"
"-113.863","63.603","LOWER CARP LAKE","220N004","NT","15.2","3","NA","26.9","2","5.4","2","","","NA","","","NA","","","","","NA","87.1","7.5"
"-133.502","68.746","TRAIL VALLEY","220N005","NT","10.0","2","NA","27.1","1","0.1","1","","","NA","56.6","2","NA","","9","","","NA","234.5","1.5"
"-94.072","61.094","ARVIAT A","2300427","NU","10.5","14","NA","19.0","14","3.4","13","","","NA","42.2","14","NA","","8","","","NA","127.5","0.0"
"-96.000","64.317","BAKER LAKE CLIMATE","2300501","NU","11.2","1","NA","23.4","1","0.8","1","","","NA","72.7","1","NA","","5","","","NA","203.0","0.0"
"-96.078","64.299","BAKER LAKE A","2300503","NU","11.3","0","NA","25.3","0","1.1","0","0.0","0","NA","46.2","0","NA","","6","","","NA","207.1","0.7"
"-108.015","66.838","BATHURST INLET","2300551","NU","11.8","2","NA","27.2","1","3.9","1","","","NA","14.7","5","NA","","3","","","NA","179.9","1.2"
"-115.144","67.817","KUGLUKTUK A","2300903","NU","10.4","0","NA","24.7","0","2.5","0","0.0","0","NA","31.6","0","NA","","8","","","NA","236.4","0.0"
"-115.135","67.817","KUGLUKTUK CLIMATE","2300904","NU","10.4","0","NA","24.9","0","2.4","0","","","NA","24.0","0","NA","","7","","","NA","235.8","0.0"
"-94.067","61.100","ARVIAT A","2300MKF","NU","10.4","5","-0.4","18.8","5","2.6","5","0.0","5","NA","70.6","5","NA","","10","","","NA","198.2","0.0"
"-83.359","64.193","CORAL HARBOUR A","2301002","NU","9.8","1","NA","21.8","1","3.0","0","0.0","1","NA","70.6","0","NA","","12","","","NA","245.7","0.0"
"-83.617","64.333","CORAL HARBOUR RCS","2301010","NU","9.9","2","NA","21.5","2","3.1","0","","","NA","77.5","2","NA","","12","","","NA","235.4","0.0"
"-100.884","61.132","ENNADAI LAKE (AUT)","2301102","NU","12.6","11","NA","24.7","11","3.2","10","","","NA","45.4","11","NA","","6","","","NA","109.7","0.7"
"-94.067","61.100","ARVIAT CLIMATE","2301153","NU","10.8","0","NA","19.5","0","3.2","0","","","NA","74.9","0","NA","","18","","","NA","224.4","0.0"
"-95.850","68.636","GJOA HAVEN A","2302337","NU","7.6","8","NA","17.7","8","-0.2","8","","","NA","1.1","8","NA","","1","","","NA","239.2","0.0"
"-95.850","68.636","GJOA HAVEN CLIMATE","2302340","NU","7.5","0","NA","18.0","0","-0.3","0","","","NA","15.3","0","NA","","4","","","NA","325.2","0.0"
"-100.087","68.318","HAT ISLAND","2302370","NU","6.5","6","NA","20.4","5","-1.1","3","","","NA","","","NA","","","","","NA","286.6","0.0"
"-89.726","68.437","CAM FOUR","2303093","NU","7.1","3","NA","20.7","2","-5.5","1","","","NA","","","NA","","","","","NA","306.0","0.0"
"-89.796","68.538","KUGAARUK CLIMATE","2303094","NU","8.3","0","NA","21.6","0","-1.7","0","","","NA","18.3","0","NA","","4","","","NA","299.8","0.0"
"-92.115","62.811","RANKIN INLET A","2303405","NU","10.2","1","NA","19.9","1","3.4","0","0.0","1","NA","10.1","1","NA","","3","","","NA","235.0","0.0"
"-102.429","65.100","ROBERTSON LAKE (AUT)","2303610","NU","9.9","14","NA","23.5","14","1.5","14","","","NA","2.0","19","NA","","1","","","NA","137.3","0.0"
"-79.260","56.537","SANIKILUAQ","2303668","NU","9.2","3","NA","26.6","2","2.4","1","","","NA","23.4","3","NA","","6","","","NA","249.2","2.4"
"-93.433","68.817","SHEPHERD BAY A","2303685","NU","9.5","24","NA","17.6","24","3.3","21","","","NA","","","NA","","","","","NA","59.5","0.0"
"-119.219","69.276","CROKER RIVER","230J01Q","NU","9.3","1","NA","24.0","0","0.2","1","","","NA","","","NA","","","","","NA","261.9","0.0"
"-111.246","65.755","LUPIN CS","230N002","NU","10.9","7","NA","23.6","6","0.5","3","","","NA","30.3","7","NA","","5","","","NA","171.4","0.0"
"-62.333","82.500","ALERT CLIMATE","2400305","NU","2.3","0","NA","14.8","0","-3.2","0","","","NA","37.3","0","NA","6.0","12","","","NA","485.2","0.0"
"-62.333","82.500","ALERT UA","2400306","NU","","","NA","","","","","38.2","0","NA","38.0","0","NA","6.0","12","","","NA","",""
"-85.012","72.993","ARCTIC BAY CS","2400404","NU","7.8","27","NA","13.0","23","1.5","20","","","NA","0.0","30","NA","","0","","","NA","41.0","0.0"
"-63.789","67.536","FOX FIVE","2400570","NU","7.3","2","NA","19.0","1","-2.4","1","","","NA","","","NA","","","","","NA","308.9","0.0"
"-64.033","67.547","QIKIQTARJUAQ CLIMATE","2400573","NU","5.6","2","NA","17.9","1","-0.4","1","","","NA","5.8","5","NA","","2","","","NA","360.4","0.0"
"-64.032","67.547","QIKIQTARJUAQ A","2400577","NU","5.8","1","NA","18.0","1","-0.2","1","","","NA","0.0","1","NA","","0","","","NA","367.3","0.0"
"-105.137","69.108","CAMBRIDGE BAY A","2400601","NU","8.5","0","NA","19.7","0","0.2","0","0.0","2","NA","16.0","3","NA","","6","","","NA","294.3","0.0"
"-105.138","69.108","CAMBRIDGE BAY GSN","2400602","NU","8.6","11","NA","19.9","6","0.5","10","","","NA","13.4","0","NA","","4","","","NA","188.3","0.0"
"-76.530","64.231","CAPE DORSET CLIMATE","2400636","NU","7.7","0","NA","17.0","0","2.4","0","","","NA","65.4","0","NA","","4","","","NA","319.7","0.0"
"-76.525","64.230","CAPE DORSET A","2400637","NU","8.1","8","NA","17.1","8","2.5","8","","","NA","56.5","8","NA","","4","","","NA","227.9","0.0"
"-66.815","68.473","CAPE HOOPER","2400660","NU","6.6","2","NA","18.5","1","-1.6","1","","","NA","","","NA","","","","","NA","330.3","0.0"
"-107.823","69.036","CAPE PEEL WEST","2400697","NU","9.4","15","NA","20.7","15","0.3","12","","","NA","","","NA","","","","","NA","137.8","0.0"
"-68.517","70.483","CLYDE RIVER CLIMATE","2400802","NU","7.1","0","NA","20.6","0","-1.5","0","","","NA","19.0","0","NA","","5","","","NA","336.8","0.0"
"-68.517","70.486","CLYDE RIVER A","2400804","NU","7.3","5","NA","20.6","5","-1.2","5","","","NA","12.6","5","NA","","3","","","NA","278.8","0.0"
"-63.578","64.958","CAPE MERCY","2400F63","NU","5.7","2","NA","15.8","1","-2.3","1","","","NA","","","NA","","","","","NA","355.7","0.0"
"-85.934","79.989","EUREKA CLIMATE","2401199","NU","3.3","1","NA","9.7","1","-2.0","0","","","NA","0.4","24","NA","","0","","","NA","439.8","0.0"
"-85.812","79.994","EUREKA A","2401203","NU","3.4","0","NA","11.1","0","-2.4","0","3.4","0","NA","24.0","0","NA","","5","","","NA","453.3","0.0"
"-94.198","72.018","FORT ROSS","2402051","NU","5.7","3","NA","15.9","3","0.1","0","","","NA","3.4","4","NA","","1","","","NA","344.6","0.0"
"-100.267","70.633","GATESHEAD ISLAND","2402332","NU","3.3","0","NA","13.4","0","-1.7","0","","","NA","7.6","0","NA","","3","","","NA","456.5","0.0"
"-82.902","76.423","GRISE FIORD CLIMATE","2402351","NU","4.3","0","NA","11.7","0","-0.2","0","","","NA","126.2","1","NA","","10","","","NA","424.3","0.0"
"-81.244","68.776","SANIRAJAK","2402353","NU","7.7","2","NA","22.3","2","1.5","1","","","NA","47.6","2","NA","","9","","","NA","297.8","0.0"
"-81.243","68.776","HALL BEACH A","2402354","NU","8.2","6","NA","22.4","6","1.5","6","","","NA","26.7","6","NA","","6","","","NA","245.8","0.0"
"-68.544","63.747","IQALUIT CLIMATE","2402592","NU","8.8","0","NA","20.4","0","1.4","0","","","NA","56.8","0","NA","","10","","","NA","286.5","0.0"
"-103.554","78.792","ISACHSEN (AUT)","2402604","NU","0.3","5","NA","8.1","4","-5.3","1","","","NA","10.7","7","NA","","3","","","NA","461.4","0.0"
"-65.711","66.143","PANGNIRTUNG","2403049","NU","8.6","1","NA","19.0","1","1.7","0","","","NA","13.4","1","NA","","4","","","NA","283.1","0.0"
"-77.958","72.693","POND INLET CLIMATE","2403204","NU","7.4","0","NA","15.4","0","0.3","0","","","NA","43.8","0","NA","","7","","","NA","327.7","0.0"
"-77.969","72.689","POND INLET A","2403206","NU","7.4","3","NA","14.3","3","0.3","3","","","NA","38.7","3","NA","","6","","","NA","296.8","0.0"
"-105.715","75.377","REA POINT","2403450","NU","2.3","2","NA","15.4","2","-2.7","0","","","NA","14.8","6","NA","","3","","","NA","454.3","0.0"
"-94.969","74.717","RESOLUTE BAY A","2403498","NU","3.2","0","NA","10.9","0","-1.7","0","0.6","1","NA","48.4","0","NA","","10","","","NA","459.5","0.0"
"-94.983","74.716","RESOLUTE CS","2403505","NU","4.2","15","NA","10.9","15","-1.4","3","","","NA","17.9","16","NA","","3","","","NA","221.0","0.0"
"-64.633","61.600","RESOLUTION ISLAND","2403602","NU","6.8","2","NA","17.8","1","-0.9","1","","","NA","","","NA","","","","","NA","323.8","0.0"
"-79.033","69.083","ROWLEY ISLAND","2403625","NU","7.6","1","NA","16.7","0","0.6","1","","","NA","","","NA","","","","","NA","312.6","0.0"
"-105.296","73.766","STEFANSSON ISLAND","2403756","NU","2.3","6","NA","17.0","1","-2.2","5","","","NA","24.8","8","NA","","6","","","NA","393.6","0.0"
"-91.816","81.161","SVARTEVAEG","2403833","NU","0.8","1","NA","8.8","1","-3.9","0","","","NA","27.3","1","NA","","9","","","NA","516.4","0.0"
"-93.577","69.547","TALOYOAK A","2403855","NU","8.6","2","NA","17.6","2","1.2","2","0.0","2","NA","14.4","4","NA","","4","","","NA","273.4","0.0"
"-119.989","74.139","NANGMAGVIK LAKE","2500440","NT","4.4","22","NA","18.5","19","-2.7","21","","","NA","8.8","23","NA","","4","","","NA","122.7","0.0"
"-117.800","70.761","HOLMAN CS","2502505","NT","8.1","0","NA","20.1","0","-0.2","0","","","NA","17.3","0","NA","","6","","","NA","307.7","0.0"
"-125.254","71.993","SACHS HARBOUR CLIMATE","2503648","NT","4.5","0","NA","16.9","0","-3.9","0","","","NA","16.9","0","NA","","6","","","NA","419.1","0.0"
"-119.347","76.238","MOULD BAY CS","250M001","NT","1.7","4","NA","9.2","3","-2.4","2","","","NA","10.4","6","NA","","4","","","NA","440.1","0.0"
"-112.967","54.283","ABEE AGDM","3010010","AB","14.5","5","NA","28.0","3","-1.8","2","","","NA","14.5","5","NA","","5","","","NA","92.3","1.4"
"-111.181","53.113","ALBERT HALL AGCM","3010060","AB","16.2","0","NA","29.9","0","-0.2","0","","","NA","29.5","0","NA","","7","","","NA","65.2","10.4"
"-111.779","52.315","ALLIANCE AGCM","3010162","AB","16.4","28","NA","28.3","15","2.4","27","","","NA","0.0","28","NA","","0","","","NA","7.7","2.8"
"-112.233","54.017","ANDREW","3010234","AB","16.2","10","0.2","30.0","10","2.0","10","0.0","10","NA","36.0","10","NA","","7","","","NA","45.5","8.0"
"-112.279","53.917","ANDREW AGDM","3010237","AB","15.2","1","NA","26.9","1","0.8","0","","","NA","84.5","1","NA","","12","","","NA","84.8","1.1"
"-111.465","52.582","BELLSHILL AGCM","3010650","AB","16.4","13","NA","28.4","9","2.6","9","","","NA","28.1","13","NA","","3","","","NA","32.7","3.9"
"-110.101","52.124","BODO AGDM","3010730","AB","15.9","3","NA","27.3","3","2.4","0","","","NA","67.9","3","NA","","10","","","NA","64.3","4.4"
"-114.441","53.089","BRETON PLOTS","3010816","AB","15.4","0","NA","26.0","0","3.4","0","","","NA","109.5","1","NA","","9","","","NA","82.6","1.1"
"-113.922","53.931","BUSBY AGCM","3010979","AB","15.8","0","NA","27.8","0","-0.3","0","","","NA","116.6","0","NA","","11","","","NA","72.5","4.3"
"-110.510","52.334","CADOGAN AGCM","3010992","AB","16.6","1","NA","30.1","0","3.0","1","","","NA","68.0","1","NA","","8","","","NA","53.9","11.4"
"-113.863","53.290","CALMAR","3011120","AB","","","","20.0","30","11.0","30","0.0","30","NA","10.8","30","NA","","1","","","NA","",""
"-112.817","53.050","CAMROSE","3011240","AB","15.8","0","0.0","29.2","0","3.3","0","","","NA","30.5","3","NA","","6","","","NA","76.6","8.7"
"-114.654","53.234","CARNWOOD","3011350","AB","16.0","4","NA","26.5","4","4.5","4","0.0","4","NA","195.0","4","NA","0.0","16","","","NA","56.8","1.8"
"-110.713","51.937","CONSORT AGDM","3011815","AB","15.7","2","NA","27.2","2","3.8","0","","","NA","84.1","7","NA","","15","","","NA","68.8","3.3"
"-111.449","52.074","CORONATION CLIMATE","3011887","AB","15.5","0","NA","28.5","0","2.6","0","","","NA","81.2","0","NA","","11","","","NA","83.4","4.7"
"-113.903","52.733","CRESTOMERE AGCM","3011892","AB","14.9","6","NA","26.0","6","1.4","1","","","NA","50.0","6","NA","","6","","","NA","77.7","0.7"
"-113.176","52.183","DELBURNE AGCM","3012050","AB","16.2","1","NA","28.7","0","6.1","1","","","NA","127.5","2","NA","","10","","","NA","62.1","8.7"
"-110.588","53.659","DEWBERRY AGCM","3012073","AB","16.2","6","NA","29.4","6","1.6","0","","","NA","58.7","7","NA","","10","","","NA","50.2","5.8"
"-110.433","52.778","EDGERTON AGCM","3012192","AB","16.3","0","NA","28.8","0","2.4","0","","","NA","38.6","1","NA","","8","","","NA","60.8","7.9"
"-113.606","53.307","EDMONTON INTERNATIONAL CS","3012206","AB","15.4","0","NA","27.6","0","0.9","0","","","NA","74.1","0","NA","","10","","","NA","84.7","2.8"
"-113.517","53.573","EDMONTON BLATCHFORD","3012209","AB","17.7","0","NA","27.9","0","5.4","0","","","NA","73.4","0","NA","","9","","","NA","35.7","24.9"
"-113.467","53.667","EDMONTON NAMAO AWOS A","3012212","AB","16.2","1","NA","27.5","1","1.5","0","","","NA","46.5","3","NA","","10","","","NA","60.5","7.1"
"-113.579","53.310","EDMONTON INTL A","3012216","AB","15.4","2","NA","27.5","2","0.7","0","0.0","2","NA","72.5","1","NA","","10","","","NA","78.6","3.9"
"-113.856","53.668","EDMONTON VILLENEUVE A","3012229","AB","16.6","8","NA","26.8","8","2.0","8","","","NA","89.4","8","NA","","9","","","NA","38.5","6.7"
"-114.108","53.548","EDMONTON STONY PLAIN","301222F","AB","16.9","0","0.9","27.0","0","4.8","0","0.0","0","0.0","113.0","0","178.0","0.0","11","","","NA","46.9","11.7"
"-112.868","53.683","ELK ISLAND NAT PARK","3012275","AB","16.8","0","1.1","29.3","0","3.6","0","","","NA","103.8","0","198.0","","10","","","NA","52.3","15.7"
"-111.000","52.967","FABYAN","3012515","AB","15.5","0","-0.4","29.0","0","1.0","0","0.0","0","0.0","34.8","0","57.0","0.0","9","","","NA","82.3","4.4"
"-112.858","52.744","FERINTOSH AGCM","3012590","AB","15.6","4","NA","27.2","4","2.3","1","","","NA","47.5","4","NA","","8","","","NA","67.6","3.1"
"-112.120","52.467","FORESTBURG PLANT SITE","3012652","AB","17.2","0","-0.2","30.0","0","4.0","0","0.0","0","NA","128.4","0","230.0","0.0","11","","","NA","41.8","16.8"
"-112.123","52.548","FORESTBURG AGCM","3012653","AB","15.8","0","NA","29.5","0","1.3","0","","","NA","92.7","0","NA","","11","","","NA","73.6","5.0"
"-113.183","53.717","FORT SASKATCHEWAN","3012710","AB","17.7","9","1.7","28.5","9","4.0","9","0.0","11","NA","48.6","10","NA","","8","","","NA","26.6","19.1"
"-110.621","53.071","GILT EDGE NORTH AGCM","3012790","AB","16.6","3","NA","29.8","2","1.9","1","","","NA","64.3","5","NA","","7","","","NA","49.2","11.1"
"-114.539","53.833","GLENEVIS AGCM","3012818","AB","16.1","3","NA","26.4","3","4.4","0","","","NA","","","NA","","","","","NA","55.3","2.6"
"-112.164","52.116","HALKIRK AGCM","3012999","AB","15.5","0","NA","28.6","0","2.7","0","","","NA","51.2","21","NA","","5","","","NA","82.2","4.8"
"-111.212","51.780","HEMARUKA AGCM","3013140","AB","15.9","0","NA","30.0","0","2.5","0","","","NA","60.8","14","NA","","6","","","NA","73.6","9.9"
"-112.246","53.185","HOLDEN AGDM","3013340","AB","15.2","4","NA","27.5","3","1.2","1","","","NA","38.4","5","NA","","9","","","NA","76.5","2.1"
"-110.784","52.578","HUGHENDEN AGCM","3013362","AB","16.5","4","NA","29.4","1","1.8","3","","","NA","74.7","4","NA","","7","","","NA","49.5","7.7"
"-111.872","52.848","KILLAM AGDM","3013640","AB","14.8","13","NA","28.0","12","0.5","6","","","NA","18.8","13","NA","","7","","","NA","59.0","2.0"
"-111.113","52.290","KESSLER AGCM","3013644","AB","16.2","4","NA","28.7","2","0.3","2","","","NA","34.1","3","NA","","6","","","NA","55.1","5.5"
"-110.416","53.353","KITSCOTY AGCM","3013660","AB","16.3","1","NA","28.2","1","2.4","0","","","NA","73.6","2","NA","","12","","","NA","59.5","8.8"
"-113.474","54.003","LEGAL AGCM","3013790","AB","15.9","6","NA","28.0","3","3.6","3","","","NA","37.8","6","NA","","8","","","NA","55.1","2.5"
"-110.579","53.943","LINDBERGH AGDM","3013921","AB","14.3","5","NA","25.8","4","-1.3","1","","","NA","37.4","6","NA","","8","","","NA","95.7","0.0"
"-110.073","53.309","LLOYDMINSTER","3013959","AB","16.6","12","NA","28.3","12","4.1","11","","","NA","40.1","12","NA","","8","","","NA","33.7","6.8"
"-110.073","53.309","LLOYDMINSTER A","3013961","AB","16.3","0","0.4","28.0","0","2.5","0","0.0","0","0.0","140.6","0","235.0","0.0","11","","","NA","61.5","7.6"
"-112.267","53.083","HOLDEN SOUTH","3013C44","AB","","","NA","","","","","0.0","1","NA","72.2","1","NA","","11","","","NA","",""
"-111.255","53.456","MANNVILLE AGCM","3014195","AB","16.0","0","NA","28.8","0","1.7","0","","","NA","56.7","0","NA","","10","","","NA","69.2","7.3"
"-110.550","52.017","MONITOR","3014600","AB","","","NA","","","","","0.0","0","NA","63.0","0","117.0","0.0","10","","","NA","",""
"-112.300","53.567","MUNDARE AGDM","3014665","AB","15.3","5","NA","26.6","4","1.7","2","","","NA","51.2","6","NA","","11","","","NA","72.1","1.7"
"-111.114","53.720","MYRNAM AGCM","3014690","AB","15.4","10","NA","29.1","8","-1.2","3","","","NA","41.1","10","NA","","5","","","NA","57.0","2.7"
"-113.165","53.262","NEW SAREPTA AGCM","3014795","AB","15.6","3","NA","28.0","2","2.5","2","","","NA","60.0","4","NA","","10","","","NA","71.3","2.8"
"-113.350","53.650","OLIVER AGDM","3014921","AB","15.2","10","NA","26.9","10","1.5","3","","","NA","","","NA","","","","","NA","61.8","3.4"
"-112.879","53.995","RADWAY AGCM","3015346","AB","15.8","0","NA","27.9","0","-0.4","0","","","NA","","","NA","","","","","NA","72.7","4.2"
"-111.726","53.425","RANFURLY AUTO","3015401","AB","16.5","1","NA","30.3","1","2.5","0","","","NA","62.2","1","NA","","11","","","NA","52.0","8.2"
"-110.343","52.587","RIBSTONE SOUTH AGCM","3015480","AB","16.3","3","NA","29.4","3","1.5","0","","","NA","62.6","3","NA","","6","","","NA","54.5","6.5"
"-110.102","53.019","RIVERCOURSE AGCM","3015501","AB","17.0","9","NA","29.1","7","6.9","5","","","NA","70.1","9","NA","","9","","","NA","28.4","7.4"
"-114.912","52.421","ROCKY MTN HOUSE (AUT)","3015523","AB","14.7","0","NA","26.4","0","1.7","0","","","NA","110.7","0","NA","","12","","","NA","102.1","0.0"
"-112.428","52.780","ROSALIND AGCM","3015600","AB","16.1","0","NA","30.3","0","1.8","0","","","NA","43.2","0","NA","","7","","","NA","66.2","7.3"
"-111.453","54.282","ST. LINA AGCM","3015673","AB","15.7","2","NA","27.0","1","2.2","1","","","NA","67.3","5","NA","","11","","","NA","66.7","0.2"
"-111.272","54.011","ST. PAUL AGCM","3015676","AB","15.2","14","NA","25.7","12","0.3","9","","","NA","47.0","15","NA","","6","","","NA","48.0","0.0"
"-110.755","51.590","SEDALIA AGCM","3015797","AB","16.5","0","NA","31.2","0","3.6","0","","","NA","54.4","4","NA","","9","","","NA","59.6","11.7"
"-111.700","52.783","SEDGEWICK TOWN","3015808","AB","17.8","11","1.8","30.0","11","5.0","10","0.0","11","NA","43.0","11","NA","","6","","","NA","13.5","10.0"
"-112.539","53.333","SHONTS AGCM","3015900","AB","15.7","26","NA","27.1","23","1.0","22","","","NA","0.8","27","NA","","0","","","NA","12.7","1.1"
"-112.499","54.278","SMOKY LAKE AGDM","3016022","AB","15.7","0","NA","27.6","0","0.3","0","","","NA","57.6","0","NA","","13","","","NA","76.9","5.7"
"-111.683","51.816","SPONDIN AGCM","3016070","AB","16.5","10","NA","30.5","8","1.9","3","","","NA","34.8","10","NA","","15","","","NA","38.9","7.0"
"-112.596","52.347","STETTLER AGDM","3016124","AB","15.6","1","NA","26.8","1","4.4","0","","","NA","89.7","1","NA","","9","","","NA","76.6","3.8"
"-113.895","53.217","THORSBY AGCM","3016441","AB","15.4","4","NA","27.6","3","3.1","1","","","NA","72.1","6","NA","","6","","","NA","72.4","2.1"
"-114.718","53.439","TOMAHAWK AGDM","3016505","AB","15.7","0","NA","26.2","0","4.2","0","","","NA","173.9","1","NA","","12","","","NA","75.3","2.8"
"-110.081","53.664","TULLIBY LAKE AGCM","3016593","AB","15.9","6","NA","26.6","5","0.6","3","","","NA","31.3","6","NA","","6","","","NA","52.7","1.0"
"-113.033","53.500","UNCAS","3016650","AB","","","NA","","","","","0.0","0","NA","89.6","0","NA","0.0","8","","","NA","",""
"-111.678","53.625","TWO HILLS AGDM","3016655","AB","15.7","3","NA","27.4","3","2.7","0","","","NA","45.8","4","NA","","8","","","NA","69.3","4.1"
"-110.882","53.344","VERMILION AGDM","3016802","AB","15.2","4","NA","27.6","3","0.2","4","","","NA","18.5","6","NA","","6","","","NA","77.7","2.6"
"-111.732","53.182","VIKING AGCM","3016841","AB","16.3","6","NA","29.8","5","2.7","2","","","NA","29.6","6","NA","","9","","","NA","49.1","7.0"
"-111.921","54.130","VILNA AGCM","3016852","AB","15.6","3","NA","27.0","2","0.5","1","","","NA","72.0","3","NA","","15","","","NA","67.9","0.9"
"-115.126","53.144","VIOLET GROVE CS","3016860","AB","15.6","0","NA","26.4","0","5.0","0","","","NA","104.3","0","NA","","13","","","NA","75.4","0.5"
"-112.098","53.505","VEGREVILLE","3016GF0","AB","16.8","1","1.2","30.1","1","1.8","0","","","NA","50.8","1","NA","","13","","","NA","48.9","12.1"
"-113.444","52.980","WETASKIWIN AGCM","3017282","AB","14.8","18","NA","27.2","17","2.6","11","","","NA","27.8","21","NA","","3","","","NA","42.4","1.0"
"-114.108","53.547","EDMONTON STONY PLAIN CS","301A001","AB","16.7","1","NA","26.5","1","5.5","0","","","NA","105.1","1","NA","","9","","","NA","46.8","9.2"
"-110.206","51.670","ESTHER 1","301B460","AB","16.5","0","NA","30.2","0","1.8","0","","","NA","46.0","0","NA","","6","","","NA","58.0","11.1"
"-113.533","53.517","UNIVERSITY OF ALBERTA METABOLIC CENTRE","301FFNJ","AB","16.8","5","0.9","28.0","2","5.0","3","0.0","2","NA","90.2","2","NA","0.0","15","","","NA","46.1","14.4"
"-111.096","52.829","WAINWRIGHT CFB AIRFIELD 21","301S001","AB","16.7","0","NA","29.9","0","1.3","0","","","NA","58.1","0","NA","","7","","","NA","53.5","14.0"
"-110.317","51.066","ACADIA VALLEY","3020035","AB","17.2","0","NA","31.0","0","4.8","0","","","NA","48.1","5","NA","","7","","","NA","44.8","19.1"
"-111.006","50.810","ATLEE AGCM","3020405","AB","17.0","0","NA","32.0","0","6.7","0","","","NA","53.9","0","NA","","8","","","NA","48.9","19.0"
"-113.357","51.379","BEISEKER AGCM","3020610","AB","15.5","0","NA","29.4","0","2.6","0","","","NA","76.7","1","NA","","6","","","NA","80.7","2.6"
"-112.803","51.998","BIG VALLEY AGCM","3020679","AB","16.2","7","NA","28.8","7","6.3","2","","","NA","44.4","7","NA","","9","","","NA","50.7","7.1"
"-112.252","51.775","CRAIGMYLE AGCM","3021912","AB","15.9","2","NA","29.3","1","3.7","1","","","NA","38.4","2","NA","","7","","","NA","65.8","5.6"
"-112.283","51.767","CRAIGMYLE","3021940","AB","16.2","2","0.0","29.0","2","5.0","2","0.0","2","NA","65.0","2","NA","0.0","10","","","NA","58.1","5.1"
"-112.677","51.445","DRUMHELLER EAST","30221LG","AB","17.2","0","NA","31.5","0","5.8","0","","","NA","97.7","0","NA","","8","","","NA","42.7","17.9"
"-114.486","52.310","HESPERO AGCM","3023200","AB","14.8","5","NA","26.0","4","4.1","1","","","NA","121.3","6","NA","","11","","","NA","83.1","0.0"
"-112.500","51.183","HUSSAR AGDM","3023402","AB","15.3","1","NA","28.6","1","5.6","0","","","NA","77.1","1","NA","","6","","","NA","85.3","3.4"
"-113.756","52.449","LACOMBE CDA 2","3023722","AB","15.4","0","NA","28.0","0","2.9","0","","","NA","66.8","0","NA","","13","","","NA","82.2","2.3"
"-114.473","52.553","LEEDALE AGDM","3023740","AB","14.6","15","NA","24.4","11","1.9","10","","","NA","102.1","14","NA","","7","","","NA","54.3","0.0"
"-113.656","51.619","LINDEN AGCM","3023850","AB","14.8","0","NA","28.4","0","2.0","0","","","NA","67.5","1","NA","","9","","","NA","99.2","0.8"
"-112.675","51.660","MORRIN AGDM","3024668","AB","15.2","2","NA","27.8","2","2.8","0","","","NA","70.7","2","NA","","7","","","NA","81.4","1.6"
"-114.085","51.759","OLDS AGDM","3024925","AB","14.6","1","NA","24.7","1","5.0","0","","","NA","87.7","1","NA","","15","","","NA","102.1","0.0"
"-110.350","51.383","OYEN AGDM","3024965","AB","15.6","5","NA","29.9","5","3.6","0","","","NA","86.9","5","NA","","6","","","NA","67.1","4.3"
"-111.705","51.125","POLLOCKVILLE AGDM","3025243","AB","15.9","12","NA","27.7","7","5.6","11","","","NA","82.4","12","NA","","6","","","NA","45.6","5.2"
"-113.600","52.433","PRENTISS","3025297","AB","15.2","2","NA","26.2","2","5.0","0","","","NA","104.5","3","NA","","13","","","NA","83.5","2.2"
"-113.894","52.182","RED DEER REGIONAL A","3025481","AB","","","NA","","","","","0.0","0","NA","113.6","0","NA","0.0","14","","","NA","",""
"-110.091","50.307","SCHULER AGDM","3025768","AB","17.0","2","NA","31.4","2","5.0","0","","","NA","131.8","3","NA","","10","","","NA","48.2","17.9"
"-110.146","51.425","SIBBALD WESTGARD","3025928","AB","16.8","5","NA","29.5","5","3.0","5","0.0","5","NA","82.0","5","NA","0.0","10","","","NA","43.8","11.9"
"-113.206","51.768","THREE HILLS","3026479","AB","15.3","3","NA","29.6","3","3.0","0","","","NA","116.1","5","NA","","8","","","NA","78.9","3.0"
"-114.683","51.778","SUNDRE A","3026KNQ","AB","14.5","0","NA","26.8","0","2.6","0","","","NA","150.0","0","NA","","13","","","NA","108.7","0.0"
"-113.591","51.936","WIMBORNE AGCM","3027582","AB","15.5","3","NA","28.3","2","4.7","1","","","NA","99.9","4","NA","","9","","","NA","73.0","2.4"
"-114.013","50.512","AZURE","3030450","AB","15.2","0","NA","29.9","0","3.6","0","","","NA","18.3","24","NA","","4","","","NA","90.5","5.0"
"-112.300","49.800","BARNWELL AGDM","3030525","AB","17.6","9","NA","33.2","6","4.6","5","","","NA","29.4","9","NA","","7","","","NA","27.6","18.2"
"-113.224","50.026","BARONS AGCM","3030529","AB","16.6","0","NA","34.5","0","2.6","0","","","NA","43.1","0","NA","","9","","","NA","60.9","16.3"
"-112.465","50.893","BASSANO AGCM","3030540","AB","16.4","0","NA","32.1","0","4.1","0","","","NA","57.9","1","NA","","8","","","NA","58.6","8.8"
"-114.152","50.707","BLACK DIAMOND","3030680","AB","14.5","5","NA","29.4","3","3.7","2","","","NA","8.8","29","NA","","1","","","NA","92.6","1.0"
"-113.050","49.567","BLOOD TRIBE AGDM","3030720","AB","16.1","6","NA","30.9","5","1.3","1","","","NA","44.3","12","NA","","4","","","NA","54.2","5.7"
"-111.450","49.734","BOW ISLAND","3030768","AB","18.1","3","NA","33.8","3","6.0","2","","","NA","50.4","5","NA","","6","","","NA","34.2","36.7"
"-111.383","49.867","BOW ISLAND IRRIGATION AGDM","3030772","AB","18.1","0","NA","33.1","0","6.0","0","","","NA","61.6","0","NA","","10","","","NA","35.9","37.8"
"-113.817","49.617","BROCKET AGDM","3030830","AB","16.1","1","NA","29.8","1","3.9","0","","","NA","64.3","1","NA","","7","","","NA","61.5","5.8"
"-111.849","50.555","BROOKS","3030QLP","AB","17.3","0","NA","32.5","0","4.7","0","","","NA","32.8","0","NA","","7","","","NA","43.0","21.7"
"-114.013","51.123","CALGARY INTL A","3031092","AB","16.2","0","NA","27.4","0","6.9","0","0.0","2","NA","83.4","1","NA","","10","","","NA","61.5","5.8"
"-114.000","51.109","CALGARY INT'L CS","3031094","AB","15.9","4","NA","28.0","4","5.8","4","","","NA","55.3","4","NA","","9","","","NA","61.7","4.2"
"-113.286","49.201","CARDSTON","3031322","AB","16.5","0","NA","31.4","0","2.1","0","","","NA","30.8","1","NA","","6","","","NA","59.9","12.6"
"-113.376","49.001","CARWAY","3031402","AB","15.1","2","NA","29.2","1","2.0","1","","","NA","54.0","2","NA","","6","","","NA","87.1","3.8"
"-113.350","50.282","CHAMPION AGDM","3031480","AB","16.3","0","NA","32.4","0","3.5","0","","","NA","47.0","1","NA","","11","","","NA","64.0","10.8"
"-113.639","50.004","CLARESHOLM","3031640","AB","16.2","1","NA","31.2","1","2.9","0","","","NA","61.7","1","NA","","9","","","NA","61.7","6.6"
"-114.222","51.076","COP UPPER","3031875","AB","16.0","0","NA","27.7","0","6.0","0","","","NA","80.0","0","NA","","10","","","NA","71.0","7.8"
"-112.433","50.183","ENCHANT AGDM","3032422","AB","17.4","3","NA","32.6","3","4.5","1","","","NA","48.8","3","NA","","8","","","NA","38.4","20.9"
"-111.054","49.553","ETZIKOM AGCM","3032450","AB","17.7","0","NA","33.6","0","2.9","0","","","NA","86.0","0","NA","","10","","","NA","40.5","32.6"
"-112.033","49.800","FINCASTLE AGDM","3032550","AB","18.0","0","NA","33.6","0","5.8","0","","","NA","52.6","0","NA","","11","","","NA","36.0","34.9"
"-111.486","49.483","FOREMOST AGDM","3032642","AB","17.1","6","NA","32.2","6","5.6","4","","","NA","55.8","9","NA","","8","","","NA","40.9","17.2"
"-113.379","49.786","FORT MACLEOD AGCM","3032683","AB","16.1","0","NA","31.1","0","2.6","0","","","NA","55.7","3","NA","","7","","","NA","65.7","7.1"
"-112.941","50.934","GLEICHEN AGCM","3032801","AB","16.3","0","NA","30.9","0","5.1","0","","","NA","67.6","1","NA","","9","","","NA","63.4","9.2"
"-111.733","49.874","GRASSY LAKE","3032927","AB","17.7","3","NA","33.4","3","4.7","0","","","NA","46.9","3","NA","","9","","","NA","37.2","29.4"
"-112.733","49.900","IRON SPRINGS AGDM","3033498","AB","17.2","3","NA","30.4","2","4.5","1","","","NA","36.9","3","NA","","7","","","NA","41.4","18.2"
"-110.261","49.989","IRVINE AGCM","3033550","AB","18.1","0","NA","33.4","0","6.1","0","","","NA","87.9","1","NA","","12","","","NA","38.1","40.5"
"-112.799","49.630","LETHBRIDGE","3033875","AB","17.6","10","NA","32.9","10","5.1","10","","","NA","30.1","10","NA","","6","","","NA","24.4","16.6"
"-112.768","49.695","LETHBRIDGE CDA","3033890","AB","","","NA","","","","","","","NA","27.4","5","NA","0.0","6","","","NA","",""
"-112.750","49.683","LETHBRIDGE DEMO FARM AGDM","3033897","AB","17.0","3","NA","31.6","3","4.6","0","","","NA","45.7","3","NA","","10","","","NA","43.7","15.8"
"-110.721","50.019","MEDICINE HAT","3034479","AB","18.9","0","NA","33.0","0","6.8","0","","","NA","","","NA","","","","","NA","26.5","53.3"
"-110.717","50.025","MEDICINE HAT RCS","3034485","AB","18.6","1","NA","32.9","1","7.2","0","","","NA","73.4","1","NA","","7","","","NA","26.7","44.2"
"-113.349","50.673","MOSSLEIGH AGCM","3034577","AB","15.9","1","NA","31.5","1","2.6","0","","","NA","55.0","1","NA","","10","","","NA","70.5","6.7"
"-114.099","51.369","NIER AGDM","3034795","AB","13.3","14","NA","25.2","14","3.2","7","","","NA","77.5","14","NA","","7","","","NA","79.2","0.0"
"-113.997","49.521","PINCHER CREEK","3035198","AB","15.7","6","NA","29.8","6","1.6","6","","","NA","39.1","6","NA","","5","","","NA","64.8","6.2"
"-114.005","49.522","PINCHER CREEK CLIMATE","3035208","AB","15.4","0","NA","29.5","0","1.4","0","","","NA","64.8","0","NA","","8","","","NA","86.0","5.6"
"-112.983","50.606","QUEENSTOWN","3035340","AB","16.0","0","-1.1","31.5","0","5.0","0","0.0","0","0.0","92.0","0","188.0","0.0","15","","","NA","67.2","6.1"
"-112.803","50.598","QUEENSTOWN","3035342","AB","16.1","12","NA","28.5","10","4.7","10","","","NA","49.0","13","NA","","9","","","NA","41.9","5.9"
"-112.683","49.483","RAYMOND AGDM","3035422","AB","16.9","6","NA","31.3","6","3.5","0","","","NA","38.1","6","NA","","6","","","NA","43.6","15.7"
"-111.701","50.265","ROLLING HILLS AGCM","3035530","AB","17.5","0","NA","33.7","0","3.0","0","","","NA","24.9","0","NA","","9","","","NA","43.1","28.6"
"-112.050","50.833","ROSEMARY AGDM","3035650","AB","16.7","0","NA","31.8","0","3.9","0","","","NA","42.5","1","NA","","10","","","NA","53.4","12.2"
"-110.917","49.917","SEVEN PERSONS AGDM","3035845","AB","17.9","0","NA","32.7","0","5.0","0","","","NA","81.4","0","NA","","9","","","NA","34.1","32.3"
"-112.982","51.228","STANDARD AGCM","3036086","AB","16.7","1","NA","30.0","1","6.3","0","","","NA","79.4","5","NA","","7","","","NA","52.2","12.1"
"-113.883","50.183","STAVELY AAFC","3036099","AB","15.3","0","NA","28.1","0","6.2","0","","","NA","87.6","0","NA","","13","","","NA","94.6","10.4"
"-113.283","51.033","STRATHMORE AGDM","3036205","AB","16.1","0","NA","29.8","0","0.0","0","","","NA","61.9","7","NA","","7","","","NA","67.2","8.1"
"-112.124","49.792","TABER","3036360","AB","17.0","19","NA","32.5","12","6.0","13","0.0","12","NA","56.0","12","NA","","9","","","NA","23.1","10.6"
"-112.863","50.304","TRAVERS AGCM","3036500","AB","17.0","0","NA","31.9","0","6.0","0","","","NA","44.5","0","NA","","13","","","NA","47.7","18.0"
"-112.133","50.050","VAUXHALL CDA CS","3036682","AB","17.6","1","NA","32.8","1","5.2","0","","","NA","55.5","1","NA","","10","","","NA","40.3","28.4"
"-112.117","49.500","WRENTHAM AGDM","3037675","AB","16.9","13","NA","32.5","13","4.8","3","","","NA","33.0","13","NA","","7","","","NA","33.1","13.9"
"-113.961","50.729","OKOTOKS","303M9JM","AB","16.5","0","0.3","31.0","0","5.0","0","0.0","0","0.0","56.2","0","91.0","0.0","12","","","NA","56.2","10.5"
"-112.788","49.871","PICTURE BUTTE WEST","303N1G3","AB","17.4","0","NA","33.5","0","1.0","0","0.0","0","NA","67.6","0","NA","0.0","11","","","NA","46.8","29.5"
"-112.817","49.050","DEL BONITA AGDM","3042045","AB","15.3","1","NA","29.6","1","2.9","0","","","NA","33.8","1","NA","","6","","","NA","84.5","4.6"
"-110.678","49.364","MANYBERRIES AGCM","3044203","AB","17.4","0","NA","32.4","0","2.9","0","","","NA","75.9","7","NA","","8","","","NA","51.1","32.5"
"-111.652","49.137","MASINASIN AGDM","3044232","AB","17.8","5","NA","32.7","4","5.7","1","","","NA","28.8","4","NA","","5","","","NA","34.8","30.6"
"-112.050","49.133","MILK RIVER","3044533","AB","17.1","0","NA","33.3","0","3.5","0","","","NA","26.7","0","NA","","4","","","NA","52.5","23.6"
"-110.467","49.117","ONEFOUR CDA","3044923","AB","18.4","0","NA","33.3","0","4.1","0","","","NA","33.6","0","NA","","6","","","NA","37.2","48.3"
"-111.126","49.225","PAKOWKI LAKE AGCM","3045000","AB","17.9","0","NA","33.1","0","5.7","0","","","NA","64.9","13","NA","","7","","","NA","39.2","37.1"
"-115.552","51.193","BANFF CS","3050519","AB","14.2","0","NA","28.3","0","1.4","0","","","NA","34.0","0","NA","","7","","","NA","118.5","0.0"
"-114.175","49.468","BEAVER MINES","3050602","AB","15.2","0","NA","28.6","0","2.3","0","","","NA","65.7","0","NA","","8","","","NA","90.7","4.4"
"-115.067","51.083","BOW VALLEY","3050778","AB","14.2","1","NA","29.5","0","0.1","1","","","NA","39.1","1","NA","","9","","","NA","115.5","0.8"
"-114.482","49.628","CROWSNEST","3051R4R","AB","13.9","0","NA","29.1","0","0.2","0","","","NA","52.6","1","NA","","8","","","NA","127.7","0.0"
"-118.030","52.926","JASPER WARDEN","3053536","AB","15.4","0","NA","28.9","0","1.8","0","","","NA","66.3","0","NA","","12","","","NA","82.3","0.5"
"-115.035","51.028","KANANASKIS","3053600","AB","14.1","0","0.3","28.0","0","2.5","0","0.0","0","0.0","52.8","0","75.0","0.0","11","","","NA","121.2","1.5"
"-115.120","50.713","KANANASKIS POCATERRA","3053604","AB","12.0","28","0.4","26.0","22","-1.0","22","0.0","22","NA","1.8","22","NA","","1","","","NA","18.0","0.0"
"-116.040","52.492","NORDEGG CS","3054843","AB","13.7","0","NA","26.1","0","0.6","0","","","NA","88.6","0","NA","","14","","","NA","132.6","0.0"
"-114.416","50.368","PEKISKO","3055119","AB","13.3","1","NA","27.9","1","2.1","0","","","NA","30.1","1","NA","","10","","","NA","142.0","0.0"
"-113.809","49.131","WATERTON PARK GATE","3056214","AB","15.1","1","NA","29.5","0","0.8","1","","","NA","84.6","0","NA","","5","","","NA","90.3","4.2"
"-115.190","50.943","NAKISKA RIDGETOP","305MGFF","AB","9.1","3","NA","18.3","2","1.7","2","","","NA","","","NA","","","","","NA","249.6","0.0"
"-113.382","54.635","ATHABASCA AGCM","3060330","AB","16.1","1","NA","27.3","1","1.0","0","","","NA","82.5","0","NA","","12","","","NA","62.1","4.4"
"-112.825","54.782","ATMORE AGDM","3060406","AB","15.0","1","NA","28.3","1","-1.5","0","","","NA","45.2","1","NA","","9","","","NA","90.5","0.5"
"-114.448","54.095","BARRHEAD CS","3060535","AB","16.1","0","NA","26.9","0","3.3","0","","","NA","160.6","0","NA","","10","","","NA","64.3","4.0"
"-117.867","53.350","BRULE BLACK CAT","3060903","AB","14.4","11","1.1","27.0","6","1.5","7","0.0","6","NA","86.0","6","NA","0.0","17","","","NA","73.0","0.5"
"-114.678","54.131","CAMPSIE AUTO","3061201","AB","15.6","0","NA","27.4","0","1.5","0","","","NA","107.0","0","NA","","9","","","NA","75.8","1.8"
"-113.950","54.317","DAPP AGDM","3061975","AB","14.3","6","NA","26.4","5","-0.8","1","","","NA","111.0","7","NA","","9","","","NA","92.1","0.0"
"-116.465","53.579","EDSON","3062239","AB","15.0","5","NA","26.1","5","2.1","5","","","NA","109.1","5","NA","","11","","","NA","77.6","0.7"
"-116.453","53.580","EDSON CLIMATE","3062246","AB","15.2","0","NA","26.3","0","2.8","0","","","NA","121.2","0","NA","","12","","","NA","87.0","1.1"
"-114.983","53.600","ENTWISTLE","3062451","AB","16.4","13","1.0","27.5","13","5.0","13","0.0","13","NA","155.2","13","NA","","10","","","NA","35.8","6.9"
"-115.062","53.614","EVANSBURG2 AGCM","3062476","AB","14.9","0","NA","26.4","0","-0.7","0","","","NA","139.4","0","NA","","13","","","NA","96.7","1.7"
"-114.769","54.410","FORT ASSINIBOINE AGCM","3062660","AB","15.3","5","NA","26.5","5","2.3","1","","","NA","121.9","5","NA","","9","","","NA","70.8","0.7"
"-111.213","56.651","FORT MCMURRAY CS","3062696","AB","16.6","0","NA","27.7","0","3.4","0","","","NA","59.8","0","NA","","5","","","NA","60.2","16.1"
"-111.223","56.653","FORT MCMURRAY A","3062697","AB","16.2","12","NA","27.0","12","3.5","12","","","NA","59.1","12","NA","","5","","","NA","43.6","10.1"
"-118.447","53.795","HENDRICKSON CREEK","3063135","AB","11.2","2","NA","24.1","2","-1.8","1","","","NA","116.7","2","NA","","16","","","NA","198.1","0.0"
"-116.479","55.396","HIGH PRAIRIE AGDM","3063165","AB","15.7","0","NA","26.5","0","3.3","0","","","NA","61.6","0","NA","","11","","","NA","72.3","1.6"
"-113.543","54.821","ISLAND LAKE SOUTH","3063600","AB","15.9","0","NA","26.9","0","1.6","0","","","NA","90.8","0","NA","","8","","","NA","67.6","1.3"
"-112.024","54.769","LAC LA BICHE CLIMATE","3063686","AB","16.1","0","NA","26.7","0","0.3","0","","","NA","67.2","0","NA","","9","","","NA","62.1","4.7"
"-111.559","57.041","MILDRED LAKE","3064528","AB","17.4","0","NA","29.0","0","5.8","0","","","NA","47.8","0","NA","","6","","","NA","42.8","25.6"
"-111.700","54.500","RICH LAKE AGDM","3065475","AB","14.8","0","NA","27.1","0","-1.1","0","","","NA","50.6","0","NA","","10","","","NA","98.5","0.4"
"-114.777","55.293","SLAVE LAKE","3065995","AB","16.3","9","NA","25.6","9","4.9","9","","","NA","88.0","9","NA","","8","","","NA","38.8","1.6"
"-114.777","55.293","SLAVE LAKE RCS","3065997","AB","15.9","1","NA","25.4","1","3.2","0","","","NA","96.1","1","NA","","10","","","NA","65.4","1.4"
"-113.520","54.300","TAWATINAW AGCM","3066367","AB","15.7","6","NA","27.2","5","2.9","1","","","NA","153.4","6","NA","","8","","","NA","60.5","3.3"
"-115.787","54.144","WHITECOURT A","3067373","AB","","","NA","26.3","1","","","","","NA","","","NA","","","","","NA","",""
"-118.348","53.386","WILLOW CREEK 1","306GE70","AB","12.3","3","NA","25.2","1","-2.1","2","","","NA","38.6","3","NA","","9","","","NA","159.0","0.0"
"-119.396","55.197","BEAVERLODGE RCS","3070600","AB","14.8","2","NA","25.6","2","5.5","0","","","NA","127.0","2","NA","","11","","","NA","93.5","0.0"
"-117.886","56.118","BROWNVALE AGCM","3070800","AB","15.9","8","NA","26.2","5","5.6","3","","","NA","29.9","8","NA","","6","","","NA","49.0","0.3"
"-117.887","55.808","EAGLESHAM AGCM","3072151","AB","16.0","0","NA","27.3","0","5.9","0","","","NA","78.7","0","NA","","9","","","NA","62.2","1.6"
"-110.439","58.981","EGG ISLAND","3072246","AB","17.9","6","NA","27.3","4","8.4","4","","","NA","","","NA","","","","","NA","27.1","24.3"
"-118.439","56.081","FAIRVIEW AGDM","3072525","AB","11.6","25","NA","18.9","25","4.6","25","","","NA","92.1","13","NA","","5","","","NA","38.4","0.0"
"-111.117","58.767","FORT CHIPEWYAN","3072655","AB","15.6","2","NA","28.8","2","1.0","2","","","NA","0.0","2","NA","","0","","","NA","78.1","7.4"
"-111.117","58.767","FORT CHIPEWYAN RCS","3072659","AB","15.8","0","NA","28.9","0","0.7","0","","","NA","","","NA","","","","","NA","78.2","8.7"
"-116.040","58.382","FORT VERMILION","3072723","AB","16.5","0","NA","29.5","0","1.5","0","","","NA","23.2","0","NA","","4","","","NA","61.6","14.3"
"-118.885","55.180","GRANDE PRAIRIE A","3072921","AB","16.1","0","NA","26.9","0","6.7","0","0.0","1","NA","137.4","0","NA","","14","","","NA","65.5","7.6"
"-117.298","57.265","HAWK HILLS AGCM","3073071","AB","15.9","0","NA","28.2","0","0.2","0","","","NA","65.2","0","NA","","10","","","NA","73.1","7.1"
"-117.165","58.622","HIGH LEVEL","3073140","AB","16.1","11","NA","27.0","11","6.6","11","","","NA","49.0","11","NA","","7","","","NA","40.0","2.9"
"-117.165","58.621","HIGH LEVEL A","3073146","AB","16.0","0","1.6","28.0","0","-1.0","0","0.0","0","0.0","60.2","0","139.0","0.0","10","","","NA","67.2","5.7"
"-117.120","55.913","JEAN COTE AGCM","3073535","AB","15.7","0","NA","26.0","0","3.1","0","","","NA","71.2","0","NA","","9","","","NA","72.5","0.9"
"-116.343","58.172","LA CRETE AGCM","3073730","AB","16.5","0","NA","29.0","0","1.2","0","","","NA","23.5","0","NA","","6","","","NA","55.8","10.8"
"-119.255","55.422","LA GLACE AGCM","3073740","AB","15.1","29","NA","26.3","22","5.4","14","","","NA","","","NA","","","","","NA","6.2","0.3"
"-117.644","56.951","MANNING","3074182","AB","16.6","19","1.8","29.0","19","3.5","19","0.0","19","NA","21.6","19","NA","","5","","","NA","19.6","2.3"
"-117.451","56.974","MANNING AGDM","3074190","AB","15.5","6","NA","27.1","4","1.4","3","","","NA","","","NA","","","","","NA","65.1","1.6"
"-119.745","56.314","CLEARDALE AGDM","3074935","AB","14.9","6","NA","26.6","4","4.2","4","","","NA","84.8","6","NA","","6","","","NA","78.1","0.7"
"-117.448","56.227","PEACE RIVER A","3075041","AB","15.7","0","NA","27.0","0","3.2","0","0.0","0","NA","110.8","0","NA","","9","","","NA","71.8","1.4"
"-118.293","55.621","PEORIA AGDM","3075160","AB","15.1","6","NA","26.4","4","5.8","3","","","NA","74.0","8","NA","","9","","","NA","74.1","0.6"
"-115.278","56.552","RED EARTH","3075488","AB","15.4","2","NA","27.3","1","-0.7","1","","","NA","65.7","2","NA","","18","","","NA","77.0","1.4"
"-118.668","55.777","RYCROFT AGCM","3075601","AB","15.6","7","NA","27.4","7","6.1","1","","","NA","53.8","7","NA","","8","","","NA","59.9","1.8"
"-119.345","56.076","SAVANNA AGCM","3075770","AB","15.5","3","NA","26.7","3","5.3","1","","","NA","69.6","3","NA","","9","","","NA","74.5","3.6"
"-117.741","54.425","SIMONETTE","3075937","AB","15.6","15","1.4","26.0","8","5.0","8","0.0","8","NA","120.8","8","NA","0.0","15","","","NA","40.5","2.5"
"-119.230","55.695","SPIRIT RIVER AUTO STATION","3076069","AB","14.3","3","NA","23.8","2","3.4","2","","","NA","121.1","5","NA","","14","","","NA","105.3","1.0"
"-118.408","55.352","TEEPEE CREEK AGCM","3076366","AB","15.9","6","NA","26.8","5","5.3","2","","","NA","63.2","7","NA","","10","","","NA","53.5","0.4"
"-117.199","55.098","VALLEYVIEW AGDM","3076680","AB","16.2","5","NA","26.3","5","6.4","0","","","NA","74.6","5","NA","","9","","","NA","48.7","3.1"
"-113.866","58.711","GARDEN RIVER","307KPFP","AB","16.6","0","NA","33.8","0","0.8","0","","","NA","44.8","0","NA","","8","","","NA","55.8","11.7"
"-110.283","54.417","COLD LAKE A","3081680","AB","17.0","0","0.9","30.8","0","2.1","0","0.0","0","0.0","69.2","0","122.0","0.0","9","","","NA","46.8","16.4"
"-110.868","54.367","DUPRE AGCM","3081690","AB","16.0","0","NA","29.8","0","0.6","0","","","NA","93.1","0","NA","","10","","","NA","66.9","5.2"
"-104.710","50.201","BRATT'S LAKE CLIMATE","4010811","SK","17.3","0","NA","32.4","0","3.5","0","","","NA","40.0","0","NA","","5","","","NA","41.5","20.8"
"-102.571","50.368","BROADVIEW","4010879","SK","17.1","0","0.2","33.5","0","3.3","0","","","NA","19.6","0","31.0","","7","","","NA","46.2","18.2"
"-105.383","50.550","BUFFALO POUND LAKE","4010984","SK","17.8","0","NA","31.0","0","5.0","0","0.0","0","NA","61.2","0","NA","0.0","12","","","NA","34.1","29.1"
"-104.267","50.850","CUPAR","4011980","SK","16.5","4","-0.8","31.0","2","3.0","2","0.0","2","NA","59.8","2","NA","0.0","9","","","NA","49.4","10.1"
"-102.966","49.210","ESTEVAN A","4012401","SK","19.4","0","NA","35.5","0","5.8","0","0.0","0","NA","10.2","1","NA","","2","","","NA","15.1","58.1"
"-102.967","49.217","ESTEVAN","4012410","SK","19.0","0","NA","34.5","0","5.9","0","","","NA","8.2","0","NA","","2","","","NA","18.7","50.2"
"-103.650","50.550","INDIAN HEAD CDA","4013480","SK","16.9","0","-0.6","35.6","0","3.2","0","","","NA","21.9","0","43.0","","6","","","NA","48.1","12.7"
"-103.753","51.257","KELLIHER","4013660","SK","17.4","0","0.4","31.0","0","7.5","0","0.0","0","NA","73.0","0","111.0","0.0","8","","","NA","38.6","19.9"
"-102.733","50.200","KIPLING","4014040","SK","17.5","0","0.4","32.0","0","7.5","0","0.0","0","NA","39.2","0","65.0","0.0","9","","","NA","39.0","22.9"
"-101.717","50.900","LANGENBURG","4014145","SK","17.0","2","0.2","30.5","2","4.0","2","0.0","2","NA","61.0","2","NA","0.0","8","","","NA","42.0","13.4"
"-105.250","51.417","LAST MOUNTAIN CS","4014156","SK","16.8","1","-0.8","29.8","1","3.0","0","","","NA","33.0","1","NA","","6","","","NA","48.1","10.6"
"-104.633","52.000","LEROY","4014322","SK","16.7","0","-0.5","28.0","0","5.0","0","0.0","0","NA","73.8","0","118.0","0.0","11","","","NA","52.5","11.6"
"-103.889","51.152","LIPTON 2","4014481","SK","17.3","2","0.4","31.5","2","7.0","2","0.0","2","NA","98.8","2","NA","0.0","11","","","NA","37.6","16.4"
"-103.233","49.233","MACOUN","4014870","SK","","","NA","","","","","0.0","29","NA","6.4","29","NA","","2","","","NA","",""
"-105.538","50.332","MOOSE JAW CS","4015322","SK","16.7","0","NA","30.5","0","3.7","0","","","NA","64.1","0","NA","","6","","","NA","51.6","10.8"
"-105.000","52.333","MUENSTER","4015440","SK","17.5","14","0.5","27.5","14","7.5","14","0.0","14","NA","37.6","14","NA","0.0","5","","","NA","16.9","8.1"
"-102.117","49.317","OXBOW","4015800","SK","18.6","1","NA","35.0","1","5.0","1","0.0","1","NA","31.0","1","NA","","10","","","NA","21.6","39.6"
"-103.265","51.403","PARKERVIEW","4015870","SK","16.7","3","0.1","29.0","3","5.0","3","0.0","3","NA","77.5","3","NA","0.0","11","","","NA","48.7","13.5"
"-103.983","50.567","QU'APPELLE 1","4016322","SK","17.7","0","0.0","34.0","0","6.0","0","0.0","0","NA","63.8","0","110.0","0.0","10","","","NA","36.4","26.1"
"-104.833","50.567","REGINA GILMOUR","4016651","SK","","","NA","","","","","0.0","7","NA","63.8","7","NA","","11","","","NA","",""
"-104.667","50.433","REGINA RCS","4016699","SK","17.4","1","NA","31.8","1","1.7","0","","","NA","58.3","1","NA","","6","","","NA","44.2","25.5"
"-105.400","51.667","WATROUS EAST","4018642","SK","16.5","0","NA","28.9","0","4.4","0","","","NA","46.9","0","NA","","6","","","NA","55.5","9.7"
"-104.183","49.817","YELLOW GRASS","4019040","SK","19.3","0","0.8","35.5","0","5.0","0","0.0","0","NA","51.0","0","120.0","0.0","9","","","NA","16.8","58.6"
"-102.464","51.265","YORKTON","4019073","SK","17.0","0","NA","30.1","0","5.9","0","","","NA","59.1","0","NA","","8","","","NA","46.7","16.8"
"-102.462","51.265","YORKTON","4019075","SK","16.9","8","NA","30.3","8","6.4","8","","","NA","67.8","8","NA","","8","","","NA","38.7","13.3"
"-104.200","51.767","WYNYARD (AUT)","40190LN","SK","16.6","0","NA","28.3","0","6.4","0","","","NA","88.0","0","NA","","7","","","NA","55.3","11.9"
"-103.800","49.700","WEYBURN","401HP5R","SK","18.8","0","NA","36.3","0","4.5","0","","","NA","11.6","0","NA","","6","","","NA","22.2","46.7"
"-106.848","51.289","CUTBANK","401JR89","SK","","","NA","","","","","","","NA","52.4","22","NA","","8","","","NA","",""
"-105.946","49.729","ASSINIBOIA AIRPORT","4020286","SK","17.4","0","NA","32.4","0","3.4","0","","","NA","60.9","0","NA","","6","","","NA","43.9","26.6"
"-107.311","50.832","BEECHY","4020560","SK","17.0","0","-1.4","31.0","0","1.0","0","0.0","0","NA","45.6","0","112.0","0.0","14","","","NA","46.7","16.7"
"-106.583","51.133","ELBOW CS","4022359","SK","16.9","5","NA","29.0","4","4.1","5","","","NA","59.7","1","NA","","9","","","NA","39.7","12.1"
"-107.150","50.950","LUCKY LAKE","4024714","SK","16.7","0","NA","30.5","0","2.9","0","","","NA","63.8","0","NA","","9","","","NA","56.2","14.4"
"-109.466","49.903","MAPLE CREEK","4024919","SK","17.6","1","NA","32.0","1","2.8","0","","","NA","98.2","1","NA","","9","","","NA","42.3","29.6"
"-107.263","51.154","ROCK POINT","4026847","SK","17.2","0","-1.0","29.5","0","4.5","0","0.0","0","NA","85.0","0","228.0","0.0","14","","","NA","44.4","20.5"
"-107.800","50.600","STEWART VALLEY","4027775","SK","16.5","28","-1.5","27.0","28","10.0","28","0.0","28","NA","45.8","28","NA","","2","","","NA","5.0","0.5"
"-107.691","50.292","SWIFT CURRENT","4028038","SK","16.7","7","NA","30.8","7","3.9","7","","","NA","41.5","7","NA","","6","","","NA","46.4","15.4"
"-107.733","50.267","SWIFT CURRENT CDA","4028060","SK","16.7","0","-1.4","30.5","0","4.1","0","","","NA","45.9","0","110.0","","6","","","NA","55.0","15.4"
"-109.501","50.909","LEADER AIRPORT","402DAF0","SK","17.3","1","NA","30.6","1","5.6","0","","","NA","111.2","1","NA","","8","","","NA","41.0","20.9"
"-105.483","49.050","CORONACH SPC","40318MN","SK","17.7","0","-0.8","35.6","0","1.1","0","","","NA","19.4","0","62.0","","3","","","NA","41.4","31.1"
"-109.514","49.641","CYPRESS HILLS PARK","4031999","SK","15.7","1","NA","28.1","1","4.4","0","","","NA","67.6","1","NA","","7","","","NA","83.2","13.7"
"-108.989","49.438","EASTEND CYPRESS (AUT)","4032322","SK","16.9","1","NA","30.6","1","5.3","0","","","NA","34.2","1","NA","","6","","","NA","60.4","26.9"
"-107.024","49.099","MANKOTA","4034910","SK","17.5","2","-0.9","34.2","1","2.1","1","","","NA","26.5","2","NA","","6","","","NA","40.6","27.0"
"-105.979","49.168","ROCKGLEN (AUT)","4036844","SK","17.6","0","NA","33.4","0","5.7","0","","","NA","54.7","0","NA","","5","","","NA","43.7","31.2"
"-108.383","49.000","TREELON","4038116","SK","16.4","23","-2.3","30.0","23","5.0","23","0.0","23","NA","4.0","23","NA","","2","","","NA","15.2","2.5"
"-107.586","49.058","VAL MARIE SOUTHEAST","4038412","SK","17.3","0","NA","33.6","0","1.9","0","","","NA","7.0","0","NA","","2","","","NA","47.0","25.7"
"-108.407","51.294","BICKLEIGH","4040587","SK","16.9","0","-1.6","29.5","0","4.0","0","0.0","0","NA","226.2","0","540.0","0.0","12","","","NA","49.1","15.2"
"-109.200","53.450","BUTTE ST PIERRE","4041000","SK","15.4","0","-0.2","29.0","0","-1.5","0","0.0","0","0.0","57.4","0","114.0","0.0","12","","","NA","82.7","2.4"
"-109.181","51.515","KINDERSLEY A","4043901","SK","16.8","2","NA","29.2","1","4.2","1","0.0","0","NA","132.2","0","NA","","10","","","NA","45.3","11.7"
"-108.256","52.772","NORTH BATTLEFORD RCS","4045607","SK","16.2","1","NA","26.9","1","0.5","0","","","NA","58.8","1","NA","","11","","","NA","60.0","7.0"
"-108.244","52.769","NORTH BATTLEFORD","4045695","SK","17.4","28","NA","24.6","27","9.4","28","","","NA","9.6","28","NA","","1","","","NA","2.8","0.9"
"-107.917","51.567","ROSETOWN EAST","4046884","SK","16.7","2","NA","29.1","2","2.5","0","","","NA","102.5","2","NA","","7","","","NA","48.3","10.6"
"-108.835","52.360","SCOTT CDA","4047240","SK","16.1","0","-0.4","28.2","0","1.9","0","","","NA","98.2","0","215.0","","12","","","NA","66.5","7.3"
"-107.767","52.317","SONNINGDALE","4047644","SK","16.1","10","NA","28.0","9","6.5","10","0.0","9","NA","63.4","9","NA","0.0","9","","","NA","46.7","6.5"
"-109.405","53.131","WASECA RCS","4048521","SK","16.2","0","NA","27.9","0","3.3","0","","","NA","87.3","0","NA","","14","","","NA","62.0","7.0"
"-105.783","52.850","HOEY","4053264","SK","","","NA","","","","","0.0","28","NA","33.0","28","NA","","3","","","NA","",""
"-104.600","52.817","MELFORT","4055079","SK","16.3","0","NA","27.8","0","4.6","0","","","NA","80.8","0","NA","","9","","","NA","60.0","8.3"
"-107.050","51.483","OUTLOOK PFRA","4055736","SK","16.9","0","-1.0","29.2","0","3.6","0","","","NA","69.9","0","163.0","","9","","","NA","46.8","14.0"
"-105.150","52.417","PILGER","4056121","SK","15.9","1","NA","27.3","1","5.2","0","","","NA","60.6","1","NA","","9","","","NA","67.1","4.5"
"-105.673","53.214","PRINCE ALBERT A","4056241","SK","16.5","0","NA","28.5","0","2.2","0","0.0","1","NA","78.8","0","NA","","9","","","NA","56.3","9.8"
"-106.719","52.174","SASKATOON RCS","4057165","SK","16.9","0","NA","29.0","0","1.8","0","","","NA","70.2","0","NA","","10","","","NA","50.4","16.7"
"-106.600","52.150","SASKATOON SRC","4057180","SK","","","","","","12.5","30","","","NA","","","NA","","","","","NA","",""
"-108.421","55.841","BUFFALO NARROWS (AUT)","4060983","SK","16.9","0","NA","29.0","0","5.0","0","","","NA","63.7","0","NA","","5","","","NA","49.6","14.7"
"-104.483","58.083","CIGAR LAKE","4061570","SK","13.6","0","-0.1","27.0","0","0.0","0","0.0","0","NA","48.6","0","63.0","0.0","11","","","NA","136.5","0.0"
"-103.678","58.229","COLLINS BAY SK","4061620","SK","13.2","0","NA","26.2","0","0.3","0","","","NA","61.6","0","NA","","7","","","NA","148.8","0.0"
"-103.712","58.190","COLLINS BAY","4061629","SK","13.2","0","NA","26.2","0","0.3","0","","","NA","61.6","0","NA","","7","","","NA","148.8","0.0"
"-103.700","58.183","COLLINS BAY CAMECO","4061632","SK","14.0","1","NA","28.5","0","2.0","1","0.0","0","NA","63.6","0","NA","0.0","13","","","NA","120.9","1.3"
"-102.350","55.533","ISLAND FALLS (AUT)","4063605","SK","15.8","0","NA","27.3","0","4.0","0","","","NA","39.1","0","NA","","7","","","NA","71.7","3.1"
"-109.962","54.908","JIMMY LAKE AWOS","4063623","SK","15.9","1","NA","27.6","1","3.4","0","","","NA","35.0","4","NA","","7","","","NA","67.1","4.0"
