"Long","Lat","Stn_Name","Clim_ID","Prov_or_Ter","Tm","DwTm","D","Tx","DwTx","Tn","DwTn","S","DwS","S%N","P","DwP","P%N","S_G","Pd","BS","DwBS","BS%","HDD","CDD"
"-123.742","48.935","CHEMAINUS","1011500","BC","20.1","2","NA","32.5","2","12.0","2","0.0","2","NA","12.5","2","NA","0.0","2","","","NA","5.8","67.9"
"-124.052","48.829","LAKE COWICHAN","1012055","BC","19.8","14","1.8","36.5","10","7.0","9","0.0","30","NA","7.4","26","NA","","3","","","NA","6.1","37.3"
"-123.226","48.425","DISCOVERY ISLAND","1012475","BC","","","NA","26.3","0","","","","","NA","","","NA","","","","","NA","",""
"-123.439","48.432","ESQUIMALT HARBOUR","1012710","BC","16.3","0","NA","25.8","0","11.7","0","","","NA","2.0","0","NA","","1","","","NA","57.0","2.9"
"-123.573","48.985","GALIANO NORTH","10130MN","BC","18.8","1","NA","30.0","1","12.0","1","0.0","1","NA","4.8","1","NA","0.0","2","","","NA","12.0","36.6"
"-123.530","48.575","MALAHAT","1014820","BC","19.4","1","NA","32.6","1","10.8","1","","","NA","6.4","1","NA","","1","","","NA","20.0","60.7"
"-123.561","48.374","METCHOSIN","1015105","BC","","","NA","","","","","0.0","11","NA","0.6","11","NA","0.0","0","","","NA","",""
"-123.718","48.824","NORTH COWICHAN","1015628","BC","","","NA","","","","","0.0","0","NA","2.8","0","9.0","0.0","1","","","NA","",""
"-123.719","48.824","NORTH COWICHAN","1015630","BC","19.0","0","NA","34.2","0","8.2","0","","","NA","2.1","0","NA","","1","","","NA","18.6","50.3"
"-123.287","48.764","NORTH PENDER ISLAND","1015638","BC","19.4","2","NA","34.5","2","11.0","2","0.0","2","NA","2.0","2","NA","0.0","0","","","NA","13.2","53.5"
"-123.531","48.298","RACE ROCKS","1016640","BC","14.6","2","NA","24.9","2","9.6","2","","","NA","","","NA","","","","","NA","100.0","1.5"
"-123.419","48.622","SAANICHTON CDA","1016940","BC","17.8","2","0.7","31.0","1","10.0","1","0.0","1","NA","0.4","1","NA","0.0","0","","","NA","32.0","27.0"
"-123.546","48.888","SALTSPRING ST MARY'S L","1016995","BC","20.0","0","1.7","30.5","0","13.0","0","0.0","0","NA","3.2","0","11.0","0.0","2","","","NA","4.9","68.1"
"-123.128","48.775","SATURNA CAPMON CS","1017099","BC","","","NA","","","","","","","NA","0.5","0","NA","","0","","","NA","",""
"-123.045","48.784","SATURNA ISLAND CS","1017101","BC","17.8","0","NA","27.2","0","11.6","0","","","NA","1.4","0","NA","","1","","","NA","28.0","20.7"
"-123.626","48.647","SHAWNIGAN LAKE","1017230","BC","19.3","0","1.5","33.5","0","10.5","0","0.0","0","NA","6.6","0","24.0","0.0","1","","","NA","11.6","52.9"
"-123.305","48.457","VICTORIA UNIVERSITY CS","1018598","BC","17.7","0","NA","31.4","0","9.5","0","","","NA","1.5","0","NA","","0","","","NA","33.7","24.2"
"-123.325","48.413","VICTORIA GONZALES CS","1018611","BC","16.5","0","NA","27.2","0","10.9","0","","","NA","2.0","0","NA","","1","","","NA","53.1","7.2"
"-123.426","48.647","VICTORIA INTL A","1018621","BC","17.4","0","NA","32.4","0","9.6","0","0.0","0","NA","1.6","0","NA","","1","","","NA","34.3","16.3"
"-124.160","49.350","BALLENAS ISLAND","1020590","BC","19.3","1","NA","28.2","1","14.0","1","","","NA","1.0","1","NA","","1","","","NA","5.5","44.3"
"-125.273","49.952","CAMPBELL RIVER A","1021261","BC","18.5","0","1.3","33.5","0","5.5","0","0.0","0","NA","8.4","0","19.0","0.0","2","","","NA","20.5","37.1"
"-125.195","49.998","CAPE MUDGE","1021330","BC","19.1","0","1.9","30.0","0","12.0","0","0.0","0","NA","8.2","0","18.0","0.0","3","","","NA","11.9","44.6"
"-125.446","50.333","CHATHAM POINT","1021480","BC","15.8","29","-0.2","21.0","29","10.5","29","0.0","29","NA","0.0","29","NA","","0","","","NA","4.5","0.0"
"-124.683","49.472","CHROME ISLAND","1021500","BC","19.1","0","NA","29.0","0","12.0","0","0.0","0","NA","2.0","0","NA","0.0","1","","","NA","5.9","40.3"
"-124.900","49.717","COMOX A","1021830","BC","20.0","4","2.1","32.6","4","11.5","4","0.0","4","NA","2.4","4","NA","","1","","","NA","6.9","59.6"
"-124.949","50.071","CORTES ISLAND TIBER BAY","1021960","BC","19.7","2","NA","32.5","2","9.5","2","0.0","2","NA","8.6","2","NA","","3","","","NA","4.8","53.1"
"-125.033","49.686","COURTENAY PUNTLEDGE","1021989","BC","20.0","16","NA","34.0","10","8.0","10","0.0","10","NA","6.8","10","NA","0.0","2","","","NA","2.0","31.8"
"-123.811","49.209","ENTRANCE ISLAND","1022689","BC","19.0","1","NA","26.8","1","13.3","1","","","NA","6.0","1","NA","","2","","","NA","10.5","40.5"
"-125.993","50.454","FANNY ISLAND","1022795","BC","14.4","0","NA","22.6","0","9.9","0","","","NA","8.0","0","NA","","3","","","NA","111.5","0.0"
"-125.203","50.099","HERIOT BAY SE","1023462","BC","19.1","0","NA","32.0","0","11.0","0","0.0","0","NA","8.4","0","NA","0.0","4","","","NA","10.3","45.2"
"-124.512","49.353","LITTLE QUALICUM HATCHERY","1024638","BC","17.7","14","1.3","33.0","14","6.5","14","0.0","14","NA","0.0","14","NA","","0","","","NA","16.3","11.3"
"-123.870","49.054","NANAIMO A","1025369","BC","18.9","0","NA","34.0","0","7.5","0","0.0","0","NA","3.0","0","NA","0.0","2","","","NA","17.0","43.9"
"-123.988","49.199","NANAIMO CITY YARD","10253G0","BC","","","NA","","","","","0.0","0","NA","9.8","0","34.0","0.0","2","","","NA","",""
"-127.367","50.681","PORT HARDY A","1026271","BC","14.4","3","NA","23.4","0","6.1","3","0.0","0","NA","34.0","0","NA","","4","","","NA","102.0","0.0"
"-124.394","49.337","QUALICUM BEACH AIRPORT","1026562","BC","18.8","0","NA","32.1","0","9.4","0","","","NA","0.8","0","NA","","0","","","NA","17.1","41.0"
"-124.617","49.394","QUALICUM R FISH RESEARCH","1026565","BC","18.4","8","1.7","30.0","8","8.0","8","0.0","8","NA","2.5","8","NA","","1","","","NA","13.4","22.6"
"-125.304","50.016","QUINSAM RIVER HATCHERY","1026639","BC","18.7","0","1.4","33.5","0","8.0","0","0.0","0","NA","5.8","0","12.0","0.0","1","","","NA","14.4","37.4"
"-124.435","49.487","SISTERS ISLAND","1027403","BC","20.2","15","NA","28.0","15","15.9","15","","","NA","","","NA","","","","","NA","0.7","35.3"
"-123.809","49.209","ENTRANCE ISLAND","102BFHH","BC","19.3","5","NA","26.5","5","11.0","5","0.0","5","NA","7.3","5","NA","0.0","2","","","NA","7.4","40.8"
"-124.982","49.337","ALBERNI ROBERTSON CREEK","1030230","BC","20.0","0","1.4","37.0","0","7.0","0","0.0","0","NA","16.2","0","35.0","0.0","2","","","NA","10.4","72.0"
"-125.216","48.786","CAPE BEALE LIGHT","1031316","BC","14.3","0","0.3","23.0","0","9.0","0","0.0","0","NA","15.2","0","21.0","0.0","6","","","NA","114.4","0.0"
"-126.418","49.800","CONUMA RIVER HATCHERY","1031844","BC","","","NA","","","","","0.0","0","NA","9.9","0","7.0","0.0","4","","","NA","",""
"-126.543","49.383","ESTEVAN POINT","1032730","BC","15.4","0","0.7","22.5","0","9.5","0","0.0","0","NA","6.6","0","7.0","0.0","2","","","NA","80.1","0.0"
"-126.543","49.383","ESTEVAN POINT CS","1032731","BC","14.9","0","NA","22.1","0","8.8","0","","","NA","3.4","0","NA","","1","","","NA","95.9","0.0"
"-125.923","49.111","LENNARD ISLAND","1034600","BC","12.7","0","NA","20.5","0","6.0","0","0.0","0","NA","6.4","0","8.0","0.0","3","","","NA","163.3","0.0"
"-124.655","48.859","NITINAT RIVER HATCHERY","1035612","BC","17.1","0","0.5","31.0","0","3.5","0","0.0","0","NA","6.5","0","7.0","0.0","5","","","NA","43.3","15.3"
"-126.617","49.600","NOOTKA LIGHTSTATION","1035614","BC","17.1","19","0.9","23.0","19","13.5","19","0.0","19","NA","1.8","19","NA","","0","","","NA","13.1","2.3"
"-125.097","48.723","PACHENA POINT","1035940","BC","13.6","0","-0.6","25.0","0","6.5","0","0.0","0","NA","19.4","0","23.0","0.0","7","","","NA","137.5","0.0"
"-124.752","49.202","PORT ALBERNI COX LAKE","1036208","BC","19.0","16","1.4","34.5","16","8.5","16","0.0","16","NA","2.2","16","NA","","1","","","NA","4.6","19.4"
"-124.927","49.317","PORT ALBERNI (AUT)","1036B06","BC","19.6","0","NA","37.2","0","6.0","0","","","NA","4.5","0","NA","","2","","","NA","11.7","62.5"
"-128.908","50.821","SARTINE ISLAND (AUT)","1037090","BC","13.8","4","NA","18.6","4","11.1","4","","","NA","19.6","4","NA","","4","","","NA","114.1","0.0"
"-127.940","50.112","SOLANDER ISLAND (AUT)","1037553","BC","13.7","4","NA","22.1","4","9.6","4","","","NA","15.4","4","NA","","6","","","NA","114.8","0.0"
"-126.654","49.932","TAHSIS VILLAGE NORTH","1037899","BC","19.2","11","NA","31.0","11","9.0","11","","","NA","","","NA","","","","","NA","5.0","29.8"
"-125.773","49.082","TOFINO A","1038205","BC","15.5","0","0.5","26.0","0","8.5","0","0.0","0","NA","8.6","0","10.0","0.0","2","","","NA","79.3","2.2"
"-125.527","48.945","UCLUELET KENNEDY CAMP","1038332","BC","15.7","0","0.7","27.0","0","10.0","0","0.0","0","NA","10.8","0","12.0","0.0","4","","","NA","73.5","3.1"
"-126.779","50.053","ZEBALLOS MURAUDE CREEK","1039035","BC","18.8","3","NA","34.0","3","9.5","3","0.0","3","NA","9.0","3","NA","0.0","4","","","NA","10.3","33.0"
"-123.541","49.386","GIBSONS GOWER POINT","1043152","BC","18.2","8","0.3","26.5","8","12.0","8","0.0","8","NA","2.6","8","NA","0.0","1","","","NA","13.3","17.4"
"-123.913","49.468","MERRY ISLAND LIGHTSTATION","1045100","BC","19.7","0","1.5","28.0","0","13.5","0","0.0","0","NA","9.6","0","27.0","0.0","2","","","NA","4.3","57.9"
"-123.299","49.488","HOWE SOUND - PAM ROCKS","10459NN","BC","19.5","0","NA","26.9","0","13.7","0","","","NA","7.2","0","NA","","3","","","NA","9.1","55.1"
"-124.032","49.634","PENDER HARBOUR","1046115","BC","","","NA","","","","","0.0","0","NA","11.4","0","NA","0.0","3","","","NA","",""
"-123.496","49.526","PORT MELLON","1046332","BC","19.3","0","NA","32.1","0","10.0","0","","","NA","12.4","0","NA","","2","","","NA","18.6","57.6"
"-124.500","49.834","POWELL RIVER A","1046391","BC","17.9","0","0.6","32.0","0","7.0","0","0.0","0","NA","2.6","0","6.0","0.0","2","","","NA","30.6","26.3"
"-124.497","49.835","POWELL RIVER","1046392","BC","17.8","0","NA","32.0","0","7.2","0","","","NA","2.1","0","NA","","1","","","NA","33.2","28.2"
"-123.715","49.458","SECHELT AUT","1047172","BC","18.4","0","NA","31.6","0","8.8","0","","","NA","2.4","0","NA","","1","","","NA","24.7","37.5"
"-123.161","49.783","SQUAMISH AIRPORT","10476F0","BC","19.2","0","NA","35.3","0","7.3","0","","","NA","10.6","0","NA","","3","","","NA","18.1","54.6"
"-122.955","50.129","WHISTLER","1048898","BC","18.2","4","1.7","35.0","4","5.0","4","0.0","4","NA","15.2","4","NA","0.0","4","","","NA","35.9","40.3"
"-131.016","51.936","CAPE ST JAMES","1051351","BC","14.1","4","NA","21.6","4","10.9","4","","","NA","12.0","4","NA","","5","","","NA","105.7","0.0"
"-132.772","53.316","KINDAKUN ROCKS (AUT)","1054222","BC","13.6","5","NA","17.0","5","10.5","5","","","NA","61.4","5","NA","","9","","","NA","115.6","0.0"
"-133.058","54.255","LANGARA","1054500","BC","14.0","0","0.4","21.0","0","11.0","0","0.0","0","NA","73.0","0","54.0","0.0","9","","","NA","122.6","0.0"
"-131.661","54.159","ROSE SPIT (AUT)","1056869","BC","14.6","2","NA","21.2","2","8.4","2","","","NA","34.6","2","NA","","6","","","NA","98.2","0.0"
"-131.813","53.249","SANDSPIT AIRPORT AUTO","1057051","BC","16.8","0","NA","25.0","0","10.8","0","","","NA","3.6","0","NA","","1","","","NA","43.1","6.4"
"-131.814","53.254","SANDSPIT","1057052","BC","17.1","7","NA","25.0","7","11.1","7","","","NA","4.0","7","NA","","1","","","NA","26.9","6.3"
"-127.864","51.604","ADDENBROKE ISLAND","1060080","BC","15.8","4","0.6","22.5","4","10.5","4","0.0","4","NA","43.8","4","NA","0.0","6","","","NA","59.6","0.0"
"-128.157","52.185","BELLA BELLA","1060815","BC","16.3","5","NA","30.7","5","5.4","5","","","NA","25.0","5","NA","","4","","","NA","49.5","4.7"
"-126.587","52.389","BELLA COOLA AIRPORT","1060844","BC","18.6","1","NA","33.9","1","7.2","1","","","NA","12.9","1","NA","","2","","","NA","22.5","39.6"
"-128.524","52.643","BOAT BLUFF","1060901","BC","16.6","0","1.5","28.0","0","10.0","0","0.0","0","NA","44.6","0","19.0","0.0","9","","","NA","53.1","8.9"
"-130.638","53.493","BONILLA ISLAND","1060902","BC","14.2","0","0.2","22.0","0","10.0","0","0.0","0","NA","32.2","0","29.0","0.0","6","","","NA","117.7","0.0"
"-130.639","53.493","BONILLA ISLAND (AUT)","1060R0K","BC","13.6","10","NA","20.9","10","10.4","10","","","NA","17.0","10","NA","","5","","","NA","93.4","0.0"
"-127.471","52.187","CATHEDRAL POINT (AUT)","1061458","BC","17.5","5","NA","26.6","5","11.9","5","","","NA","19.8","5","NA","","5","","","NA","31.1","17.0"
"-131.602","53.030","CUMSHEWA ISLAND","1062251","BC","16.4","5","NA","21.2","5","11.6","5","","","NA","5.4","5","NA","","2","","","NA","42.1","0.2"
"-128.112","52.185","DRYAD POINT","1062544","BC","17.1","0","1.2","28.5","0","10.0","0","0.0","0","NA","31.0","0","21.0","0.0","7","","","NA","38.1","9.3"
"-130.708","54.569","GREEN ISLAND","1063298","BC","15.5","8","0.7","22.0","7","11.5","8","0.0","0","NA","48.6","0","29.0","0.0","8","","","NA","58.3","0.0"
"-130.698","54.580","GREY ISLET (AUT)","1063303","BC","14.9","4","NA","21.7","4","11.2","4","","","NA","28.0","4","NA","","8","","","NA","82.4","0.0"
"-130.361","54.172","HOLLAND ROCK","1063496","BC","13.1","9","NA","17.5","9","10.3","9","","","NA","31.2","9","NA","","8","","","NA","107.2","0.0"
"-128.407","52.270","IVORY ISLAND","1063690","BC","15.5","0","0.6","24.5","0","10.0","0","0.0","0","NA","27.3","0","17.0","0.0","5","","","NA","78.8","1.8"
"-127.943","53.563","KEMANO","1064020","BC","19.0","0","2.6","33.0","0","8.5","0","0.0","0","NA","7.3","0","9.0","0.0","5","","","NA","16.5","47.2"
"-128.634","54.054","KITIMAT TOWNSITE","1064320","BC","19.4","0","2.9","32.0","0","5.0","0","0.0","0","NA","4.7","0","5.0","0.0","3","","","NA","13.5","56.0"
"-128.705","54.010","KITIMAT 2","1064321","BC","19.5","2","2.5","36.0","2","6.0","2","0.0","2","NA","7.8","2","NA","0.0","2","","","NA","8.5","52.9"
"-130.609","54.296","LUCY ISLAND LIGHTSTATION","1064728","BC","14.3","1","NA","20.4","1","11.1","1","","","NA","","","NA","","","","","NA","110.5","0.0"
"-128.719","52.262","MCINNES ISLAND","1065010","BC","15.3","0","0.6","21.0","0","11.0","0","0.0","0","NA","26.6","0","20.0","0.0","9","","","NA","83.5","0.0"
"-130.445","54.286","PRINCE RUPERT","1066482","BC","14.8","6","NA","23.1","6","8.3","4","","","NA","44.2","5","NA","","10","","","NA","80.2","0.0"
"-128.625","54.502","TERRACE PCC","1068131","BC","19.6","5","2.8","32.0","5","8.5","5","0.0","5","NA","6.2","5","NA","","2","","","NA","5.3","46.1"
"-128.578","54.469","TERRACE A","1068134","BC","18.6","0","NA","31.2","0","8.4","0","0.0","0","NA","9.4","0","NA","","5","","","NA","21.4","39.2"
"-130.880","54.295","TRIPLE ISLAND","1068250","BC","14.2","0","NA","21.0","0","10.0","0","0.0","0","NA","24.8","0","NA","0.0","7","","","NA","118.4","0.0"
"-126.668","54.396","HOUSTON","1073615","BC","17.2","9","NA","31.0","9","2.0","9","0.0","14","NA","0.0","14","NA","","0","","","NA","33.2","15.6"
"-127.183","54.825","SMITHERS","1077499","BC","16.4","0","NA","30.4","0","1.9","0","","","NA","0.0","0","NA","","0","","","NA","61.6","10.9"
"-127.183","54.825","SMITHERS A","1077500","BC","17.1","0","2.4","30.5","0","4.0","0","0.0","0","NA","1.2","0","3.0","0.0","0","","","NA","47.4","18.1"
"-127.189","54.824","SMITHERS AIRPORT AUTO","1077501","BC","16.8","0","NA","30.2","0","3.5","0","","","NA","21.6","0","NA","","12","","","NA","52.5","16.2"
"-127.171","55.289","SUSKWA VALLEY","107G879","BC","14.9","3","0.9","29.5","3","0.0","3","0.0","3","NA","7.0","3","NA","0.0","4","","","NA","91.3","3.1"
"-125.997","53.772","OOTSA LAKESKINS LAKE CLIMATE","1085836","BC","15.7","0","NA","27.3","0","3.9","0","","","NA","1.9","0","NA","","0","","","NA","76.7","4.9"
"-122.738","50.302","PEMBERTON AIRPORT (WIND)","1086081","BC","20.1","0","NA","39.8","0","6.7","0","","","NA","","","NA","","","","","NA","13.2","78.3"
"-122.734","50.306","PEMBERTON AIRPORT CS","1086082","BC","20.1","1","NA","38.7","1","6.8","1","","","NA","15.6","1","NA","","3","","","NA","12.3","74.8"
"-124.136","52.114","PUNTZI MOUNTAIN (AUT)","1086558","BC","15.2","0","NA","33.0","0","0.2","0","","","NA","23.9","0","NA","","5","","","NA","94.0","8.5"
"-124.403","51.675","TATLAYOKO LAKE RCS","1088015","BC","15.0","0","NA","31.8","0","-0.6","0","","","NA","25.0","0","NA","","8","","","NA","98.9","4.9"
"-125.959","54.383","BURNS LAKE DECKER LAKE","1091174","BC","13.7","0","NA","29.1","0","-2.1","0","","","NA","3.3","0","NA","","0","","","NA","135.9","1.4"
"-124.286","54.455","FORT ST JAMES","1092970","BC","16.8","14","2.0","28.0","14","3.5","14","0.0","14","NA","0.0","14","NA","","0","","","NA","26.2","6.4"
"-124.286","54.455","FORT ST JAMES AUTO","1092975","BC","16.8","0","NA","28.6","0","3.7","0","","","NA","3.2","0","NA","","1","","","NA","50.6","12.8"
"-122.286","52.531","MCLEESE LAKE GRANITE MT","1095018","BC","15.5","18","NA","32.0","13","3.0","12","0.0","13","NA","35.3","13","NA","0.0","5","","","NA","34.9","2.5"
"-122.678","53.884","PRINCE GEORGE","1096439","BC","15.7","3","NA","30.0","3","-1.3","3","","","NA","2.0","5","NA","","1","","","NA","73.1","7.9"
"-122.672","53.889","PRINCE GEORGE AIRPORT AUTO","1096453","BC","15.6","0","NA","30.0","0","-0.8","0","","","NA","8.1","0","NA","","3","","","NA","83.3","7.9"
"-122.791","53.900","PRINCE GEORGE MASSEY AUTO","1096454","BC","17.8","0","NA","30.6","0","4.0","0","","","NA","10.8","0","NA","","3","","","NA","35.6","28.4"
"-122.768","53.880","PRINCE GEORGE STP","1096468","BC","17.5","3","1.5","31.0","2","3.5","3","0.0","0","NA","15.6","0","34.0","0.0","3","","","NA","34.5","19.9"
"-122.510","53.026","QUESNEL","1096629","BC","16.5","3","NA","32.5","3","2.6","3","","","NA","35.6","5","NA","","3","","","NA","57.4","14.4"
"-122.506","53.027","QUESNEL AIRPORT AUTO","1096631","BC","16.3","0","NA","32.3","0","2.2","0","","","NA","31.4","0","NA","","3","","","NA","67.4","15.0"
"-121.686","52.184","SPOKIN LAKE 4E","1097646","BC","12.3","0","-0.5","34.0","0","-4.0","0","0.0","0","NA","28.6","0","54.0","0.0","9","","","NA","177.7","1.0"
"-122.054","52.183","WILLIAMS LAKE A","1098941","BC","16.3","1","NA","33.8","1","5.0","0","0.0","1","NA","32.2","1","NA","","6","","","NA","70.5","19.0"
"-124.017","54.033","VANDERHOOF","1098D90","BC","17.0","0","1.2","31.0","0","3.0","0","0.0","0","NA","3.0","0","7.0","0.0","2","","","NA","46.8","17.3"
"-121.263","51.623","108 MILE HOUSE ABEL LAKE","109E7R6","BC","15.9","0","NA","34.5","0","3.0","0","0.0","0","NA","40.5","0","NA","0.0","5","","","NA","86.4","20.4"
"-122.360","49.025","ABBOTSFORD A","1100031","BC","19.1","0","NA","35.6","0","9.5","0","0.0","0","NA","8.0","0","NA","","3","","","NA","18.8","54.3"
"-121.760","49.243","AGASSIZ RCS","1100119","BC","19.5","3","0.7","34.5","3","8.8","3","","","NA","18.5","3","NA","","4","","","NA","18.0","59.9"
"-121.760","49.243","AGASSIZ CDA","1100120","BC","19.3","0","0.7","34.0","0","9.0","0","0.0","0","NA","21.7","0","37.0","0.0","4","","","NA","21.4","63.1"
"-122.955","50.129","WHISTLER - NESTERS","1100875","BC","18.0","0","NA","34.7","0","5.3","0","","","NA","11.0","0","NA","","3","","","NA","38.5","39.1"
"-122.918","49.278","BURNABY SIMON FRASER U","1101158","BC","19.4","1","2.2","31.0","1","8.5","1","0.0","1","NA","4.8","1","NA","","3","","","NA","27.1","69.1"
"-123.111","50.144","CALLAGHAN VALLEY","1101300","BC","16.9","0","NA","32.0","0","5.2","0","","","NA","9.2","0","NA","","4","","","NA","67.1","33.9"
"-122.698","49.109","CLOVERDALE EAST","1101708","BC","19.6","0","NA","33.5","0","10.0","0","0.0","0","NA","8.6","0","NA","0.0","3","","","NA","14.3","64.2"
"-121.979","49.079","CULTUS LAKE","1102221","BC","19.7","0","NA","36.5","0","9.4","0","","","NA","42.2","0","NA","","6","","","NA","16.8","68.0"
"-123.002","49.126","DELTA BURNS BOG","1102415","BC","17.7","0","NA","32.8","0","6.8","0","","","NA","6.4","0","NA","","3","","","NA","34.9","25.1"
"-123.093","49.011","DELTA TSAWWASSEN BEACH","1102425","BC","17.2","3","-0.7","28.5","3","9.5","3","0.0","2","NA","5.4","2","NA","0.0","2","","","NA","35.0","12.2"
"-122.551","49.145","FORT LANGLEY TELEGRAPH TRAIL","1102912","BC","19.5","0","NA","35.0","0","9.0","0","0.0","0","NA","15.2","0","NA","0.0","4","","","NA","17.9","64.0"
"-122.573","49.264","HANEY UBC RF ADMIN","1103332","BC","19.3","0","1.5","34.0","0","9.0","0","0.0","0","NA","17.2","0","24.0","0.0","5","","","NA","20.3","60.3"
"-122.271","49.153","MISSION WEST ABBEY","1105192","BC","19.8","0","1.5","34.0","0","10.5","0","0.0","0","NA","23.4","0","37.0","0.0","4","","","NA","20.4","75.9"
"-123.078","49.381","N VANC GROUSE MTN RESORT","1105658","BC","16.0","8","2.0","30.0","8","6.0","8","0.0","8","NA","45.0","8","NA","","4","","","NA","69.2","23.6"
"-123.115","49.315","N VANCOUVER WHARVES","1105669","BC","","","NA","","","","","0.0","3","NA","9.3","3","NA","0.0","3","","","NA","",""
"-122.690","49.208","PITT MEADOWS CS","1106178","BC","19.5","0","NA","34.3","0","9.4","0","","","NA","10.1","0","NA","","4","","","NA","15.7","61.7"
"-123.265","49.330","POINT ATKINSON","1106200","BC","19.1","2","NA","28.5","2","13.3","2","","","NA","9.8","2","NA","","3","","","NA","7.9","39.2"
"-123.087","49.179","RICHMOND DALLYN 2","1106764","BC","","","NA","","","","","0.0","1","NA","13.2","1","NA","0.0","2","","","NA","",""
"-122.881","49.279","PORT MOODY GLENAYRE","1106CL2","BC","19.6","1","1.5","32.5","1","10.0","1","0.0","1","NA","16.5","1","NA","0.0","4","","","NA","16.7","64.5"
"-123.093","49.171","RICHMOND NATURE PARK","1106PF7","BC","19.2","0","0.9","33.5","0","6.0","0","0.0","0","NA","11.6","0","29.0","0.0","3","","","NA","12.8","48.5"
"-123.303","49.106","SANDHEADS CS","1107010","BC","18.6","0","NA","26.7","0","13.7","0","","","NA","","","NA","","","","","NA","12.8","31.7"
"-122.110","49.113","SUMAS CANAL","1107785","BC","19.6","22","NA","32.0","16","11.5","16","0.0","16","NA","14.2","16","NA","0.0","2","","","NA","3.2","17.9"
"-123.187","49.183","VANCOUVER SEA ISLAND CCG","1108380","BC","18.7","0","NA","29.5","0","10.9","0","","","NA","13.0","0","NA","","2","","","NA","14.0","34.7"
"-123.184","49.195","VANCOUVER INTL A","1108395","BC","18.5","1","NA","29.0","0","10.8","1","0.0","0","NA","16.2","0","NA","","2","","","NA","16.1","31.0"
"-123.122","49.295","VANCOUVER HARBOUR CS","1108446","BC","19.5","0","NA","31.0","0","11.9","0","","","NA","5.0","0","NA","","2","","","NA","8.1","53.8"
"-123.193","49.347","WEST VANCOUVER AUT","1108824","BC","19.6","0","NA","31.5","0","10.5","0","","","NA","10.8","0","NA","","3","","","NA","14.0","63.1"
"-122.947","50.068","WHISTLER ROUNDHOUSE","1108906","BC","12.5","1","NA","23.0","1","1.0","1","0.0","1","NA","22.2","1","NA","0.0","6","","","NA","168.9","3.8"
"-122.784","49.018","WHITE ROCK CAMPBELL SCIENTIFIC","1108910","BC","18.1","2","NA","31.6","2","10.0","2","","","NA","5.4","2","NA","","3","","","NA","23.7","27.5"
"-121.498","49.368","HOPE A","1113542","BC","21.1","5","NA","34.6","5","11.6","5","","","NA","16.1","5","NA","","2","","","NA","1.5","82.7"
"-121.493","49.370","HOPE AIRPORT","1113543","BC","20.3","1","NA","34.6","1","11.2","1","","","NA","21.3","1","NA","","3","","","NA","12.4","80.0"
"-121.233","49.267","HOPE SLIDE","1113581","BC","16.5","0","1.3","33.5","0","6.5","0","0.0","0","NA","16.0","0","39.0","0.0","5","","","NA","70.5","25.2"
"-121.934","50.684","LILLOOET","1114619","BC","21.9","0","NA","39.2","0","10.2","0","","","NA","","","NA","","","","","NA","6.4","127.2"
"-121.582","50.224","LYTTON A","1114738","BC","23.1","4","NA","39.8","4","9.5","4","","","NA","11.8","4","NA","","3","","","NA","0.4","138.2"
"-121.582","50.224","LYTTON RCS","1114746","BC","22.4","0","NA","40.6","0","9.4","0","","","NA","10.8","9","NA","","2","","","NA","6.5","141.5"
"-120.333","49.673","JELLICOE","1123721","BC","16.9","1","NA","37.0","1","2.5","1","0.0","1","NA","14.4","1","NA","0.0","4","","","NA","64.7","32.3"
"-119.378","49.957","KELOWNA","1123939","BC","19.1","2","NA","36.8","2","5.6","2","","","NA","8.0","2","NA","","3","","","NA","27.1","58.2"
"-119.400","49.941","KELOWNA UBCO","1123996","BC","20.6","0","NA","37.0","0","9.1","0","","","NA","10.7","0","NA","","4","","","NA","15.5","94.6"
"-120.778","50.113","MERRITT","1125073","BC","18.3","1","NA","36.8","1","3.4","1","","","NA","0.0","1","NA","","0","","","NA","36.2","44.3"
"-120.801","50.114","MERRITT STP","1125079","BC","19.7","0","1.1","37.0","0","6.0","0","0.0","0","NA","25.0","0","122.0","0.0","5","","","NA","20.1","71.3"
"-119.445","50.056","OKANAGAN CENTRE","1125700","BC","21.1","0","0.7","34.0","0","10.0","0","0.0","0","NA","16.1","0","50.0","0.0","5","","","NA","8.2","104.9"
"-119.545","49.179","OLIVER STP","1125766","BC","22.1","14","0.4","36.5","14","9.0","14","0.0","14","NA","0.0","14","NA","0.0","0","","","NA","0.0","70.5"
"-119.441","49.028","OSOYOOS CS","1125852","BC","22.0","0","-0.3","38.5","0","9.0","0","","","NA","0.0","0","NA","","0","","","NA","6.7","130.9"
"-119.717","49.783","PEACHLAND","1126070","BC","21.8","0","1.0","34.5","0","11.5","0","0.0","0","NA","4.6","0","18.0","0.0","2","","","NA","2.6","121.2"
"-119.602","49.463","PENTICTON A","1126146","BC","20.2","1","NA","36.8","1","5.8","0","0.0","1","NA","2.4","1","NA","","1","","","NA","13.3","77.9"
"-120.513","49.468","PRINCETON A","1126510","BC","18.0","2","0.2","38.5","2","3.0","2","0.0","2","NA","8.6","2","NA","0.0","3","","","NA","42.8","44.1"
"-119.194","50.223","VERNON AUTO","1128582","BC","20.0","0","NA","35.4","0","9.0","0","","","NA","16.0","0","NA","","4","","","NA","25.5","86.1"
"-119.271","50.344","VERNON NORTH","1128583","BC","20.2","0","-0.3","35.5","0","8.0","0","0.0","0","NA","25.6","0","80.0","0.0","5","","","NA","22.8","90.0"
"-119.056","50.359","VERNON SILVER STAR LODGE","1128584","BC","14.8","1","NA","30.0","1","4.5","1","0.0","1","NA","40.9","1","NA","0.0","6","","","NA","115.3","19.1"
"-120.510","49.465","PRINCETON CS","112FN0M","BC","18.4","0","NA","38.8","0","3.3","0","","","NA","10.0","0","NA","","3","","","NA","40.6","51.7"
"-119.649","49.563","SUMMERLAND CS","112G8L1","BC","21.1","0","0.1","35.9","0","8.6","0","","","NA","3.2","0","NA","","1","","","NA","9.3","104.6"
"-118.772","49.004","MIDWAY","1135126","BC","19.0","4","0.3","40.0","4","3.5","4","0.0","4","NA","3.0","4","NA","0.0","1","","","NA","30.1","56.9"
"-118.228","49.017","BILLINGS","1140876","BC","21.1","0","0.7","39.0","0","7.5","0","0.0","0","NA","5.0","0","22.0","0.0","2","","","NA","10.8","105.4"
"-117.633","49.296","CASTLEGAR A","1141455","BC","20.5","0","0.5","40.0","0","6.5","0","0.0","0","NA","3.8","0","12.0","0.0","3","","","NA","12.7","90.2"
"-117.774","49.343","CASTLEGAR BCHPA DAM","1141457","BC","20.4","3","0.5","35.0","2","8.0","2","0.0","2","NA","1.1","2","NA","0.0","1","","","NA","8.9","76.0"
"-116.972","50.239","DUNCAN LAKE DAM","1142574","BC","17.7","2","0.6","33.0","1","5.0","1","0.0","1","NA","15.8","1","NA","0.0","5","","","NA","42.3","32.5"
"-116.921","49.913","KASLO","1143900","BC","20.4","0","2.1","33.5","0","9.0","0","0.0","0","NA","4.4","0","10.0","0.0","2","","","NA","8.2","82.4"
"-117.817","50.269","NAKUSP CS","1145297","BC","18.0","0","NA","32.3","0","6.5","0","","","NA","15.7","0","NA","","4","","","NA","41.5","40.0"
"-117.206","49.586","NELSON NE","1145442","BC","19.5","0","NA","35.5","0","8.0","0","0.0","0","NA","11.4","0","NA","0.0","2","","","NA","17.8","65.8"
"-117.370","49.996","NEW DENVER","1145460","BC","19.2","0","0.4","35.0","0","8.5","0","0.0","0","NA","14.8","0","27.0","0.0","5","","","NA","25.3","64.0"
"-117.305","49.491","NELSON CS","1145M29","BC","20.7","1","NA","36.0","1","9.3","1","","","NA","6.8","1","NA","","3","","","NA","9.2","89.9"
"-117.739","49.112","WARFIELD RCS","1148705","BC","21.3","1","NA","41.1","1","7.1","1","","","NA","1.8","1","NA","","1","","","NA","8.7","106.9"
"-116.501","49.082","CRESTON CAMPBELL SCIENTIFIC","114B1F0","BC","21.1","2","NA","38.7","2","9.8","2","","","NA","7.4","2","NA","","1","","","NA","8.6","97.1"
"-117.399","49.512","NELSON RIXEN CREEK","114EMDM","BC","20.0","0","NA","36.5","0","7.5","0","0.0","0","NA","8.6","0","NA","0.0","2","","","NA","23.3","85.6"
"-115.782","49.612","CRANBROOK A","1152105","BC","19.7","3","NA","40.5","2","3.9","1","0.0","0","NA","8.4","0","NA","","1","","","NA","22.6","71.5"
"-115.789","49.618","CRANBROOK AIRPORT AUTO","1152106","BC","19.3","0","NA","40.4","0","3.6","0","","","NA","7.6","0","NA","","1","","","NA","33.2","72.4"
"-115.073","49.489","FERNIE","1152850","BC","17.2","3","1.0","38.0","3","3.0","3","0.0","3","NA","51.6","3","NA","0.0","3","","","NA","51.6","30.1"
"-115.461","49.524","FT STEELE DANDY CRK","1153034","BC","17.8","17","NA","39.5","13","3.5","12","0.0","13","NA","0.0","13","NA","0.0","0","","","NA","15.6","12.4"
"-115.962","49.632","KIMBERLEY PCC","1154203","BC","18.6","13","0.9","38.0","13","4.5","13","0.0","13","NA","0.0","13","NA","0.0","0","","","NA","21.0","31.0"
"-116.061","50.631","KOOTENAY NP WEST GATE","1154410","BC","18.6","1","0.9","37.0","1","4.0","1","0.0","1","NA","23.4","1","NA","0.0","6","","","NA","37.0","56.0"
"-114.883","49.745","SPARWOOD","1157630","BC","16.3","0","0.8","37.5","0","1.5","0","0.0","0","0.0","16.6","0","48.0","0.0","5","","","NA","75.3","21.3"
"-114.884","49.745","SPARWOOD CS","1157631","BC","16.2","0","NA","37.4","0","1.4","0","","","NA","15.0","0","NA","","5","","","NA","77.7","20.7"
"-121.281","50.708","ASHCROFT","1160515","BC","21.7","1","NA","41.0","1","9.7","1","","","NA","45.6","1","NA","","7","","","NA","7.4","118.7"
"-119.290","52.129","BLUE RIVER A","1160899","BC","15.9","0","-0.1","36.5","0","3.0","0","0.0","0","NA","98.8","0","120.0","0.0","11","","","NA","81.4","15.8"
"-119.290","52.129","BLUE RIVER CS","1160H99","BC","15.9","0","NA","36.2","0","3.0","0","","","NA","88.9","0","NA","","11","","","NA","81.3","16.0"
"-120.082","51.653","CLEARWATER AUTO","1161650","BC","17.7","0","NA","38.0","0","4.0","0","","","NA","","","NA","","","","","NA","54.6","46.7"
"-121.685","51.266","CLINTON A","1161662","BC","13.8","2","NA","32.0","2","-0.8","1","","","NA","47.0","2","NA","","8","","","NA","125.1","2.9"
"-121.505","51.144","CLINTON RCS","1161663","BC","15.5","2","NA","34.2","2","3.5","2","","","NA","72.2","2","NA","","7","","","NA","89.0","17.6"
"-120.728","51.030","CRISS CREEK","1162177","BC","13.4","0","0.2","31.5","0","0.0","0","0.0","0","NA","45.4","0","98.0","0.0","8","","","NA","145.6","1.6"
"-120.449","50.703","KAMLOOPS A","1163781","BC","20.2","0","NA","40.8","0","7.6","0","0.0","0","NA","19.2","0","NA","","5","","","NA","20.9","88.4"
"-120.442","50.702","KAMLOOPS AUT","1163842","BC","20.3","1","NA","40.2","1","7.3","1","","","NA","15.7","1","NA","","4","","","NA","19.1","89.0"
"-121.217","51.681","100 MILE HOUSE 6NE","1165793","BC","16.0","0","NA","34.0","0","4.0","0","0.0","0","NA","38.4","0","NA","0.0","5","","","NA","85.9","24.8"
"-120.800","50.935","RED LAKE","1166658","BC","16.2","1","1.3","32.0","1","4.0","1","0.0","1","NA","53.8","1","NA","0.0","10","","","NA","79.6","25.8"
"-119.350","50.545","SILVER CREEK","1167337","BC","17.9","0","-0.5","34.5","0","6.0","0","0.0","0","NA","24.0","0","71.0","0.0","7","","","NA","44.2","41.3"
"-119.778","51.576","VAVENBY","1168520","BC","17.4","4","-0.2","38.5","2","5.0","2","0.0","2","NA","42.0","2","NA","0.0","6","","","NA","51.3","35.0"
"-120.172","50.630","KAMLOOPS PRATT ROAD","116C8P0","BC","19.2","5","NA","36.5","5","7.0","5","0.0","5","NA","23.8","5","NA","0.0","4","","","NA","27.6","58.0"
"-119.291","50.703","SALMON ARM CS","116FRMN","BC","18.3","2","-1.4","32.9","2","7.4","2","","","NA","21.6","2","NA","","4","","","NA","29.9","39.9"
"-116.982","51.299","GOLDEN A","1173210","BC","16.9","0","0.2","34.0","0","6.0","0","0.0","0","NA","20.9","0","46.0","0.0","6","","","NA","64.2","29.3"
"-116.984","51.300","GOLDEN AIRPORT","1173220","BC","16.5","5","NA","34.3","5","5.9","5","","","NA","8.6","5","NA","","3","","","NA","62.9","23.7"
"-118.585","52.053","MICA DAM","1175122","BC","15.4","8","-0.8","28.0","5","6.5","5","0.0","5","NA","53.4","5","NA","0.0","8","","","NA","63.7","3.3"
"-118.183","50.967","REVELSTOKE A","1176745","BC","17.9","5","NA","32.3","5","8.2","4","","","NA","14.9","5","NA","","5","","","NA","33.7","30.3"
"-118.176","50.958","REVELSTOKE AIRPORT AUTO","1176755","BC","17.6","4","NA","33.0","4","8.0","4","","","NA","14.3","4","NA","","3","","","NA","42.3","31.2"
"-116.345","51.443","YOHO PARK","11790J1","BC","13.2","0","NA","31.7","0","1.0","0","","","NA","33.2","6","NA","","8","","","NA","152.6","3.5"
"-116.337","51.356","YOHO NP OHARA LAKE","117R00H","BC","11.4","3","NA","26.5","3","1.0","3","0.0","3","NA","66.6","3","NA","0.0","11","","","NA","185.8","0.3"
"-121.627","55.687","CHETWYND A","1181508","BC","15.8","0","1.3","28.5","0","2.0","0","0.0","0","NA","36.4","0","71.0","0.0","6","","","NA","83.2","14.0"
"-120.183","55.742","DAWSON CREEK A","1182289","BC","15.6","1","NA","28.5","1","2.1","1","","","NA","7.2","1","NA","","3","","","NA","84.5","13.4"
"-120.740","56.238","FORT ST. JOHN A","1183001","BC","15.6","0","NA","28.2","0","4.2","0","0.0","0","NA","19.4","0","NA","","6","","","NA","92.3","19.4"
"-123.133","55.299","MACKENZIE","1184791","BC","15.6","0","NA","29.3","0","1.7","0","","","NA","15.5","0","NA","","4","","","NA","86.2","11.7"
"-123.138","55.305","MACKENZIE AIRPORT AUTO","1184793","BC","15.8","2","NA","29.7","2","2.4","2","","","NA","14.8","2","NA","","4","","","NA","74.2","11.5"
"-130.031","58.422","DEASE LAKE A","1192341","BC","13.0","10","NA","28.0","9","-0.3","10","","","NA","8.4","11","NA","","3","","","NA","105.5","0.6"
"-122.597","58.836","FORT NELSON A","1192946","BC","16.1","1","NA","30.3","0","4.9","1","0.0","1","NA","71.1","1","NA","","9","","","NA","89.4","33.1"
"-122.574","58.841","FORT NELSON","1192948","BC","16.2","1","NA","30.7","1","5.7","1","","","NA","57.8","1","NA","","8","","","NA","89.2","36.5"
"-130.025","58.426","DEASE LAKE (AUT)","119BLM0","BC","12.1","0","NA","28.1","0","-0.2","0","","","NA","32.1","0","NA","","7","","","NA","182.7","0.7"
"-133.700","59.567","ATLIN","1200560","BC","13.8","0","1.4","29.0","0","3.0","0","0.0","0","NA","46.2","0","135.0","0.0","11","","","NA","133.5","3.5"
"-136.367","59.450","PLEASANT CAMP","1206197","BC","12.6","0","-0.7","24.5","0","1.5","0","0.0","0","NA","72.3","0","100.0","0.0","11","","","NA","166.1","0.0"
"-139.040","61.371","BURWASH A","2100181","YT","11.2","3","NA","28.1","3","-3.0","2","","","NA","35.3","3","NA","","8","","","NA","189.8","0.0"
"-139.017","61.367","BURWASH AIRPORT AUTO BC","2100184","YT","10.9","0","NA","28.0","0","-3.1","0","","","NA","35.5","0","NA","","8","","","NA","220.3","0.0"
"-136.192","62.115","CARMACKS CS","2100301","YT","13.4","0","NA","30.9","0","-1.0","0","","","NA","72.7","0","NA","","17","","","NA","149.4","5.9"
"-133.376","62.208","FARO (AUT)","2100518","YT","12.7","0","NA","28.8","0","-0.1","0","","","NA","","","NA","","","","","NA","168.7","3.6"
"-137.580","60.773","HAINES JUNCTION","2100630","YT","11.6","0","NA","27.1","0","-3.9","0","","","NA","15.6","2","NA","","5","","","NA","197.7","0.1"
"-138.913","69.568","HERSCHEL ISLAND","2100636","YT","3.7","4","NA","14.5","4","-1.3","4","","","NA","58.7","4","NA","","10","","","NA","386.5","0.0"
"-140.150","69.164","IVVAVIK NAT. PARK","2100660","YT","6.5","4","NA","18.0","4","-3.9","4","","","NA","53.2","4","NA","","7","","","NA","311.6","0.0"
"-140.848","68.801","MARGARET LAKE","2100697","YT","3.4","22","NA","13.1","22","-7.7","22","","","NA","","","NA","","","","","NA","131.0","0.0"
"-135.868","63.616","MAYO A","2100701","YT","12.9","1","NA","28.8","1","0.2","0","0.0","0","NA","86.2","0","NA","","17","","","NA","157.4","4.9"
"-139.839","67.571","OLD CROW RCS","2100805","YT","8.8","0","NA","22.6","0","-1.8","0","","","NA","75.8","0","NA","","14","","","NA","284.6","0.0"
"-136.218","66.981","ROCK RIVER","2100935","YT","6.7","5","NA","21.5","5","-3.3","5","","","NA","112.8","6","NA","","16","","","NA","293.9","0.0"
"-139.127","64.061","DAWSON","2100LRP","YT","12.4","0","NA","29.9","0","-0.9","0","","","NA","91.6","0","NA","","12","","","NA","176.8","2.1"
"-132.733","60.167","TESLIN (AUT)","2101102","YT","13.5","2","NA","28.9","2","0.8","2","","","NA","41.1","2","NA","","7","","","NA","132.2","2.5"
"-128.832","60.116","WATSON LAKE (AUT)","2101204","YT","14.2","1","NA","28.1","1","1.1","1","","","NA","12.6","1","NA","","5","","","NA","117.7","4.6"
"-135.067","60.709","WHITEHORSE A","2101303","YT","14.1","0","NA","29.8","0","2.4","0","","","NA","","","NA","","","","","NA","130.1","7.7"
"-135.098","60.733","WHITEHORSE AUTO","2101310","YT","13.6","0","NA","29.4","0","1.4","0","","","NA","43.3","0","NA","","8","","","NA","141.6","5.5"
"-124.717","70.167","CAPE PARRY A","2200675","NT","2.2","10","NA","13.2","10","-2.3","10","","","NA","","","NA","","","","","NA","332.3","0.0"
"-126.123","67.021","COLVILLE LAKE","2200824","NT","8.3","0","NA","19.3","0","-1.3","0","","","NA","76.0","0","NA","","13","","","NA","299.7","0.0"
"-123.433","65.209","DELINE CS","2201022","NT","10.6","1","NA","22.7","1","-0.8","1","","","NA","","","NA","","","","","NA","222.9","0.0"
"-124.468","61.257","DEADMEN VALLEY","22010H0","NT","14.8","7","NA","28.3","7","0.5","7","","","NA","45.4","7","NA","","7","","","NA","86.1","10.3"
"-128.644","66.242","FORT GOOD HOPE CS","2201450","NT","11.8","0","NA","23.2","0","0.6","0","","","NA","64.2","0","NA","","12","","","NA","192.5","0.6"
"-123.467","60.233","FORT LIARD","2201579","NT","16.0","1","NA","30.2","1","4.2","1","","","NA","","","NA","","","","","NA","86.6","25.4"
"-117.602","61.317","FORT PROVIDENCE","2201799","NT","14.9","1","NA","32.0","1","2.7","1","","","NA","","","NA","","","","","NA","105.9","12.5"
"-109.168","62.711","FORT RELIANCE (AUT)","2201903","NT","12.9","5","NA","24.3","5","2.8","5","","","NA","46.2","5","NA","","7","","","NA","132.4","0.0"
"-121.237","61.760","FORT SIMPSON CLIMATE","2202102","NT","14.6","1","NA","30.4","1","3.0","1","","","NA","24.5","1","NA","","4","","","NA","112.9","11.2"
"-121.237","61.760","FORT SIMPSON A","2202103","NT","14.8","1","NA","30.5","0","3.0","1","0.0","0","NA","30.4","0","NA","","4","","","NA","110.7","13.2"
"-111.962","60.020","FORT SMITH A","2202201","NT","14.4","0","NA","27.9","0","-0.7","0","0.0","0","NA","5.0","0","NA","","1","","","NA","123.9","13.1"
"-111.929","60.026","FORT SMITH CLIMATE","2202202","NT","14.5","0","NA","28.3","0","-1.0","0","","","NA","18.0","0","NA","","6","","","NA","122.3","14.8"
"-105.133","63.600","HANBURY RIVER","2202351","NT","9.3","8","NA","21.3","8","-2.3","8","","","NA","33.2","8","NA","","6","","","NA","201.2","0.0"
"-115.783","60.840","HAY RIVER A","2202401","NT","14.5","0","NA","30.4","0","2.7","0","0.0","0","NA","9.6","0","NA","","4","","","NA","118.7","11.7"
"-115.777","60.839","HAY RIVER CLIMATE","2202402","NT","14.8","1","NA","30.3","1","3.5","1","","","NA","2.7","1","NA","","1","","","NA","109.1","13.5"
"-113.726","61.920","INNER WHALEBACKS","2202560","NT","13.5","5","NA","21.5","5","8.1","5","","","NA","27.2","5","NA","","6","","","NA","117.4","0.0"
"-133.517","68.317","INUVIK CLIMATE","2202578","NT","7.5","0","NA","18.2","0","-0.7","0","","","NA","60.0","0","NA","","14","","","NA","324.7","0.0"
"-117.245","63.134","LAC LA MARTRE","2202678","NT","13.1","0","NA","29.7","0","1.6","0","","","NA","","","NA","","","","","NA","154.2","1.8"
"-126.799","65.281","NORMAN WELLS A","2202801","NT","11.0","0","NA","22.3","0","-2.1","0","1.8","0","NA","102.4","0","NA","","17","","","NA","216.6","0.0"
"-126.753","65.288","NORMAN WELLS CLIMATE","2202810","NT","10.6","0","NA","22.7","0","-3.0","0","","","NA","94.7","0","NA","","14","","","NA","229.4","0.0"
"-124.083","69.358","PAULATUK","2203058","NT","5.1","4","NA","12.9","4","-1.2","4","","","NA","31.7","4","NA","","8","","","NA","348.9","0.0"
"-135.444","69.633","PELLY ISLAND","2203095","NT","5.3","4","NA","13.5","4","-0.8","4","","","NA","","","NA","","","","","NA","343.5","0.0"
"-127.209","61.963","RABBIT KETTLE","2203342","NT","14.7","10","NA","28.6","10","0.7","10","","","NA","","","NA","","","","","NA","77.5","7.2"
"-117.328","64.112","RAE LAKES","2203359","NT","12.4","1","NA","26.4","1","2.3","1","","","NA","47.9","1","NA","","11","","","NA","169.3","0.8"
"-133.017","69.433","TUKTOYAKTUK","2203914","NT","5.9","1","NA","15.8","1","0.4","1","","","NA","","","NA","","","","","NA","363.5","0.0"
"-122.359","69.199","TUKTUT NOGAIT","2203918","NT","3.5","21","NA","9.2","21","-3.9","21","","","NA","","","NA","","","","","NA","144.8","0.0"
"-114.440","62.463","YELLOWKNIFE A","2204101","NT","13.0","0","NA","23.2","0","4.1","0","0.0","0","NA","38.7","0","NA","","11","","","NA","157.0","0.8"
"-114.383","62.450","YELLOWKNIFE-HENDERSON","2204110","NT","17.1","0","NA","36.0","0","1.0","0","0.0","0","NA","7.5","0","NA","0.0","2","","","NA","66.0","39.5"
"-123.742","61.242","YOHIN","2204300","NT","15.2","8","NA","31.7","8","2.7","8","","","NA","","","NA","","","","","NA","76.8","12.2"
"-130.911","69.604","LIVERPOOL BAY","220B68C","NT","4.4","11","NA","14.7","11","-1.7","11","","","NA","","","NA","","","","","NA","271.4","0.0"
"-130.228","67.179","LITTLE CHICAGO","220B6Q3","NT","10.0","12","NA","20.4","12","1.7","12","","","NA","","","NA","","","","","NA","152.4","0.0"
"-122.851","61.125","LINDBURG LANDING","220N003","NT","14.8","5","NA","29.6","5","2.4","5","","","NA","41.6","5","NA","","7","","","NA","95.8","11.8"
"-133.502","68.746","TRAIL VALLEY","220N005","NT","6.7","5","NA","16.2","5","-3.9","5","","","NA","36.0","5","NA","","11","","","NA","294.5","0.0"
"-94.072","61.094","ARVIAT A","2300427","NU","9.7","1","NA","20.2","1","-0.1","0","","","NA","10.6","0","NA","","1","","","NA","249.1","0.0"
"-96.000","64.317","BAKER LAKE CLIMATE","2300501","NU","8.6","0","NA","20.3","0","0.8","0","","","NA","45.7","0","NA","","9","","","NA","292.1","0.0"
"-96.078","64.299","BAKER LAKE A","2300503","NU","8.9","2","NA","20.9","0","0.1","2","0.0","0","NA","42.0","0","NA","","7","","","NA","264.5","0.0"
"-108.015","66.838","BATHURST INLET","2300551","NU","8.8","12","NA","21.8","12","-0.4","12","","","NA","48.4","12","NA","","8","","","NA","175.7","0.0"
"-115.144","67.817","KUGLUKTUK A","2300903","NU","6.3","1","NA","17.5","0","-1.8","1","0.6","0","NA","45.8","0","NA","","12","","","NA","351.5","0.0"
"-115.135","67.817","KUGLUKTUK CLIMATE","2300904","NU","6.3","1","NA","17.6","1","-1.9","1","","","NA","48.6","1","NA","","10","","","NA","350.2","0.0"
"-83.359","64.193","CORAL HARBOUR A","2301002","NU","6.9","5","NA","17.6","1","-0.1","5","0.0","0","NA","94.0","0","NA","","15","","","NA","287.4","0.0"
"-83.350","64.183","CORAL HARBOUR RCS","2301010","NU","6.8","7","NA","17.4","7","-0.8","7","","","NA","67.7","7","NA","","8","","","NA","269.1","0.0"
"-100.884","61.132","ENNADAI LAKE (AUT)","2301102","NU","11.0","5","NA","23.6","5","1.3","5","","","NA","16.4","5","NA","","6","","","NA","181.7","0.0"
"-94.067","61.100","ARVIAT CLIMATE","2301153","NU","10.1","0","NA","24.1","0","0.1","0","","","NA","36.4","0","NA","","8","","","NA","245.8","0.8"
"-95.850","68.636","GJOA HAVEN A","2302337","NU","4.8","7","NA","9.8","7","-1.0","7","","","NA","13.6","7","NA","","4","","","NA","316.0","0.0"
"-95.850","68.636","GJOA HAVEN CLIMATE","2302340","NU","4.5","4","NA","9.9","4","-1.2","4","","","NA","21.0","4","NA","","5","","","NA","364.4","0.0"
"-100.087","68.318","HAT ISLAND","2302370","NU","5.1","11","NA","11.4","11","0.1","11","","","NA","","","NA","","","","","NA","258.4","0.0"
"-89.726","68.437","PELLY BAY","2303093","NU","3.3","1","NA","10.9","1","-2.3","0","","","NA","","","NA","","","","","NA","439.7","0.0"
"-89.796","68.538","KUGAARUK CLIMATE","2303094","NU","5.2","2","NA","13.5","2","-3.0","2","","","NA","19.1","2","NA","","4","","","NA","371.4","0.0"
"-92.115","62.811","RANKIN INLET A","2303405","NU","9.2","1","NA","20.5","0","2.0","1","0.0","0","NA","52.8","0","NA","","14","","","NA","264.8","0.0"
"-79.260","56.537","SANIKILUAQ","2303668","NU","7.6","7","NA","19.8","7","0.8","7","","","NA","45.8","7","NA","","6","","","NA","249.8","0.0"
"-93.433","68.817","SHEPHERD BAY A","2303685","NU","4.7","9","NA","13.1","9","-1.0","9","","","NA","","","NA","","","","","NA","291.6","0.0"
"-111.246","65.755","LUPIN CS","230N002","NU","6.9","7","NA","17.3","7","-2.4","7","","","NA","79.4","7","NA","","11","","","NA","266.7","0.0"
"-62.333","82.500","ALERT CLIMATE","2400305","NU","3.0","0","NA","15.6","0","-4.5","0","","","NA","17.6","0","NA","","4","","","NA","463.7","0.0"
"-62.333","82.500","ALERT UA","2400306","NU","","","NA","","","","","19.4","0","NA","13.2","0","NA","0.0","3","","","NA","",""
"-85.012","72.993","ARCTIC BAY CS","2400404","NU","3.5","4","NA","11.9","4","-0.7","4","","","NA","24.0","4","NA","","6","","","NA","392.7","0.0"
"-64.146","63.340","BREVOORT ISLAND","2400565","NU","4.8","19","NA","12.4","19","0.4","19","","","NA","","","NA","","","","","NA","158.9","0.0"
"-64.033","67.547","QIKIQTARJUAQ CLIMATE","2400573","NU","3.9","0","NA","16.9","0","-0.7","0","","","NA","","","NA","","","","","NA","438.6","0.0"
"-64.032","67.547","QIKIQTARJUAQ A","2400577","NU","4.2","5","NA","16.9","5","-0.7","5","","","NA","49.1","5","NA","","8","","","NA","359.5","0.0"
"-105.137","69.108","CAMBRIDGE BAY A","2400601","NU","5.3","0","NA","11.3","0","-1.5","0","0.4","0","NA","49.4","0","NA","","10","","","NA","395.1","0.0"
"-105.138","69.108","CAMBRIDGE BAY GSN","2400602","NU","5.3","3","NA","11.0","3","-1.3","3","","","NA","46.3","1","NA","","8","","","NA","355.7","0.0"
"-76.530","64.231","CAPE DORSET CLIMATE","2400636","NU","4.9","0","NA","12.2","0","0.4","0","","","NA","148.1","0","NA","","20","","","NA","407.4","0.0"
"-76.525","64.230","CAPE DORSET A","2400637","NU","5.0","4","NA","11.5","4","0.5","4","","","NA","144.2","4","NA","","19","","","NA","350.6","0.0"
"-78.293","73.668","CAPE LIVERPOOL","2400675","NU","1.8","5","NA","6.5","5","-1.3","5","","","NA","5.7","5","NA","","2","","","NA","420.8","0.0"
"-107.823","69.036","CAPE PEEL WEST","2400697","NU","5.4","10","NA","13.1","10","-1.3","10","","","NA","","","NA","","","","","NA","264.8","0.0"
"-68.517","70.483","CLYDE RIVER CLIMATE","2400802","NU","4.5","16","NA","14.0","16","-0.6","16","","","NA","18.2","16","NA","","3","","","NA","202.5","0.0"
"-68.517","70.486","CLYDE RIVER A","2400804","NU","4.7","4","NA","14.1","4","-0.7","4","","","NA","17.8","4","NA","","3","","","NA","358.0","0.0"
"-63.578","64.958","CAPE MERCY","2400F63","NU","3.8","29","NA","7.6","29","0.2","28","","","NA","","","NA","","","","","NA","28.5","0.0"
"-71.167","68.650","DEWAR LAKES","2401030","NU","3.6","10","NA","10.5","10","-0.9","10","","","NA","","","NA","","","","","NA","301.7","0.0"
"-85.934","79.989","EUREKA CLIMATE","2401199","NU","4.3","0","NA","11.9","0","-0.5","0","","","NA","0.7","0","NA","","0","","","NA","425.9","0.0"
"-85.812","79.994","EUREKA A","2401203","NU","5.2","1","NA","14.9","1","-1.4","0","0.0","1","NA","3.6","1","NA","","1","","","NA","383.4","0.0"
"-94.198","72.018","FORT ROSS","2402051","NU","3.4","6","NA","9.5","6","-1.0","6","","","NA","34.2","6","NA","","3","","","NA","365.6","0.0"
"-100.267","70.633","GATESHEAD ISLAND","2402332","NU","1.5","4","NA","9.1","4","-4.7","4","","","NA","17.5","4","NA","","3","","","NA","445.8","0.0"
"-82.902","76.423","GRISE FIORD CLIMATE","2402351","NU","2.9","6","NA","10.2","6","-1.7","6","","","NA","35.3","6","NA","","6","","","NA","378.0","0.0"
"-81.244","68.776","HALL BEACH CLIMATE","2402353","NU","4.3","0","NA","11.6","0","-0.7","0","","","NA","69.1","0","NA","","8","","","NA","425.5","0.0"
"-81.243","68.776","HALL BEACH A","2402354","NU","4.6","8","NA","11.7","8","0.8","8","","","NA","68.4","8","NA","","7","","","NA","307.2","0.0"
"-68.544","63.747","IQALUIT CLIMATE","2402592","NU","6.4","2","NA","14.6","2","0.7","2","","","NA","109.0","3","NA","","17","","","NA","335.2","0.0"
"-103.554","78.792","ISACHSEN (AUT)","2402604","NU","1.4","5","NA","9.1","5","-5.0","5","","","NA","14.3","5","NA","","4","","","NA","431.2","0.0"
"-65.711","66.143","PANGNIRTUNG","2403049","NU","7.2","1","NA","15.1","1","1.3","1","","","NA","147.0","1","NA","","17","","","NA","323.3","0.0"
"-77.958","72.693","POND INLET CLIMATE","2403204","NU","4.6","0","NA","10.9","0","-1.6","0","","","NA","21.8","0","NA","","5","","","NA","414.9","0.0"
"-77.969","72.689","POND INLET A","2403206","NU","4.5","4","NA","10.5","4","-1.1","4","","","NA","19.3","4","NA","","4","","","NA","363.3","0.0"
"-105.715","75.377","REA POINT","2403450","NU","1.5","5","NA","7.0","5","-2.4","5","","","NA","30.6","5","NA","","9","","","NA","427.8","0.0"
"-94.969","74.717","RESOLUTE BAY A","2403498","NU","1.4","0","NA","10.1","0","-4.1","0","0.8","0","NA","49.2","0","NA","","8","","","NA","513.4","0.0"
"-94.983","74.716","RESOLUTE CS","2403505","NU","1.5","0","NA","10.2","0","-4.0","0","","","NA","40.9","0","NA","","7","","","NA","511.2","0.0"
"-79.033","69.083","ROWLEY ISLAND","2403625","NU","3.8","16","NA","9.9","12","-0.7","16","","","NA","","","NA","","","","","NA","212.9","0.0"
"-105.296","73.766","STEFANSSON ISLAND","2403756","NU","1.1","5","NA","6.4","5","-3.4","5","","","NA","16.8","5","NA","","5","","","NA","439.8","0.0"
"-91.816","81.161","SVARTEVAEG","2403833","NU","1.6","0","NA","13.2","0","-3.3","0","","","NA","15.0","0","NA","54.0","4","","","NA","509.4","0.0"
"-93.577","69.547","TALOYOAK A","2403855","NU","4.8","1","NA","12.2","1","-1.5","1","0.8","0","NA","9.2","1","NA","","3","","","NA","395.8","0.0"
"-89.446","65.879","WAGER BAY (AUT)","2403945","NU","7.5","7","NA","14.8","7","2.3","7","","","NA","69.4","6","NA","","11","","","NA","251.8","0.0"
"-112.161","74.457","CAPE PROVIDENCE","2501419","NT","1.2","6","NA","10.1","6","-3.4","6","","","NA","30.7","6","NA","","5","","","NA","419.7","0.0"
"-117.800","70.761","HOLMAN CS","2502505","NT","3.7","0","NA","11.7","0","-1.1","0","","","NA","32.9","0","NA","","8","","","NA","443.9","0.0"
"-125.254","71.993","SACHS HARBOUR CLIMATE","2503648","NT","1.1","20","NA","9.0","20","-2.8","20","","","NA","1.6","20","NA","","1","","","NA","186.2","0.0"
"-119.538","73.231","THOMSEN RIVER","2503886","NT","2.1","9","NA","9.3","9","-2.9","9","","","NA","16.7","8","NA","","8","","","NA","350.1","0.0"
"-119.347","76.238","MOULD BAY CS","250M001","NT","0.8","6","NA","8.4","6","-3.2","6","","","NA","10.6","7","NA","","4","","","NA","430.3","0.0"
"-112.967","54.283","ABEE AGDM","3010010","AB","13.7","6","NA","29.7","6","-1.4","6","","","NA","36.8","6","NA","","6","","","NA","109.8","3.3"
"-111.181","53.113","ALBERT HALL AGCM","3010060","AB","16.0","0","NA","36.0","0","-0.4","0","","","NA","25.1","0","NA","","5","","","NA","84.1","23.2"
"-111.779","52.315","ALLIANCE AGCM","3010162","AB","17.0","0","NA","38.9","0","0.7","0","","","NA","14.5","0","NA","","5","","","NA","66.8","34.7"
"-112.279","53.917","ANDREW AGDM","3010237","AB","14.6","4","NA","30.4","4","2.9","4","","","NA","37.3","4","NA","","6","","","NA","101.2","9.7"
"-111.465","52.582","BELLSHILL AGCM","3010650","AB","16.4","9","NA","36.0","9","1.5","9","","","NA","20.7","8","NA","","3","","","NA","57.5","23.1"
"-110.101","52.124","BODO AGDM","3010730","AB","16.8","4","NA","37.0","4","1.2","4","","","NA","26.6","4","NA","","5","","","NA","66.1","35.0"
"-114.441","53.089","BRETON PLOTS","3010816","AB","15.1","0","NA","34.3","0","0.1","0","","","NA","47.0","0","NA","","9","","","NA","107.9","18.4"
"-113.922","53.931","BUSBY AGCM","3010979","AB","14.7","0","NA","33.8","0","-1.5","0","","","NA","45.3","0","NA","","9","","","NA","111.1","10.1"
"-110.510","52.334","CADOGAN AGCM","3010992","AB","16.8","0","NA","36.8","0","1.4","0","","","NA","18.9","1","NA","","4","","","NA","68.5","32.7"
"-113.863","53.290","CALMAR","3011120","AB","","","","28.0","30","7.5","30","0.0","30","NA","0.0","30","NA","","0","","","NA","",""
"-112.817","53.050","CAMROSE","3011240","AB","15.8","0","0.0","35.3","0","-0.1","0","","","NA","30.4","0","59.0","","6","","","NA","85.2","18.0"
"-110.713","51.937","CONSORT AGDM","3011815","AB","15.6","11","NA","31.7","11","-0.2","11","","","NA","10.8","11","NA","","2","","","NA","62.6","15.3"
"-111.449","52.074","CORONATION CLIMATE","3011887","AB","16.3","0","NA","37.9","0","-2.0","0","","","NA","6.4","0","NA","","2","","","NA","80.8","29.0"
"-113.903","52.733","CRESTOMERE AGCM","3011892","AB","15.2","0","NA","34.2","0","-2.0","0","","","NA","35.4","0","NA","","9","","","NA","104.4","19.1"
"-113.176","52.183","DELBURNE AGCM","3012050","AB","16.8","0","NA","37.8","0","1.7","0","","","NA","24.9","4","NA","","6","","","NA","72.2","33.7"
"-110.588","53.659","DEWBERRY AGCM","3012073","AB","15.7","0","NA","32.4","0","1.8","0","","","NA","44.5","0","NA","","6","","","NA","92.2","19.9"
"-110.433","52.778","EDGERTON AGCM","3012192","AB","15.9","7","NA","35.6","7","0.1","7","","","NA","15.5","7","NA","","4","","","NA","69.9","18.8"
"-113.606","53.307","EDMONTON INTERNATIONAL CS","3012206","AB","14.7","0","NA","32.7","0","-0.7","0","","","NA","67.6","0","NA","","12","","","NA","110.6","8.5"
"-113.517","53.573","EDMONTON BLATCHFORD","3012209","AB","16.9","0","NA","34.5","0","3.0","0","","","NA","41.4","0","NA","","9","","","NA","65.9","32.2"
"-113.579","53.310","EDMONTON INTL A","3012216","AB","14.7","0","NA","32.5","0","-0.4","0","0.0","0","NA","53.3","0","NA","","11","","","NA","109.0","8.2"
"-113.538","53.490","EDMONTON SOUTH CAMPUS","3012220","AB","16.8","0","NA","34.6","0","2.8","0","","","NA","53.2","0","NA","","9","","","NA","68.2","30.4"
"-113.856","53.668","EDMONTON VILLENEUVE A","3012229","AB","16.7","9","NA","33.8","9","3.2","7","","","NA","36.0","10","NA","","5","","","NA","43.8","15.6"
"-114.108","53.548","EDMONTON STONY PLAIN","301222F","AB","16.4","0","0.4","33.5","0","3.0","0","0.0","0","0.0","64.8","0","102.0","0.0","10","","","NA","73.6","25.3"
"-112.868","53.683","ELK ISLAND NAT PARK","3012275","AB","15.8","0","0.2","34.6","0","1.8","0","","","NA","30.7","0","58.0","","7","","","NA","89.7","22.9"
"-111.000","52.967","FABYAN","3012515","AB","16.3","0","0.4","35.0","0","0.0","0","0.0","0","0.0","27.4","0","45.0","0.0","7","","","NA","74.0","22.3"
"-112.858","52.744","FERINTOSH AGCM","3012590","AB","15.3","8","NA","36.9","8","-2.4","8","","","NA","9.0","8","NA","","4","","","NA","79.9","16.8"
"-111.813","52.041","FLEET AGCM","3012635","AB","16.5","0","NA","38.1","0","-0.6","0","","","NA","7.2","2","NA","","2","","","NA","75.2","27.3"
"-112.120","52.467","FORESTBURG PLANT SITE","3012652","AB","17.8","0","0.4","37.0","0","3.5","0","0.0","0","NA","12.4","0","22.0","0.0","3","","","NA","51.9","47.0"
"-112.123","52.548","FORESTBURG AGCM","3012653","AB","16.5","0","NA","37.8","0","0.4","0","","","NA","11.3","0","NA","","2","","","NA","73.0","26.8"
"-113.183","53.717","FORT SASKATCHEWAN","3012710","AB","18.4","7","2.4","35.0","7","5.0","7","0.0","7","NA","14.3","7","NA","0.0","4","","","NA","33.7","42.8"
"-110.621","53.071","GILT EDGE NORTH AGCM","3012790","AB","14.2","15","NA","30.0","15","1.8","15","","","NA","22.8","15","NA","","4","","","NA","65.0","4.8"
"-114.320","53.295","ST. FRANCIS","3012799","AB","16.0","0","NA","34.3","0","2.8","0","","","NA","62.5","0","NA","","9","","","NA","90.0","29.2"
"-112.278","52.987","GLADSTONE AGCM","3012810","AB","15.5","0","NA","36.9","0","-1.5","0","","","NA","21.0","0","NA","","8","","","NA","93.3","16.7"
"-114.539","53.833","GLENEVIS AGCM","3012818","AB","15.4","0","NA","33.5","0","1.1","0","","","NA","","","NA","","","","","NA","102.0","19.9"
"-110.803","52.113","GOOSEBERRY LAKE AGCM","3012871","AB","16.2","0","NA","38.1","0","-1.3","0","","","NA","37.2","15","NA","","5","","","NA","82.7","26.9"
"-112.164","52.116","HALKIRK AGCM","3012999","AB","16.1","0","NA","38.2","0","-0.9","0","","","NA","17.3","23","NA","","3","","","NA","83.3","24.5"
"-111.212","51.780","HEMARUKA AGCM","3013140","AB","16.8","0","NA","38.5","0","-1.2","0","","","NA","20.5","9","NA","","5","","","NA","74.0","36.7"
"-112.246","53.185","HOLDEN AGDM","3013340","AB","16.0","0","NA","36.1","0","1.5","0","","","NA","19.1","2","NA","","6","","","NA","83.6","20.9"
"-110.784","52.578","HUGHENDEN AGCM","3013362","AB","16.1","12","NA","30.3","12","0.3","12","","","NA","6.7","12","NA","","2","","","NA","47.3","10.9"
"-111.872","52.848","KILLAM AGDM","3013640","AB","16.1","0","NA","36.9","0","-1.4","0","","","NA","","","NA","","","","","NA","78.9","19.9"
"-111.548","53.047","KINSELLA RESEARC STATION","3013647","AB","15.7","0","NA","36.3","0","0.3","0","","","NA","25.4","0","NA","","5","","","NA","90.0","19.2"
"-110.416","53.353","KITSCOTY AGCM","3013660","AB","15.8","5","NA","33.7","5","3.2","5","","","NA","26.7","5","NA","","5","","","NA","79.6","23.0"
"-113.474","54.003","LEGAL AGCM","3013790","AB","15.3","0","NA","32.1","0","0.5","0","","","NA","33.9","0","NA","","7","","","NA","99.3","16.9"
"-110.579","53.943","LINDBERGH AGDM","3013921","AB","14.0","8","NA","30.3","8","0.4","8","","","NA","49.1","8","NA","","6","","","NA","97.6","5.7"
"-110.073","53.309","LLOYDMINSTER","3013959","AB","16.3","3","NA","31.6","3","2.7","3","","","NA","33.0","3","NA","","8","","","NA","69.5","21.8"
"-110.073","53.309","LLOYDMINSTER A","3013961","AB","16.0","0","0.1","32.0","0","3.0","0","0.0","0","0.0","31.3","0","52.0","0.0","7","","","NA","85.8","22.8"
"-112.267","53.083","HOLDEN SOUTH","3013C44","AB","","","NA","","","","","0.0","23","NA","18.0","23","NA","","3","","","NA","",""
"-111.255","53.456","MANNVILLE AGCM","3014195","AB","15.8","0","NA","33.8","0","2.4","0","","","NA","39.9","0","NA","","5","","","NA","88.9","20.6"
"-110.550","52.017","MONITOR","3014600","AB","","","NA","","","","","0.0","1","NA","20.6","1","NA","0.0","4","","","NA","",""
"-112.300","53.567","MUNDARE AGDM","3014665","AB","15.7","7","NA","33.3","7","3.3","7","","","NA","34.8","7","NA","","6","","","NA","73.9","17.5"
"-111.114","53.720","MYRNAM AGCM","3014690","AB","14.9","6","NA","35.8","6","-0.4","6","","","NA","45.1","6","NA","","6","","","NA","88.7","10.6"
"-113.165","53.262","NEW SAREPTA AGCM","3014795","AB","15.5","13","NA","33.5","13","-1.8","13","","","NA","27.4","13","NA","","6","","","NA","54.6","10.0"
"-113.350","53.650","OLIVER AGDM","3014921","AB","16.6","10","NA","34.2","10","3.3","10","","","NA","","","NA","","","","","NA","47.3","17.0"
"-112.879","53.995","RADWAY AGCM","3015346","AB","14.9","0","NA","32.0","0","1.5","0","","","NA","","","NA","","","","","NA","105.5","10.5"
"-111.726","53.425","RANFURLY AUTO","3015401","AB","16.1","0","NA","33.7","0","2.7","0","","","NA","30.1","0","NA","","6","","","NA","80.6","20.8"
"-110.343","52.587","RIBSTONE SOUTH AGCM","3015480","AB","15.8","9","NA","36.2","9","1.0","9","","","NA","20.9","8","NA","","6","","","NA","68.1","18.9"
"-110.102","53.019","RIVERCOURSE AGCM","3015501","AB","14.0","10","NA","27.2","10","1.5","10","","","NA","32.1","10","NA","","7","","","NA","85.5","2.4"
"-114.912","52.421","ROCKY MTN HOUSE (AUT)","3015523","AB","14.2","0","NA","34.3","0","-0.3","0","","","NA","34.9","0","NA","","9","","","NA","126.5","7.7"
"-112.428","52.780","ROSALIND AGCM","3015600","AB","16.3","0","NA","38.2","0","-0.6","0","","","NA","7.9","0","NA","","4","","","NA","78.4","26.6"
"-111.453","54.282","ST. LINA AGCM","3015673","AB","15.2","9","NA","32.5","9","3.8","9","","","NA","38.2","9","NA","","4","","","NA","78.2","16.3"
"-111.272","54.011","ST. PAUL AGCM","3015676","AB","15.5","0","NA","30.9","0","4.1","0","","","NA","34.7","19","NA","","6","","","NA","95.3","19.3"
"-110.755","51.590","SEDALIA AGCM","3015797","AB","17.5","0","NA","39.0","0","0.3","0","","","NA","18.9","2","NA","","7","","","NA","63.3","47.0"
"-112.539","53.333","SHONTS AGCM","3015900","AB","15.6","0","NA","35.5","0","0.6","0","","","NA","37.0","0","NA","","10","","","NA","92.4","17.7"
"-112.499","54.278","SMOKY LAKE AGDM","3016022","AB","15.1","0","NA","31.6","0","2.8","0","","","NA","49.0","0","NA","","7","","","NA","109.0","17.6"
"-111.683","51.816","SPONDIN AGCM","3016070","AB","16.6","0","NA","38.4","0","-1.7","0","","","NA","14.6","18","NA","","3","","","NA","75.3","32.9"
"-112.596","52.347","STETTLER AGDM","3016124","AB","16.6","5","NA","37.0","5","1.0","5","","","NA","20.2","5","NA","","4","","","NA","65.3","29.5"
"-113.895","53.217","THORSBY AGCM","3016441","AB","16.2","10","NA","34.8","10","-0.5","10","","","NA","27.2","10","NA","","4","","","NA","54.7","16.1"
"-114.718","53.439","TOMAHAWK AGDM","3016505","AB","14.7","0","NA","34.6","0","-0.2","0","","","NA","50.4","0","NA","","10","","","NA","114.7","12.5"
"-110.081","53.664","TULLIBY LAKE AGCM","3016593","AB","15.3","6","NA","32.9","6","2.7","6","","","NA","24.9","6","NA","","5","","","NA","85.0","17.5"
"-113.033","53.500","UNCAS","3016650","AB","","","NA","","","","","0.0","0","NA","57.6","0","NA","0.0","10","","","NA","",""
"-111.678","53.625","TWO HILLS AGDM","3016655","AB","15.6","4","NA","33.0","4","3.4","4","","","NA","30.0","4","NA","","5","","","NA","85.2","20.6"
"-110.882","53.344","VERMILION AGDM","3016802","AB","15.3","8","NA","33.8","8","1.9","8","","","NA","21.0","8","NA","","4","","","NA","78.9","16.4"
"-111.732","53.182","VIKING AGCM","3016841","AB","16.3","5","NA","34.8","5","2.4","5","","","NA","25.2","5","NA","","3","","","NA","68.4","24.8"
"-111.921","54.130","VILNA AGCM","3016852","AB","15.3","7","NA","31.8","7","1.8","7","","","NA","43.5","7","NA","","7","","","NA","80.6","15.4"
"-115.126","53.144","VIOLET GROVE CS","3016860","AB","15.1","0","NA","33.3","0","1.3","0","","","NA","47.7","0","NA","","8","","","NA","109.4","19.6"
"-112.098","53.505","VEGREVILLE","3016GF0","AB","15.4","0","-0.2","32.7","0","1.8","0","","","NA","37.1","0","72.0","","6","","","NA","97.4","15.8"
"-113.444","52.980","WETASKIWIN AGCM","3017282","AB","15.0","12","NA","35.0","12","-1.8","12","","","NA","28.9","12","NA","","5","","","NA","71.8","14.3"
"-111.224","51.491","YOUNGSTOWN AGCM","3017705","AB","17.3","0","NA","38.6","0","0.2","0","","","NA","25.1","0","NA","","8","","","NA","66.5","44.7"
"-114.108","53.547","EDMONTON STONY PLAIN CS","301A001","AB","15.7","0","NA","32.9","0","2.4","0","","","NA","53.7","0","NA","","10","","","NA","91.5","19.9"
"-110.206","51.670","ESTHER 1","301B460","AB","16.7","0","NA","37.0","0","-0.4","0","","","NA","27.8","0","NA","","5","","","NA","75.4","34.8"
"-113.533","53.517","UNIVERSITY OF ALBERTA METABOLIC CENTRE","301FFNJ","AB","17.2","0","1.3","35.0","0","2.0","0","0.0","0","NA","68.2","0","93.0","0.0","10","","","NA","60.0","34.3"
"-111.096","52.829","WAINWRIGHT CFB AIRFIELD 21","301S001","AB","16.7","0","NA","36.0","0","2.0","0","","","NA","39.7","0","NA","","7","","","NA","72.1","30.7"
"-110.317","51.066","ACADIA VALLEY","3020035","AB","17.8","0","NA","37.5","0","0.7","0","","","NA","51.4","0","NA","","5","","","NA","55.9","48.6"
"-111.006","50.810","ATLEE AGCM","3020405","AB","18.1","0","NA","38.3","0","2.2","0","","","NA","42.1","0","NA","","4","","","NA","53.6","58.2"
"-113.357","51.379","BEISEKER AGCM","3020610","AB","15.6","0","NA","37.9","0","-1.2","0","","","NA","35.3","2","NA","","8","","","NA","91.7","17.1"
"-112.803","51.998","BIG VALLEY AGCM","3020679","AB","16.7","0","NA","37.7","0","1.7","0","","","NA","16.0","0","NA","","3","","","NA","72.5","33.0"
"-110.686","50.798","BUFFALO AGCM","3020950","AB","18.4","0","NA","39.1","0","3.0","0","","","NA","47.7","0","NA","","6","","","NA","47.0","59.2"
"-111.221","51.024","CABIN LAKE AGCM","3021000","AB","17.3","5","NA","38.2","5","0.5","5","","","NA","5.5","26","NA","","2","","","NA","54.7","36.8"
"-110.797","51.067","CAPPON","3021200","AB","17.2","0","NA","38.1","0","-0.1","0","","","NA","27.4","3","NA","","4","","","NA","67.8","43.6"
"-110.824","51.276","CEREAL AGCM","3021463","AB","17.5","0","NA","38.7","0","0.6","0","","","NA","20.1","0","NA","","5","","","NA","60.8","44.4"
"-112.252","51.775","CRAIGMYLE AGCM","3021912","AB","16.8","0","NA","38.6","0","-0.5","0","","","NA","15.8","0","NA","","5","","","NA","71.7","35.8"
"-112.283","51.767","CRAIGMYLE","3021940","AB","16.6","1","0.5","38.5","1","-0.5","1","0.0","1","NA","12.8","1","NA","","4","","","NA","66.7","25.5"
"-112.677","51.445","DRUMHELLER EAST","30221LG","AB","17.9","0","NA","39.4","0","2.3","0","","","NA","19.6","0","NA","","5","","","NA","48.0","45.0"
"-112.097","51.053","FINNEGAN AGCM","3022650","AB","17.0","0","NA","39.2","0","-0.6","0","","","NA","3.2","25","NA","","1","","","NA","65.4","35.1"
"-112.135","51.453","HAND HILLS AGCM","3022990","AB","16.6","0","NA","37.2","0","-0.1","0","","","NA","14.0","0","NA","","5","","","NA","79.1","36.3"
"-114.486","52.310","HESPERO AGCM","3023200","AB","14.8","0","NA","36.1","0","-0.1","0","","","NA","21.2","0","NA","","8","","","NA","113.6","14.2"
"-112.500","51.183","HUSSAR AGDM","3023402","AB","17.1","0","NA","37.6","0","1.8","0","","","NA","17.7","0","NA","","5","","","NA","69.6","40.2"
"-110.359","51.913","KIRRIEMUIR AGCM","3023660","AB","17.1","0","NA","37.6","0","-0.5","0","","","NA","38.9","1","NA","","5","","","NA","69.8","41.0"
"-113.756","52.449","LACOMBE CDA 2","3023722","AB","15.7","0","NA","36.5","0","0.4","0","","","NA","36.7","0","NA","","8","","","NA","90.4","19.0"
"-114.473","52.553","LEEDALE AGDM","3023740","AB","14.0","0","NA","35.1","0","-1.0","0","","","NA","32.5","3","NA","","11","","","NA","129.9","6.6"
"-113.656","51.619","LINDEN AGCM","3023850","AB","15.1","0","NA","38.3","0","-0.3","0","","","NA","47.2","0","NA","","6","","","NA","102.5","13.3"
"-110.341","49.458","LODGE CREEK","3023900","AB","16.6","0","NA","38.3","0","-3.6","0","","","NA","1.1","0","NA","","0","","","NA","79.3","36.3"
"-112.675","51.660","MORRIN AGDM","3024668","AB","15.9","4","NA","37.7","4","0.4","4","","","NA","36.9","4","NA","","11","","","NA","77.4","21.9"
"-114.085","51.759","OLDS AGDM","3024925","AB","15.8","4","NA","35.8","4","2.0","4","","","NA","24.3","4","NA","","3","","","NA","80.6","21.7"
"-110.350","51.383","OYEN AGDM","3024965","AB","16.5","11","NA","37.5","11","0.7","11","","","NA","11.0","11","NA","","4","","","NA","54.8","24.0"
"-111.621","50.740","PATRICIA AGCM","3025013","AB","17.7","0","NA","40.0","0","1.9","0","","","NA","28.5","0","NA","","4","","","NA","56.8","47.5"
"-111.705","51.125","POLLOCKVILLE AGDM","3025243","AB","16.8","0","NA","39.0","0","-1.3","0","","","NA","25.7","0","NA","","7","","","NA","71.1","34.9"
"-113.600","52.433","PRENTISS","3025297","AB","16.1","4","NA","35.3","4","1.2","4","","","NA","35.9","5","NA","","8","","","NA","80.5","29.8"
"-113.894","52.182","RED DEER REGIONAL A","3025481","AB","15.3","0","NA","36.3","0","0.0","0","","","NA","","","NA","","","","","NA","98.9","15.8"
"-113.620","53.692","ST. ALBERT RESEARCH STATION","3025750","AB","15.0","0","NA","34.1","0","-0.7","0","","","NA","85.5","0","NA","","28","","","NA","104.2","12.2"
"-110.091","50.307","SCHULER AGDM","3025768","AB","18.2","0","NA","39.1","0","2.7","0","","","NA","65.1","1","NA","","4","","","NA","49.7","55.3"
"-111.646","51.463","SHEERNESS AGCM","3025890","AB","17.5","0","NA","37.4","0","0.9","0","","","NA","26.9","0","NA","","7","","","NA","61.0","45.5"
"-110.146","51.425","SIBBALD WESTGARD","3025928","AB","17.3","9","NA","37.0","9","0.5","9","0.0","9","NA","12.2","9","NA","","4","","","NA","46.1","30.8"
"-111.388","51.301","SUNNYNOOK AGCM","3026264","AB","16.5","0","NA","38.6","0","-2.6","0","","","NA","14.2","6","NA","","5","","","NA","78.8","31.4"
"-113.206","51.768","THREE HILLS","3026479","AB","15.8","0","NA","38.5","0","-1.9","0","","","NA","24.7","3","NA","","6","","","NA","85.3","18.1"
"-111.955","50.895","VERGER","3026800","AB","16.8","0","NA","39.0","0","0.6","0","","","NA","17.4","0","NA","","6","","","NA","69.8","32.7"
"-114.683","51.778","SUNDRE A","3026KNQ","AB","14.6","0","NA","37.2","0","-0.3","0","","","NA","32.4","0","NA","","7","","","NA","116.3","10.4"
"-113.591","51.936","WIMBORNE AGCM","3027582","AB","15.7","0","NA","36.5","0","-0.7","0","","","NA","29.0","0","NA","","6","","","NA","90.2","18.1"
"-113.434","49.528","ARDENVILLE","3030200","AB","17.8","0","NA","39.1","0","1.6","0","","","NA","25.0","4","NA","","6","","","NA","61.3","56.2"
"-114.013","50.512","AZURE","3030450","AB","16.8","0","NA","38.4","0","1.6","0","","","NA","25.0","10","NA","","4","","","NA","76.1","37.6"
"-112.300","49.800","BARNWELL AGDM","3030525","AB","18.2","6","NA","40.8","6","2.1","6","","","NA","27.5","6","NA","","2","","","NA","37.5","43.4"
"-113.224","50.026","BARONS AGCM","3030529","AB","17.3","0","NA","40.1","0","1.5","0","","","NA","23.7","0","NA","","3","","","NA","60.2","39.0"
"-112.465","50.893","BASSANO AGCM","3030540","AB","16.9","0","NA","39.7","0","0.0","0","","","NA","31.6","0","NA","","5","","","NA","67.0","34.3"
"-114.152","50.707","BLACK DIAMOND","3030680","AB","15.7","0","NA","38.2","0","0.3","0","","","NA","0.7","30","NA","","0","","","NA","88.8","18.0"
"-113.640","50.546","BLACKIE AGCM","3030690","AB","16.0","0","NA","39.2","0","0.3","0","","","NA","18.6","2","NA","","4","","","NA","81.4","19.5"
"-113.050","49.567","BLOOD TRIBE AGDM","3030720","AB","17.3","0","NA","40.0","0","0.0","0","","","NA","24.7","5","NA","","4","","","NA","66.3","43.8"
"-111.450","49.734","BOW ISLAND","3030768","AB","18.2","0","NA","39.5","0","1.4","0","","","NA","17.3","0","NA","","1","","","NA","43.6","49.3"
"-111.383","49.867","BOW ISLAND IRRIGATION AGDM","3030772","AB","18.5","0","NA","40.0","0","2.5","0","","","NA","19.6","0","NA","","1","","","NA","43.3","60.1"
"-113.817","49.617","BROCKET AGDM","3030830","AB","17.3","0","NA","39.0","0","-0.5","0","","","NA","11.5","8","NA","","5","","","NA","65.8","45.1"
"-110.484","50.339","BULL SPRINGS AGCM","3030879","AB","18.9","0","NA","39.6","0","2.0","0","","","NA","31.2","0","NA","","4","","","NA","40.5","68.7"
"-111.849","50.555","BROOKS","3030QLP","AB","17.7","0","NA","39.6","0","0.9","0","","","NA","16.5","0","NA","","3","","","NA","54.1","43.9"
"-114.013","51.123","CALGARY INTL A","3031092","AB","17.1","0","NA","36.5","0","3.4","0","0.0","0","NA","49.7","0","NA","","8","","","NA","66.7","38.2"
"-114.000","51.109","CALGARY INT'L CS","3031094","AB","16.8","1","NA","36.7","1","3.2","1","","","NA","39.7","1","NA","","7","","","NA","66.3","29.1"
"-113.286","49.201","CARDSTON","3031322","AB","17.7","0","NA","39.0","0","2.3","0","","","NA","46.9","0","NA","","3","","","NA","60.6","51.7"
"-113.376","49.001","CARWAY","3031402","AB","16.5","0","NA","36.3","0","1.3","0","","","NA","35.7","0","NA","","2","","","NA","83.0","37.9"
"-113.350","50.282","CHAMPION AGDM","3031480","AB","16.9","0","NA","40.2","0","1.0","0","","","NA","14.7","0","NA","","4","","","NA","70.3","37.0"
"-113.639","50.004","CLARESHOLM","3031640","AB","17.1","0","NA","39.7","0","1.0","0","","","NA","20.9","0","NA","","3","","","NA","64.4","37.6"
"-114.222","51.076","COP UPPER","3031875","AB","14.2","22","NA","30.8","22","2.1","22","","","NA","14.0","22","NA","","3","","","NA","41.3","6.7"
"-112.433","50.183","ENCHANT AGDM","3032422","AB","17.9","0","NA","40.6","0","2.6","0","","","NA","16.1","0","NA","","3","","","NA","48.6","46.1"
"-111.054","49.553","ETZIKOM AGCM","3032450","AB","18.2","1","NA","40.4","1","0.7","1","","","NA","13.9","7","NA","","2","","","NA","49.1","53.9"
"-112.033","49.800","FINCASTLE AGDM","3032550","AB","18.5","0","NA","40.6","0","2.1","0","","","NA","18.6","1","NA","","2","","","NA","41.8","57.2"
"-111.486","49.483","FOREMOST AGDM","3032642","AB","18.2","0","NA","40.2","0","0.8","0","","","NA","13.8","2","NA","","1","","","NA","50.8","55.5"
"-113.379","49.786","FORT MACLEOD AGCM","3032683","AB","17.6","0","NA","40.1","0","0.8","0","","","NA","7.7","17","NA","","2","","","NA","55.8","42.5"
"-112.941","50.934","GLEICHEN AGCM","3032801","AB","16.4","0","NA","38.3","0","1.4","0","","","NA","37.8","0","NA","","8","","","NA","72.8","23.3"
"-111.733","49.874","GRASSY LAKE","3032927","AB","18.5","0","NA","39.6","0","2.9","0","","","NA","15.7","2","NA","","1","","","NA","44.3","58.8"
"-112.733","49.900","IRON SPRINGS AGDM","3033498","AB","18.0","0","NA","39.7","0","2.0","0","","","NA","25.2","6","NA","","3","","","NA","48.8","49.0"
"-114.292","50.869","PRIDDIS OBSERVATORY","3033505","AB","16.5","10","NA","36.5","10","1.5","10","","","NA","16.8","10","NA","","3","","","NA","60.6","29.0"
"-110.261","49.989","IRVINE AGCM","3033550","AB","19.2","0","NA","39.9","0","1.8","0","","","NA","14.4","0","NA","","3","","","NA","34.3","72.3"
"-113.631","51.191","KEOMA AGCM","3033620","AB","15.8","0","NA","38.1","0","0.4","0","","","NA","24.9","0","NA","","6","","","NA","87.4","19.4"
"-112.299","50.600","LATHOM AGCM","3033770","AB","17.4","0","NA","40.1","0","1.8","0","","","NA","23.8","12","NA","","1","","","NA","60.7","41.6"
"-112.799","49.630","LETHBRIDGE","3033875","AB","18.0","2","NA","40.5","2","2.1","1","","","NA","21.5","2","NA","","3","","","NA","45.8","45.1"
"-112.763","49.647","LETHBRIDGE AGTECH AGCM","3033877","AB","17.8","0","NA","40.0","0","1.0","0","","","NA","4.3","18","NA","","2","","","NA","52.5","44.8"
"-112.768","49.695","LETHBRIDGE CDA","3033890","AB","16.0","20","NA","32.6","20","2.1","20","","","NA","17.8","5","NA","","1","","","NA","29.0","7.3"
"-112.783","49.700","LETHBRIDGE CDA 2","3033892","AB","","","NA","","","","","0.0","10","NA","13.4","10","NA","0.0","1","","","NA","",""
"-112.750","49.683","LETHBRIDGE DEMO FARM AGDM","3033897","AB","18.0","0","NA","38.9","0","1.8","0","","","NA","20.4","0","NA","","2","","","NA","47.5","46.6"
"-110.721","50.019","MEDICINE HAT","3034479","AB","19.9","4","NA","40.1","4","2.1","4","","","NA","1.7","4","NA","","1","","","NA","17.7","69.4"
"-110.717","50.025","MEDICINE HAT RCS","3034485","AB","19.3","0","NA","40.4","0","1.9","0","","","NA","11.4","0","NA","","2","","","NA","30.4","70.9"
"-113.349","50.673","MOSSLEIGH AGCM","3034577","AB","16.3","0","NA","39.2","0","0.2","0","","","NA","22.4","0","NA","","6","","","NA","77.8","24.9"
"-114.099","51.369","NIER AGDM","3034795","AB","15.6","0","NA","37.4","0","1.6","0","","","NA","26.3","0","NA","","7","","","NA","97.7","24.3"
"-113.997","49.521","PINCHER CREEK","3035198","AB","16.3","3","NA","36.9","3","2.2","1","","","NA","25.8","3","NA","","4","","","NA","72.4","23.7"
"-114.005","49.522","PINCHER CREEK CLIMATE","3035208","AB","16.5","0","NA","37.5","0","1.5","0","","","NA","23.9","0","NA","","3","","","NA","77.8","31.3"
"-112.983","50.606","QUEENSTOWN","3035340","AB","16.4","0","-0.8","39.5","0","-0.5","0","0.0","0","0.0","16.6","0","34.0","0.0","5","","","NA","81.7","31.9"
"-112.803","50.598","QUEENSTOWN","3035342","AB","17.7","6","NA","40.2","6","2.4","6","","","NA","18.3","6","NA","","2","","","NA","49.3","42.1"
"-112.117","50.367","RAINIER AGCM","3035355","AB","17.8","0","NA","40.1","0","2.0","0","","","NA","23.5","0","NA","","4","","","NA","51.3","44.1"
"-111.213","50.099","RALSTON AGCM","3035362","AB","19.0","0","NA","40.3","0","2.9","0","","","NA","10.9","0","NA","","1","","","NA","40.3","71.4"
"-112.683","49.483","RAYMOND AGDM","3035422","AB","18.1","0","NA","39.2","0","3.3","0","","","NA","17.3","4","NA","","1","","","NA","50.8","52.5"
"-111.701","50.265","ROLLING HILLS AGCM","3035530","AB","17.8","0","NA","40.0","0","2.0","0","","","NA","16.1","1","NA","","4","","","NA","51.6","44.8"
"-112.050","50.833","ROSEMARY AGDM","3035650","AB","16.6","0","NA","39.0","0","0.4","0","","","NA","29.5","0","NA","","5","","","NA","72.3","28.7"
"-110.917","49.917","SEVEN PERSONS AGDM","3035845","AB","18.4","0","NA","39.5","0","1.4","0","","","NA","14.0","0","NA","","2","","","NA","47.4","59.6"
"-110.215","50.732","SOCIAL PLAINS AGCM","3036040","AB","18.5","0","NA","38.7","0","2.1","0","","","NA","39.6","0","NA","","8","","","NA","44.5","58.8"
"-112.982","51.228","STANDARD AGCM","3036086","AB","17.6","0","NA","38.2","0","3.3","0","","","NA","22.8","1","NA","","7","","","NA","58.4","45.2"
"-113.883","50.183","STAVELY AAFC","3036099","AB","17.0","1","NA","37.1","1","3.7","1","","","NA","40.9","1","NA","","10","","","NA","79.5","49.1"
"-113.283","51.033","STRATHMORE AGDM","3036205","AB","17.0","0","NA","37.0","0","3.3","0","","","NA","28.5","3","NA","","7","","","NA","65.8","33.3"
"-112.124","49.792","TABER","3036360","AB","18.4","19","NA","33.0","15","3.5","14","0.0","14","NA","18.2","14","NA","0.0","3","","","NA","12.9","17.9"
"-111.321","50.456","TIDE LAKE AGCM","3036485","AB","17.9","0","NA","39.0","0","0.7","0","","","NA","45.4","0","NA","","3","","","NA","54.4","52.8"
"-112.863","50.304","TRAVERS AGCM","3036500","AB","18.3","0","NA","40.5","0","2.5","0","","","NA","22.4","0","NA","","7","","","NA","52.6","62.8"
"-112.133","50.050","VAUXHALL CDA CS","3036682","AB","17.9","0","NA","39.9","0","2.4","0","","","NA","16.8","0","NA","","2","","","NA","48.5","46.2"
"-112.117","49.500","WRENTHAM AGDM","3037675","AB","17.9","7","NA","35.5","7","1.8","7","","","NA","26.9","7","NA","","1","","","NA","45.9","42.6"
"-113.961","50.729","OKOTOKS","303M9JM","AB","17.7","0","1.5","38.5","0","2.5","0","0.0","0","0.0","27.6","0","45.0","0.0","5","","","NA","58.9","49.0"
"-112.788","49.871","PICTURE BUTTE WEST","303N1G3","AB","17.3","3","NA","36.0","2","0.0","2","0.0","2","NA","25.4","2","NA","0.0","4","","","NA","49.4","28.7"
"-112.817","49.050","DEL BONITA AGDM","3042045","AB","16.7","4","NA","37.3","4","0.2","4","","","NA","29.4","4","NA","","1","","","NA","73.0","37.4"
"-110.678","49.364","MANYBERRIES AGCM","3044203","AB","17.5","0","NA","39.4","0","-1.8","0","","","NA","8.0","2","NA","","2","","","NA","66.7","49.8"
"-111.652","49.137","MASINASIN AGDM","3044232","AB","18.6","0","NA","40.2","0","2.2","0","","","NA","16.0","5","NA","","1","","","NA","51.8","71.2"
"-112.050","49.133","MILK RIVER","3044533","AB","17.7","0","NA","40.7","0","-0.1","0","","","NA","30.7","0","NA","","2","","","NA","61.2","52.6"
"-110.467","49.117","ONEFOUR CDA","3044923","AB","18.7","0","NA","40.0","0","0.7","0","","","NA","9.5","0","NA","","2","","","NA","52.1","73.5"
"-111.126","49.225","PAKOWKI LAKE AGCM","3045000","AB","18.2","0","NA","40.0","0","0.2","0","","","NA","9.1","5","NA","","1","","","NA","53.6","61.1"
"-111.025","49.029","PINHORN AGCM","3045100","AB","18.3","0","NA","38.7","0","1.4","0","","","NA","26.7","1","NA","","3","","","NA","57.7","67.5"
"-112.160","49.283","WARNER AGCM","3046951","AB","18.4","0","NA","40.2","0","1.7","0","","","NA","30.0","1","NA","","2","","","NA","55.4","69.3"
"-115.552","51.193","BANFF CS","3050519","AB","14.5","1","NA","34.2","1","-0.4","1","","","NA","24.4","1","NA","","6","","","NA","117.0","10.7"
"-114.175","49.468","BEAVER MINES","3050602","AB","15.8","0","NA","37.2","0","0.2","0","","","NA","20.8","0","NA","","3","","","NA","95.0","25.7"
"-115.067","51.083","BOW VALLEY","3050778","AB","15.3","0","NA","36.7","0","-2.5","0","","","NA","33.2","0","NA","","5","","","NA","105.4","20.5"
"-114.482","49.628","CROWSNEST","3051R4R","AB","14.2","0","NA","35.7","0","-1.3","0","","","NA","9.6","3","NA","","4","","","NA","123.9","4.9"
"-118.030","52.926","JASPER WARDEN","3053536","AB","14.5","0","NA","34.1","0","-0.6","0","","","NA","60.2","0","NA","","9","","","NA","114.9","7.3"
"-115.035","51.028","KANANASKIS","3053600","AB","15.1","0","1.3","34.5","0","0.0","0","0.0","0","0.0","36.8","0","52.0","0.0","7","","","NA","103.5","13.4"
"-116.040","52.492","NORDEGG CS","3054843","AB","13.5","28","NA","25.6","28","5.9","28","","","NA","17.8","28","NA","","2","","","NA","13.6","0.0"
"-114.416","50.368","PEKISKO","3055119","AB","14.6","6","NA","36.0","6","-0.7","6","","","NA","29.2","7","NA","","4","","","NA","95.3","9.5"
"-113.809","49.131","WATERTON PARK GATE","3056214","AB","16.3","1","NA","34.5","1","-1.2","1","","","NA","0.0","29","NA","","0","","","NA","80.8","30.4"
"-115.190","50.943","NAKISKA RIDGETOP","305MGFF","AB","10.1","1","NA","24.7","1","-2.1","1","","","NA","","","NA","","","","","NA","241.4","2.9"
"-113.382","54.635","ATHABASCA AGCM","3060330","AB","15.6","0","NA","30.6","0","3.0","0","","","NA","35.1","0","NA","","8","","","NA","94.5","20.3"
"-112.825","54.782","ATMORE AGDM","3060406","AB","14.6","4","NA","31.3","4","2.3","4","","","NA","45.4","4","NA","","6","","","NA","103.2","10.8"
"-114.448","54.095","BARRHEAD CS","3060535","AB","15.0","0","NA","33.1","0","0.5","0","","","NA","54.0","0","NA","","9","","","NA","105.5","12.7"
"-117.867","53.350","BRULE BLACK CAT","3060903","AB","14.6","2","1.4","33.0","2","1.0","2","0.0","1","NA","60.1","1","NA","0.0","8","","","NA","104.3","6.9"
"-114.678","54.131","CAMPSIE AUTO","3061201","AB","14.6","0","NA","32.3","0","-0.1","0","","","NA","97.8","0","NA","","9","","","NA","113.9","8.6"
"-115.894","53.623","CARROT CREEK","3061350","AB","14.2","0","NA","31.9","0","1.3","0","","","NA","78.0","3","NA","","9","","","NA","122.9","3.9"
"-113.950","54.317","DAPP AGDM","3061975","AB","13.5","5","NA","30.5","5","-1.2","5","","","NA","30.3","5","NA","","7","","","NA","117.4","1.6"
"-116.465","53.579","EDSON","3062239","AB","14.7","2","NA","31.3","2","0.7","2","","","NA","60.1","2","NA","","10","","","NA","101.8","4.8"
"-116.453","53.580","EDSON CLIMATE","3062246","AB","14.9","0","NA","31.8","0","1.2","0","","","NA","58.8","0","NA","","11","","","NA","103.4","7.9"
"-114.983","53.600","ENTWISTLE","3062451","AB","15.7","0","0.2","34.5","0","2.0","0","0.0","0","NA","55.8","0","73.0","0.0","10","","","NA","92.2","19.4"
"-115.062","53.614","EVANSBURG2 AGCM","3062476","AB","13.8","0","NA","33.3","0","-1.6","0","","","NA","40.2","0","NA","","8","","","NA","133.6","4.4"
"-114.769","54.410","FORT ASSINIBOINE AGCM","3062660","AB","14.5","8","NA","30.9","8","0.6","8","","","NA","94.0","8","NA","","7","","","NA","89.7","8.2"
"-111.213","56.651","FORT MCMURRAY CS","3062696","AB","15.3","0","NA","29.6","0","2.7","0","","","NA","24.5","0","NA","","5","","","NA","107.2","22.0"
"-111.223","56.653","FORT MCMURRAY A","3062697","AB","16.4","3","NA","30.0","3","3.4","3","","","NA","21.7","3","NA","","5","","","NA","69.4","25.9"
"-118.447","53.795","HENDRICKSON CREEK","3063135","AB","11.2","0","NA","29.9","0","-3.0","0","","","NA","","","NA","","","","","NA","209.4","0.0"
"-113.543","54.821","ISLAND LAKE SOUTH","3063600","AB","15.3","0","NA","31.0","0","3.6","0","","","NA","40.9","0","NA","","6","","","NA","100.5","17.8"
"-112.981","54.563","KINIKINIK","3063640","AB","15.7","0","NA","31.5","0","3.0","0","","","NA","26.1","3","NA","","7","","","NA","91.9","21.0"
"-112.024","54.769","LAC LA BICHE CLIMATE","3063686","AB","15.7","0","NA","30.6","0","4.5","0","","","NA","40.2","0","NA","","7","","","NA","94.0","21.7"
"-111.559","57.041","MILDRED LAKE","3064528","AB","16.2","0","NA","29.4","0","3.3","0","","","NA","23.0","0","NA","","2","","","NA","92.9","36.4"
"-113.321","54.964","PLEASANT VIEW","3065200","AB","15.0","0","NA","30.1","0","3.5","0","","","NA","44.5","0","NA","","7","","","NA","109.0","14.9"
"-111.700","54.500","RICH LAKE AGDM","3065475","AB","14.0","0","NA","30.1","0","2.1","0","","","NA","56.0","0","NA","","8","","","NA","132.6","8.7"
"-111.835","53.851","ISPAS","3065712","AB","15.7","6","NA","31.5","6","4.9","6","","","NA","42.8","6","NA","","5","","","NA","76.1","18.8"
"-114.777","55.293","SLAVE LAKE","3065995","AB","16.1","7","NA","27.1","7","4.5","6","","","NA","35.3","7","NA","","5","","","NA","56.7","11.7"
"-114.777","55.293","SLAVE LAKE RCS","3065997","AB","15.0","0","NA","27.0","0","4.2","0","","","NA","51.0","0","NA","","8","","","NA","102.9","9.4"
"-113.520","54.300","TAWATINAW AGCM","3066367","AB","15.2","7","NA","31.6","7","1.4","7","","","NA","30.4","7","NA","","5","","","NA","78.1","9.7"
"-115.787","54.144","WHITECOURT A","3067373","AB","","","NA","31.5","0","","","","","NA","","","NA","","","","","NA","",""
"-118.348","53.386","WILLOW CREEK 1","306GE70","AB","12.0","4","NA","29.9","4","-3.5","4","","","NA","48.7","4","NA","","9","","","NA","163.3","0.0"
"-117.236","55.577","BALLATER AGCM","3070495","AB","15.1","1","NA","29.2","1","1.9","1","","","NA","39.6","0","NA","","7","","","NA","99.4","11.9"
"-119.396","55.197","BEAVERLODGE RCS","3070600","AB","14.7","2","NA","28.1","2","3.3","2","","","NA","101.7","2","NA","","7","","","NA","101.3","5.4"
"-117.886","56.118","BROWNVALE AGCM","3070800","AB","15.1","0","NA","28.9","0","0.8","0","","","NA","10.1","23","NA","","3","","","NA","101.4","11.3"
"-117.933","56.529","CLEAR HILLS AGCM","3071661","AB","14.5","0","NA","28.5","0","-1.0","0","","","NA","30.3","17","NA","","4","","","NA","114.7","7.3"
"-117.543","56.715","DEADWOOD AGCM","3071957","AB","15.5","0","NA","30.1","0","0.3","0","","","NA","23.7","0","NA","","6","","","NA","93.6","16.7"
"-117.887","55.808","EAGLESHAM AGCM","3072151","AB","14.8","0","NA","28.3","0","2.0","0","","","NA","41.0","0","NA","","6","","","NA","104.0","5.6"
"-110.439","58.981","EGG ISLAND","3072246","AB","16.7","25","NA","24.8","25","8.5","25","","","NA","","","NA","","","","","NA","16.3","8.4"
"-118.439","56.081","FAIRVIEW AGDM","3072525","AB","14.5","0","NA","29.2","0","1.5","0","","","NA","23.1","1","NA","","5","","","NA","113.7","3.7"
"-111.117","58.767","FORT CHIPEWYAN","3072655","AB","15.4","6","NA","28.5","6","-1.7","6","","","NA","7.7","6","NA","","3","","","NA","82.0","17.3"
"-111.117","58.767","FORT CHIPEWYAN RCS","3072659","AB","14.6","0","NA","28.6","0","-1.7","0","","","NA","13.0","5","NA","","3","","","NA","121.1","17.0"
"-116.040","58.382","FORT VERMILION","3072723","AB","15.5","0","NA","30.5","0","2.0","0","","","NA","18.7","0","NA","","5","","","NA","102.5","24.8"
"-118.885","55.180","GRANDE PRAIRIE A","3072921","AB","15.3","0","NA","28.3","0","3.4","0","0.0","0","NA","70.6","0","NA","","7","","","NA","92.6","9.9"
"-117.298","57.265","HAWK HILLS AGCM","3073071","AB","15.1","0","NA","29.3","0","0.3","0","","","NA","74.6","0","NA","","10","","","NA","105.0","15.8"
"-117.165","58.622","HIGH LEVEL","3073140","AB","14.9","0","NA","30.4","0","1.6","0","","","NA","40.4","0","NA","","11","","","NA","111.3","15.2"
"-117.165","58.621","HIGH LEVEL A","3073146","AB","15.0","1","0.6","30.5","1","1.5","1","0.0","1","NA","41.5","1","NA","0.0","8","","","NA","107.9","17.3"
"-117.120","55.913","JEAN COTE AGCM","3073535","AB","14.9","0","NA","28.2","0","3.9","0","","","NA","27.5","0","NA","","7","","","NA","105.2","8.0"
"-117.677","57.788","KEG RIVER AGCM","3073644","AB","14.8","0","NA","30.3","0","1.0","0","","","NA","62.3","20","NA","","8","","","NA","109.2","10.5"
"-116.343","58.172","LA CRETE AGCM","3073730","AB","15.9","0","NA","30.5","0","1.7","0","","","NA","12.6","0","NA","","3","","","NA","95.6","29.2"
"-119.255","55.422","LA GLACE AGCM","3073740","AB","14.0","0","NA","28.0","0","0.5","0","","","NA","52.3","0","NA","","5","","","NA","124.7","1.5"
"-117.451","56.974","MANNING AGDM","3074190","AB","15.5","0","NA","31.0","0","-0.2","0","","","NA","","","NA","","","","","NA","90.5","13.6"
"-119.745","56.314","CLEARDALE AGDM","3074935","AB","15.2","0","NA","28.7","0","1.3","0","","","NA","32.6","1","NA","","5","","","NA","97.7","11.3"
"-117.448","56.227","PEACE RIVER A","3075041","AB","15.1","0","NA","29.2","0","1.6","0","0.0","0","NA","21.6","0","NA","","6","","","NA","98.6","9.8"
"-118.293","55.621","PEORIA AGDM","3075160","AB","14.2","1","NA","28.9","1","0.0","1","","","NA","42.9","2","NA","","4","","","NA","118.0","3.7"
"-115.278","56.552","RED EARTH","3075488","AB","15.0","0","NA","28.8","0","2.2","0","","","NA","103.6","0","NA","","27","","","NA","107.1","14.7"
"-116.481","58.452","ROCKY LANE AGCM","3075550","AB","15.1","0","NA","30.7","0","1.2","0","","","NA","25.3","0","NA","","7","","","NA","110.2","20.5"
"-118.668","55.777","RYCROFT AGCM","3075601","AB","15.4","5","NA","29.5","5","3.0","5","","","NA","14.5","5","NA","","1","","","NA","80.9","13.9"
"-119.345","56.076","SAVANNA AGCM","3075770","AB","15.0","0","NA","27.6","0","0.0","0","","","NA","30.8","1","NA","","4","","","NA","102.5","10.9"
"-111.997","58.853","SWEETGRASS LANDING","3076330","AB","","","NA","","","","","","","NA","18.3","8","NA","","4","","","NA","",""
"-118.408","55.352","TEEPEE CREEK AGCM","3076366","AB","14.8","0","NA","28.6","0","0.9","0","","","NA","43.7","0","NA","","6","","","NA","104.6","4.5"
"-116.848","58.021","TOMPKINS LANDING AGCM","3076530","AB","15.5","0","NA","31.5","0","3.6","0","","","NA","23.3","4","NA","","6","","","NA","104.5","26.3"
"-117.199","55.098","VALLEYVIEW AGDM","3076680","AB","15.4","0","NA","29.5","0","3.7","0","","","NA","43.8","3","NA","","7","","","NA","95.6","14.3"
"-110.283","54.417","COLD LAKE A","3081680","AB","15.8","0","-0.4","30.1","0","4.1","0","0.0","0","0.0","54.6","0","97.0","","11","","","NA","88.6","19.7"
"-110.868","54.367","DUPRE AGCM","3081690","AB","15.0","0","NA","31.1","0","3.1","0","","","NA","59.0","0","NA","","8","","","NA","106.8","14.6"
"-104.710","50.201","BRATT'S LAKE CLIMATE","4010811","SK","17.7","0","NA","40.8","0","3.1","0","","","NA","27.2","0","NA","","5","","","NA","63.1","53.8"
"-102.571","50.368","BROADVIEW","4010879","SK","17.3","0","0.3","39.4","0","1.6","0","","","NA","6.9","0","11.0","","2","","","NA","70.2","47.5"
"-105.383","50.550","BUFFALO POUND LAKE","4010984","SK","18.5","0","NA","41.5","0","4.0","0","0.0","0","NA","25.4","0","NA","0.0","5","","","NA","44.6","61.4"
"-104.267","50.850","CUPAR","4011980","SK","18.0","4","0.6","40.5","2","1.0","3","0.0","1","NA","4.0","1","NA","0.0","3","","","NA","46.6","46.7"
"-104.867","51.183","DUVAL","4012300","SK","19.0","1","0.9","39.0","1","6.0","1","0.0","1","NA","18.2","1","NA","0.0","3","","","NA","43.5","74.5"
"-102.966","49.210","ESTEVAN A","4012401","SK","18.5","0","NA","38.5","0","1.8","0","0.0","4","NA","5.0","1","NA","","3","","","NA","53.1","68.8"
"-102.967","49.217","ESTEVAN","4012410","SK","18.5","0","NA","39.4","0","2.0","0","","","NA","2.8","0","NA","","1","","","NA","54.9","70.7"
"-103.650","50.550","INDIAN HEAD CDA","4013480","SK","17.6","0","0.2","40.3","0","0.8","0","","","NA","3.9","0","8.0","","1","","","NA","65.6","53.3"
"-103.753","51.257","KELLIHER","4013660","SK","18.2","0","1.3","38.5","0","4.5","0","0.0","0","NA","18.4","0","28.0","0.0","5","","","NA","47.6","54.6"
"-102.733","50.200","KIPLING","4014040","SK","18.1","0","1.0","38.0","0","4.0","0","0.0","0","NA","27.0","0","45.0","0.0","4","","","NA","53.9","56.6"
"-101.717","50.900","LANGENBURG","4014145","SK","17.7","6","0.9","36.0","6","2.5","6","0.0","6","NA","10.2","6","NA","","3","","","NA","38.9","31.0"
"-105.250","51.417","LAST MOUNTAIN CS","4014156","SK","17.1","2","-0.4","36.5","2","1.4","2","","","NA","17.7","2","NA","","3","","","NA","56.7","31.9"
"-104.633","52.000","LEROY","4014322","SK","17.0","0","-0.1","35.0","0","3.5","0","0.0","0","NA","30.6","0","49.0","0.0","4","","","NA","62.6","32.3"
"-103.889","51.152","LIPTON 2","4014481","SK","18.0","4","1.1","37.0","4","4.5","4","0.0","4","NA","7.0","4","NA","0.0","4","","","NA","43.9","43.8"
"-105.538","50.332","MOOSE JAW CS","4015322","SK","18.2","0","NA","42.3","0","1.6","0","","","NA","18.1","0","NA","","3","","","NA","54.3","60.7"
"-102.117","49.317","OXBOW","4015800","SK","17.0","9","NA","41.0","9","0.5","9","0.0","9","NA","8.4","9","NA","0.0","2","","","NA","47.1","26.0"
"-103.983","50.567","QU'APPELLE 1","4016322","SK","19.1","0","1.4","42.0","0","5.0","0","0.0","0","NA","9.5","0","16.0","0.0","4","","","NA","38.6","72.7"
"-104.667","50.433","REGINA RCS","4016699","SK","18.3","0","NA","41.3","0","1.8","0","","","NA","17.4","0","NA","","2","","","NA","53.7","61.7"
"-105.400","51.667","WATROUS EAST","4018642","SK","16.5","0","NA","36.0","0","1.3","0","","","NA","18.2","0","NA","","6","","","NA","72.9","26.7"
"-104.183","49.817","YELLOW GRASS NORTH","4019041","SK","17.9","1","NA","41.6","1","1.9","1","","","NA","7.7","1","NA","","2","","","NA","60.2","57.3"
"-102.464","51.265","YORKTON","4019073","SK","17.0","0","NA","34.3","0","0.4","0","","","NA","31.5","0","NA","","7","","","NA","76.1","44.0"
"-102.462","51.265","YORKTON","4019075","SK","18.1","4","NA","34.6","4","2.8","4","","","NA","21.1","4","NA","","3","","","NA","44.1","45.9"
"-104.200","51.767","WYNYARD (AUT)","40190LN","SK","16.9","0","NA","35.1","0","2.0","0","","","NA","22.9","0","NA","","5","","","NA","74.4","39.5"
"-103.800","49.700","WEYBURN","401HP5R","SK","18.5","0","NA","40.9","0","3.1","0","","","NA","1.9","0","NA","","1","","","NA","52.1","68.8"
"-106.848","51.289","CUTBANK","401JR89","SK","","","NA","","","","","","","NA","16.2","25","NA","","4","","","NA","",""
"-105.946","49.729","ASSINIBOIA AIRPORT","4020286","SK","18.3","0","NA","41.1","0","2.2","0","","","NA","15.6","0","NA","","3","","","NA","54.0","63.7"
"-107.311","50.832","BEECHY","4020560","SK","18.0","2","-0.4","41.0","2","0.0","2","0.0","2","NA","9.8","2","NA","0.0","5","","","NA","48.6","48.4"
"-106.583","51.133","ELBOW CS","4022359","SK","17.8","0","NA","38.5","0","3.8","0","","","NA","32.5","0","NA","","6","","","NA","53.5","47.0"
"-106.550","51.167","ELBOW 2 NE","4022363","SK","17.6","0","0.0","38.5","0","3.5","0","0.0","0","NA","19.4","0","43.0","0.0","4","","","NA","53.6","40.5"
"-107.150","50.950","LUCKY LAKE","4024714","SK","17.9","0","NA","39.9","0","2.9","0","","","NA","7.7","0","NA","","4","","","NA","54.3","50.2"
"-109.466","49.903","MAPLE CREEK","4024919","SK","18.3","2","NA","40.1","2","2.6","2","","","NA","29.6","2","NA","","1","","","NA","46.8","54.2"
"-107.263","51.154","ROCK POINT","4026847","SK","19.3","0","1.1","39.5","0","6.5","0","0.0","0","NA","12.4","0","33.0","0.0","5","","","NA","36.3","77.8"
"-107.800","50.600","STEWART VALLEY","4027775","SK","18.5","14","0.4","33.0","14","3.5","14","0.0","14","NA","11.7","14","NA","0.0","4","","","NA","20.9","28.6"
"-107.691","50.292","SWIFT CURRENT","4028038","SK","19.0","3","NA","39.8","3","5.2","3","","","NA","28.3","3","NA","","3","","","NA","38.9","66.7"
"-107.733","50.267","SWIFT CURRENT CDA","4028060","SK","18.5","0","0.3","40.1","0","3.4","0","","","NA","28.0","0","67.0","","2","","","NA","53.1","67.1"
"-109.501","50.909","LEADER AIRPORT","402DAF0","SK","17.9","0","NA","38.6","0","0.6","0","","","NA","17.0","0","NA","","3","","","NA","50.4","46.8"
"-105.483","49.050","CORONACH SPC","40318MN","SK","18.2","0","-0.2","40.1","0","1.4","0","","","NA","8.2","0","26.0","","2","","","NA","57.4","64.8"
"-109.514","49.641","CYPRESS HILLS PARK","4031999","SK","17.4","0","NA","36.1","0","0.6","0","","","NA","38.5","0","NA","","2","","","NA","79.4","60.5"
"-108.989","49.438","EASTEND CYPRESS (AUT)","4032322","SK","17.8","0","NA","37.9","0","1.6","0","","","NA","18.8","0","NA","","1","","","NA","62.2","54.8"
"-107.024","49.099","MANKOTA","4034910","SK","18.4","6","0.0","40.3","6","3.3","6","","","NA","17.9","6","NA","","3","","","NA","43.8","54.4"
"-105.979","49.168","ROCKGLEN (AUT)","4036844","SK","19.0","2","NA","39.3","2","6.4","2","","","NA","15.0","2","NA","","3","","","NA","46.6","76.5"
"-107.586","49.058","VAL MARIE SOUTHEAST","4038412","SK","17.9","0","NA","40.9","0","-0.9","0","","","NA","24.2","0","NA","","3","","","NA","56.6","55.0"
"-108.407","51.294","BICKLEIGH","4040587","SK","17.7","6","-0.8","39.5","4","2.0","5","0.0","4","NA","25.2","4","NA","0.0","4","","","NA","45.9","37.7"
"-109.200","53.450","BUTTE ST PIERRE","4041000","SK","15.1","0","-0.5","32.5","0","-1.5","0","0.0","0","0.0","38.6","0","77.0","0.0","9","","","NA","103.3","14.0"
"-109.181","51.515","KINDERSLEY A","4043901","SK","17.1","0","NA","36.5","0","1.2","0","0.0","0","NA","17.6","0","NA","","5","","","NA","64.3","37.8"
"-108.256","52.772","NORTH BATTLEFORD RCS","4045607","SK","16.2","0","NA","37.3","0","0.4","0","","","NA","39.2","0","NA","","6","","","NA","88.2","32.5"
"-108.244","52.769","NORTH BATTLEFORD","4045695","SK","16.7","3","NA","37.4","3","0.9","3","","","NA","38.8","3","NA","","5","","","NA","70.9","33.5"
"-107.917","51.567","ROSETOWN EAST","4046884","SK","16.6","0","NA","39.1","0","1.0","0","","","NA","22.5","0","NA","","3","","","NA","73.2","30.9"
"-108.835","52.360","SCOTT CDA","4047240","SK","16.2","0","-0.3","36.7","0","0.1","0","","","NA","23.3","0","51.0","","5","","","NA","83.1","26.9"
"-107.767","52.317","SONNINGDALE","4047644","SK","17.0","5","NA","36.5","5","2.0","5","0.0","5","NA","13.4","5","NA","0.0","4","","","NA","49.2","23.9"
"-109.405","53.131","WASECA RCS","4048521","SK","16.1","1","NA","32.9","1","2.5","1","","","NA","29.7","1","NA","","4","","","NA","77.3","21.4"
"-105.783","52.850","HOEY","4053264","SK","","","NA","","","","","0.0","30","NA","4.4","30","NA","0.0","1","","","NA","",""
"-104.600","52.817","MELFORT","4055079","SK","15.8","1","NA","33.6","1","2.3","1","","","NA","43.2","1","NA","","6","","","NA","92.0","27.4"
"-107.050","51.483","OUTLOOK PFRA","4055736","SK","17.5","1","-0.5","37.4","1","4.1","1","","","NA","12.6","1","NA","","3","","","NA","55.7","39.4"
"-105.150","52.417","PILGER","4056121","SK","16.3","0","NA","34.8","0","2.8","0","","","NA","17.1","0","NA","","5","","","NA","80.1","26.7"
"-105.673","53.214","PRINCE ALBERT A","4056241","SK","15.1","0","NA","33.4","0","1.4","0","0.0","0","NA","42.2","0","NA","","9","","","NA","106.8","16.0"
"-105.677","53.210","PRINCE ALBERT GLASS FIELD","4056243","SK","15.4","2","NA","34.9","2","1.4","2","","","NA","34.9","2","NA","","7","","","NA","96.2","21.4"
"-106.719","52.174","SASKATOON RCS","4057165","SK","17.1","0","NA","38.2","0","1.6","0","","","NA","17.2","0","NA","","4","","","NA","66.6","38.0"
"-108.421","55.841","BUFFALO NARROWS (AUT)","4060983","SK","15.9","0","NA","34.1","0","3.0","0","","","NA","65.1","0","NA","","10","","","NA","93.6","28.1"
"-104.483","58.083","CIGAR LAKE","4061570","SK","12.9","2","-0.8","28.0","1","0.0","1","0.0","1","NA","55.3","1","NA","0.0","9","","","NA","154.0","5.5"
"-103.678","58.229","COLLINS BAY SK","4061620","SK","12.6","0","NA","28.2","0","-0.4","0","","","NA","34.0","0","NA","","6","","","NA","170.2","2.3"
"-103.700","58.183","COLLINS BAY CAMECO","4061632","SK","12.7","0","NA","28.5","0","-0.5","0","0.0","0","NA","45.0","0","NA","0.0","10","","","NA","170.3","5.8"
"-102.350","55.533","ISLAND FALLS (AUT)","4063605","SK","14.7","0","NA","29.4","0","0.3","0","","","NA","80.5","0","NA","","12","","","NA","116.4","15.3"
"-109.962","54.908","JIMMY LAKE AWOS","4063623","SK","15.2","0","NA","31.6","0","2.4","0","","","NA","60.5","1","NA","","6","","","NA","105.7","19.1"
"-105.600","57.250","KEY LAKE","4063753","SK","13.3","0","NA","30.8","0","-0.3","0","","","NA","50.2","0","NA","","9","","","NA","156.0","10.7"
"-105.617","57.250","KEY LAKE","4063755","SK","14.3","0","-0.4","30.5","0","1.0","0","0.0","0","0.0","64.9","0","97.0","0.0","11","","","NA","131.1","17.6"
"-105.618","57.256","KEY LAKE","4063757","SK","14.0","2","NA","31.0","2","1.3","2","","","NA","46.1","2","NA","","9","","","NA","129.2","14.1"
"-105.270","55.146","LA RONGE RCS","4064149","SK","15.6","0","NA","34.8","0","1.9","0","","","NA","68.0","0","NA","","9","","","NA","103.7","28.7"
"-105.267","55.151","LA RONGE A","4064155","SK","15.5","1","NA","35.6","1","1.0","0","0.0","1","NA","80.4","1","NA","","10","","","NA","98.6","24.5"
"-109.138","54.020","LOON LAKE RCS","4064620","SK","15.0","0","NA","30.7","0","1.4","0","","","NA","45.3","0","NA","","7","","","NA","105.6","13.0"
"-108.050","54.125","MEADOW LAKE A","4065057","SK","","","NA","32.3","0","","","","","NA","","","NA","","","","","NA","",""
"-103.283","56.333","SOUTHEND","4067655","SK","14.4","0","NA","29.1","0","2.3","0","","","NA","60.0","0","NA","","11","","","NA","121.4","10.6"
"-107.550","53.367","SPIRITWOOD WEST","4067723","SK","14.8","0","NA","32.3","0","1.9","0","","","NA","35.3","0","NA","","7","","","NA","114.6","13.9"
"-105.841","59.250","STONY RAPIDS","4067799","SK","12.8","5","NA","29.4","5","-2.0","4","","","NA","12.9","8","NA","","4","","","NA","139.0","4.6"
"-106.067","53.917","WASKESIU LAKE","4068559","SK","15.4","1","NA","32.6","1","1.7","1","","","NA","13.9","1","NA","","4","","","NA","96.9","19.1"
