"Long","Lat","Stn_Name","Clim_ID","Prov_or_Ter","Tm","DwTm","D","Tx","DwTx","Tn","DwTn","S","DwS","S%N","P","DwP","P%N","S_G","Pd","BS","DwBS","BS%","HDD","CDD"
"-123.742","48.935","CHEMAINUS","1011500","BC","5.5","0","NA","12.0","0","-3.0","0","3.8","0","NA","178.5","0","NA","0.0","18","","","NA","387.1","0.0"
"-124.052","48.829","LAKE COWICHAN","1012055","BC","5.4","16","1.9","12.0","12","0.0","12","0.0","11","NA","303.0","11","NA","","18","","","NA","189.0","0.0"
"-123.226","48.425","DISCOVERY ISLAND","1012475","BC","6.9","0","NA","11.3","0","0.8","0","","","NA","","","NA","","","","","NA","342.6","0.0"
"-123.439","48.432","ESQUIMALT HARBOUR","1012710","BC","6.5","0","NA","12.3","0","-1.5","0","","","NA","32.4","2","NA","","10","","","NA","356.3","0.0"
"-123.530","48.575","MALAHAT","1014820","BC","3.8","0","NA","10.0","0","-4.9","0","","","NA","78.6","4","NA","","16","","","NA","441.4","0.0"
"-123.561","48.374","METCHOSIN","1015105","BC","","","NA","","","","","0.0","20","NA","6.2","20","NA","","3","","","NA","",""
"-123.718","48.824","NORTH COWICHAN","1015628","BC","","","NA","","","","","4.4","0","31.0","140.2","0","72.0","3.0","17","","","NA","",""
"-123.719","48.824","NORTH COWICHAN","1015630","BC","4.9","0","NA","11.7","0","-7.5","0","","","NA","116.3","0","NA","","31","","","NA","405.3","0.0"
"-123.287","48.764","NORTH PENDER ISLAND","1015638","BC","6.1","3","NA","22.5","3","-3.0","3","3.4","3","NA","79.0","3","NA","2.0","15","","","NA","332.5","0.0"
"-123.419","48.622","SAANICHTON CDA","1016940","BC","6.0","5","1.2","11.0","3","-2.5","3","2.0","3","NA","70.7","3","NA","2.0","16","","","NA","311.4","0.0"
"-123.419","48.622","SAANICHTON CFIA","1016943","BC","5.9","0","NA","11.6","0","-2.8","0","","","NA","60.0","0","NA","","13","","","NA","374.1","0.0"
"-123.427","48.598","SAANICHTON MT NEWTON","1016RM0","BC","","","NA","","","","","2.0","0","19.0","68.2","0","44.0","0.0","16","","","NA","",""
"-123.128","48.775","SATURNA CAPMON CS","1017099","BC","5.0","0","NA","12.4","0","-3.7","0","","","NA","66.6","0","NA","","13","","","NA","403.5","0.0"
"-123.045","48.784","SATURNA ISLAND CS","1017101","BC","6.9","0","NA","13.4","0","0.0","0","","","NA","45.4","1","NA","","11","","","NA","345.4","0.0"
"-123.626","48.647","SHAWNIGAN LAKE","1017230","BC","4.2","0","0.8","11.0","0","-6.0","0","4.0","0","20.0","114.0","0","53.0","3.0","16","","","NA","427.4","0.0"
"-123.921","48.377","SHERINGHAM POINT","1017254","BC","7.2","0","NA","13.5","0","0.4","0","","","NA","94.4","1","NA","","19","","","NA","336.0","0.0"
"-123.305","48.457","VICTORIA UNIVERSITY CS","1018598","BC","5.8","0","NA","12.6","0","-4.1","0","","","NA","30.5","0","NA","","10","","","NA","376.8","0.0"
"-123.325","48.413","VICTORIA GONZALES CS","1018611","BC","6.4","0","NA","11.6","0","-2.1","0","","","NA","26.0","2","NA","","11","","","NA","361.1","0.0"
"-123.426","48.647","VICTORIA INTL A","1018621","BC","5.3","0","NA","12.2","0","-5.7","0","2.0","0","NA","69.4","0","NA","2.0","15","","","NA","394.7","0.0"
"-123.388","48.423","VICTORIA HARBOUR A","1018633","BC","6.6","0","NA","11.8","0","-2.2","0","","","NA","","","NA","","","","","NA","354.7","0.0"
"-124.160","49.350","BALLENAS ISLAND","1020590","BC","6.3","0","NA","10.6","0","0.0","0","","","NA","72.6","1","NA","","15","","","NA","364.2","0.0"
"-125.273","49.952","CAMPBELL RIVER A","1021261","BC","3.8","0","1.4","10.0","0","-8.5","0","5.6","0","24.0","223.0","0","103.0","0.0","19","","","NA","438.9","0.0"
"-125.273","49.952","CAMPBELL RIVER A","1021270","BC","3.7","0","NA","10.2","0","-8.4","0","","","NA","","","NA","","","","","NA","442.8","0.0"
"-125.195","49.998","CAPE MUDGE","1021330","BC","5.9","0","1.8","11.0","0","-2.5","0","0.0","0","0.0","221.6","0","97.0","0.0","25","","","NA","376.5","0.0"
"-125.446","50.333","CHATHAM POINT","1021480","BC","5.6","0","1.5","10.5","0","-1.5","0","0.0","0","0.0","275.4","0","93.0","0.0","23","","","NA","385.3","0.0"
"-124.900","49.717","COMOX A","1021830","BC","5.4","0","1.5","9.9","0","-4.3","0","2.0","0","17.0","171.9","0","100.0","0.0","20","","","NA","391.7","0.0"
"-123.811","49.209","ENTRANCE ISLAND","1022689","BC","6.2","0","NA","11.3","0","0.0","0","","","NA","61.8","2","NA","","12","","","NA","364.4","0.0"
"-125.993","50.454","FANNY ISLAND","1022795","BC","5.9","0","NA","10.8","0","-1.7","0","","","NA","204.4","2","NA","","24","","","NA","374.3","0.0"
"-124.512","49.353","LITTLE QUALICUM HATCHERY","1024638","BC","4.5","14","1.4","10.0","14","-7.0","14","1.6","14","NA","68.2","14","NA","0.0","10","","","NA","228.8","0.0"
"-123.870","49.054","NANAIMO A","1025365","BC","4.4","0","NA","10.8","0","-7.1","0","","","NA","","","NA","","","","","NA","420.4","0.0"
"-123.988","49.199","NANAIMO CITY YARD","10253G0","BC","","","NA","","","","","0.0","0","0.0","169.8","0","91.0","2.0","17","","","NA","",""
"-127.367","50.681","PORT HARDY A","1026271","BC","5.0","0","NA","10.9","0","-4.9","0","0.0","0","NA","131.5","0","NA","","15","","","NA","401.8","0.0"
"-124.394","49.337","QUALICUM BEACH AIRPORT","1026562","BC","5.0","0","NA","12.2","0","-6.5","0","","","NA","82.9","0","NA","","14","","","NA","404.2","0.0"
"-124.617","49.394","QUALICUM R FISH RESEARCH","1026565","BC","5.1","5","1.3","11.0","5","-5.0","5","2.2","5","NA","89.3","5","NA","2.0","16","","","NA","334.2","0.0"
"-125.304","50.016","QUINSAM RIVER HATCHERY","1026639","BC","4.6","2","1.8","10.5","2","-6.5","2","3.0","2","NA","258.4","2","NA","0.0","23","","","NA","388.6","0.0"
"-124.435","49.487","SISTERS ISLAND","1027403","BC","6.8","0","NA","12.4","0","0.0","0","","","NA","","","NA","","","","","NA","345.9","0.0"
"-123.809","49.209","ENTRANCE ISLAND","102BFHH","BC","6.9","18","NA","10.0","18","4.0","18","0.0","0","NA","122.2","0","NA","0.0","15","","","NA","144.9","0.0"
"-124.982","49.337","ALBERNI ROBERTSON CREEK","1030230","BC","4.1","0","2.1","11.5","0","-8.0","0","1.0","0","4.0","303.0","0","89.0","0.0","22","","","NA","430.8","0.0"
"-125.216","48.786","CAPE BEALE LIGHT","1031316","BC","6.9","0","1.0","12.0","0","-1.0","0","0.0","0","0.0","340.6","0","79.0","0.0","25","","","NA","345.5","0.0"
"-126.543","49.383","ESTEVAN POINT","1032730","BC","7.1","1","1.2","13.5","1","-1.0","1","0.0","1","NA","370.8","1","NA","0.0","24","","","NA","327.3","0.0"
"-126.543","49.383","ESTEVAN POINT CS","1032731","BC","6.5","6","NA","11.9","6","-0.9","6","","","NA","202.2","6","NA","","18","","","NA","287.8","0.0"
"-125.923","49.111","LENNARD ISLAND","1034600","BC","7.0","0","NA","11.0","0","0.0","0","0.0","0","0.0","337.0","0","74.0","0.0","26","","","NA","342.2","0.0"
"-124.655","48.859","NITINAT RIVER HATCHERY","1035612","BC","5.1","0","1.2","11.5","0","-5.0","0","3.0","0","22.0","444.9","0","75.0","3.0","25","","","NA","398.9","0.0"
"-126.617","49.600","NOOTKA LIGHTSTATION","1035614","BC","6.4","0","0.8","12.0","0","0.0","0","0.0","0","0.0","338.6","0","72.0","0.0","25","","","NA","359.9","0.0"
"-125.097","48.723","PACHENA POINT","1035940","BC","6.5","0","0.8","12.5","0","-2.5","0","0.0","0","0.0","434.1","0","104.0","0.0","25","","","NA","355.3","0.0"
"-127.653","50.534","QUATSINO","1036570","BC","5.4","4","1.0","10.0","4","-2.0","4","0.0","4","NA","208.4","4","NA","0.0","21","","","NA","340.3","0.0"
"-128.033","50.441","QUATSINO LIGHTSTATION","1036572","BC","7.0","0","1.0","11.0","0","0.0","0","0.0","0","0.0","340.4","0","99.0","0.0","26","","","NA","342.4","0.0"
"-124.927","49.317","PORT ALBERNI (AUT)","1036B06","BC","4.1","0","NA","11.1","0","-7.9","0","","","NA","237.2","0","NA","","19","","","NA","431.0","0.0"
"-128.908","50.821","SARTINE ISLAND (AUT)","1037090","BC","6.6","8","NA","10.1","8","3.4","8","","","NA","92.4","8","NA","","12","","","NA","262.7","0.0"
"-127.940","50.112","SOLANDER ISLAND (AUT)","1037553","BC","7.0","8","NA","12.4","8","2.4","8","","","NA","177.6","8","NA","","18","","","NA","252.2","0.0"
"-126.654","49.932","TAHSIS VILLAGE NORTH","1037899","BC","5.3","12","NA","10.0","12","-4.0","12","","","NA","348.8","16","NA","","15","","","NA","241.0","0.0"
"-125.773","49.082","TOFINO A","1038205","BC","6.4","0","1.1","11.5","0","-3.5","0","0.0","0","0.0","291.5","0","60.0","0.0","23","","","NA","359.9","0.0"
"-125.773","49.082","TOFINO A","1038210","BC","6.2","1","NA","11.6","1","-3.6","1","","","NA","","","NA","","","","","NA","354.3","0.0"
"-125.527","48.945","UCLUELET KENNEDY CAMP","1038332","BC","6.5","0","1.0","12.5","0","-4.0","0","0.0","0","0.0","371.8","0","74.0","0.0","25","","","NA","355.4","0.0"
"-126.779","50.053","ZEBALLOS MURAUDE CREEK","1039035","BC","4.7","2","NA","10.0","2","-5.0","2","0.0","2","NA","426.8","2","NA","0.0","21","","","NA","385.9","0.0"
"-123.402","49.360","BOWEN ISLAND SUNSET PARK","104091B","BC","","","NA","","","","","0.0","14","NA","201.6","14","NA","","13","","","NA","",""
"-123.541","49.386","GIBSONS GOWER POINT","1043152","BC","5.8","0","1.2","13.0","0","-2.5","0","6.2","0","70.0","212.0","0","113.0","1.0","21","","","NA","378.9","0.0"
"-123.913","49.468","MERRY ISLAND LIGHTSTATION","1045100","BC","6.5","0","1.1","13.0","0","0.0","0","1.0","0","19.0","115.2","0","85.0","1.0","19","","","NA","356.5","0.0"
"-123.299","49.488","HOWE SOUND - PAM ROCKS","10459NN","BC","6.0","8","NA","12.2","8","-1.0","8","","","NA","112.2","11","NA","","10","","","NA","276.7","0.0"
"-124.032","49.634","PENDER HARBOUR","1046115","BC","","","NA","","","","","4.6","0","NA","115.7","0","NA","1.0","19","","","NA","",""
"-123.496","49.526","PORT MELLON","1046332","BC","4.7","0","NA","11.0","0","-3.8","0","","","NA","117.6","12","NA","0.0","12","","","NA","411.9","0.0"
"-124.500","49.834","POWELL RIVER A","1046391","BC","4.5","0","1.0","11.0","0","-6.0","0","4.0","0","29.0","123.0","0","77.0","0.0","16","","","NA","417.7","0.0"
"-124.497","49.835","POWELL RIVER","1046392","BC","4.6","0","NA","11.5","0","-5.5","0","","","NA","112.2","0","NA","0.0","16","","","NA","414.6","0.0"
"-124.500","49.834","POWELL RIVER A","1046396","BC","4.2","0","NA","11.2","0","-6.2","0","","","NA","","","NA","","","","","NA","427.5","0.0"
"-123.715","49.458","SECHELT AUT","1047172","BC","5.1","0","NA","13.7","0","-4.5","0","","","NA","121.3","0","NA","0.0","17","","","NA","400.2","0.0"
"-123.161","49.783","SQUAMISH AIRPORT","10476F0","BC","2.9","1","NA","9.0","1","-7.5","1","","","NA","241.7","1","NA","","14","","","NA","454.4","0.0"
"-122.955","50.129","WHISTLER","1048898","BC","-0.1","16","2.1","3.5","12","-5.0","16","15.0","16","NA","16.6","16","NA","","5","","","NA","271.0","0.0"
"-132.772","53.316","KINDAKUN ROCKS (AUT)","1054222","BC","7.1","6","NA","11.0","6","2.8","6","","","NA","0.0","6","NA","","0","","","NA","273.2","0.0"
"-133.058","54.255","LANGARA","1054500","BC","5.5","0","1.5","11.5","0","0.0","0","0.0","0","0.0","156.4","0","76.0","0.0","20","","","NA","388.4","0.0"
"-133.058","54.255","LANGARA ISLAND RCS","1054503","BC","5.4","0","NA","11.3","0","0.2","0","","","NA","","","NA","","","","","NA","391.6","0.0"
"-132.125","54.027","MASSET A","1054929","BC","5.1","1","NA","10.1","1","-4.3","1","","","NA","","","NA","","","","","NA","388.3","0.0"
"-131.661","54.159","ROSE SPIT (AUT)","1056869","BC","5.3","0","NA","9.2","0","-3.3","0","","","NA","","","NA","","","","","NA","392.5","0.0"
"-131.813","53.249","SANDSPIT AIRPORT AUTO","1057051","BC","5.5","0","NA","12.0","0","-1.7","0","","","NA","166.3","0","NA","","22","","","NA","386.6","0.0"
"-131.814","53.254","SANDSPIT","1057052","BC","5.5","0","NA","11.7","0","-1.2","0","","","NA","157.0","0","NA","","21","","","NA","386.7","0.0"
"-127.864","51.604","ADDENBROKE ISLAND","1060080","BC","6.4","0","1.7","15.0","0","-1.0","0","0.0","0","0.0","227.6","0","56.0","0.0","26","","","NA","360.0","0.0"
"-128.157","52.185","BELLA BELLA","1060815","BC","4.2","0","NA","11.3","0","-7.6","0","","","NA","226.0","0","NA","","20","","","NA","427.1","0.0"
"-126.587","52.389","BELLA COOLA AIRPORT","1060844","BC","1.9","0","NA","8.2","0","-9.8","0","","","NA","87.3","0","NA","2.0","11","","","NA","498.3","0.0"
"-126.596","52.388","BELLA COOLA A","1060848","BC","2.0","0","NA","7.8","0","-9.9","0","","","NA","","","NA","","","","","NA","495.5","0.0"
"-128.524","52.643","BOAT BLUFF","1060901","BC","4.9","1","1.3","10.0","1","-2.5","1","1.8","1","NA","520.4","1","NA","2.0","28","","","NA","392.7","0.0"
"-130.638","53.493","BONILLA ISLAND","1060902","BC","6.2","0","1.2","11.0","0","-1.0","0","4.0","0","46.0","378.0","0","159.0","0.0","25","","","NA","365.3","0.0"
"-130.639","53.493","BONILLA ISLAND (AUT)","1060R0K","BC","6.2","7","NA","11.5","7","0.4","7","","","NA","294.8","7","NA","","22","","","NA","283.0","0.0"
"-127.471","52.187","CATHEDRAL POINT (AUT)","1061458","BC","4.4","6","NA","8.2","6","-1.9","6","","","NA","130.2","10","NA","","14","","","NA","340.0","0.0"
"-131.602","53.030","CUMSHEWA ISLAND","1062251","BC","6.7","6","NA","13.0","6","0.9","6","","","NA","","","NA","","","","","NA","283.5","0.0"
"-128.112","52.185","DRYAD POINT","1062544","BC","6.0","1","1.8","11.0","1","-1.0","1","0.0","1","NA","225.0","1","NA","0.0","25","","","NA","360.2","0.0"
"-127.835","51.247","EGG ISLAND","1062646","BC","","","","","","","","0.0","14","NA","123.0","14","NA","0.0","12","","","NA","",""
"-130.708","54.569","GREEN ISLAND","1063298","BC","5.0","2","1.7","8.5","2","-0.5","2","17.2","2","NA","324.0","2","NA","0.0","21","","","NA","377.7","0.0"
"-130.698","54.580","GREY ISLET (AUT)","1063303","BC","6.0","19","NA","8.8","19","3.9","19","","","NA","55.8","19","NA","","7","","","NA","143.8","0.0"
"-130.361","54.172","HOLLAND ROCK","1063496","BC","6.0","0","NA","11.3","0","-0.2","0","","","NA","115.4","3","NA","","17","","","NA","372.3","0.0"
"-128.407","52.270","IVORY ISLAND","1063690","BC","5.4","0","1.1","11.5","0","-2.5","0","0.0","0","0.0","238.6","0","80.0","0.0","26","","","NA","389.7","0.0"
"-127.943","53.563","KEMANO","1064020","BC","1.1","1","2.6","7.0","0","-9.0","1","10.6","0","18.0","190.5","0","76.0","12.0","22","","","NA","506.5","0.0"
"-128.634","54.054","KITIMAT FOREST AVE","1064324","BC","1.2","0","NA","7.5","0","-7.9","0","","","NA","155.2","0","NA","10.0","22","","","NA","521.5","0.0"
"-130.609","54.296","LUCY ISLAND LIGHTSTATION","1064728","BC","5.9","6","NA","10.0","6","0.3","6","","","NA","","","NA","","","","","NA","303.3","0.0"
"-128.719","52.262","MCINNES ISLAND","1065010","BC","6.4","0","1.7","11.0","0","0.5","0","0.0","0","0.0","205.4","0","68.0","0.0","26","","","NA","358.9","0.0"
"-130.445","54.286","PRINCE RUPERT","1066482","BC","4.6","0","NA","10.6","0","-4.3","0","","","NA","284.3","0","NA","","23","","","NA","414.6","0.0"
"-130.290","54.320","PRINCE RUPERT MONT CIRC","1066488","BC","","","NA","","","","","0.0","27","NA","182.4","27","NA","","4","","","NA","",""
"-129.983","55.933","STEWART A","1067748","BC","-0.3","0","NA","4.3","0","-8.6","0","","","NA","","","NA","","","","","NA","568.5","0.0"
"-128.625","54.502","TERRACE PCC","1068131","BC","2.2","9","4.2","6.5","9","-6.0","9","1.0","9","NA","77.2","9","NA","","13","","","NA","347.8","0.0"
"-128.578","54.469","TERRACE A","1068134","BC","0.5","0","NA","5.9","0","-8.7","0","23.4","0","NA","122.8","0","NA","3.0","21","","","NA","541.6","0.0"
"-130.880","54.295","TRIPLE ISLAND","1068250","BC","6.0","0","NA","9.0","0","1.0","0","2.6","0","NA","165.4","0","NA","0.0","21","","","NA","372.9","0.0"
"-128.682","54.044","KITIMAT HATCHERY","106D289","BC","0.6","26","NA","6.0","26","-7.5","26","2.0","26","NA","55.8","26","NA","","5","","","NA","87.2","0.0"
"-126.668","54.396","HOUSTON","1073615","BC","-2.9","6","NA","9.0","6","-19.0","6","7.0","10","NA","7.0","10","NA","23.0","3","","","NA","523.5","0.0"
"-127.183","54.825","SMITHERS","1077499","BC","-3.2","0","NA","6.1","0","-19.3","0","","","NA","20.5","0","NA","","6","","","NA","657.0","0.0"
"-127.189","54.824","SMITHERS AIRPORT AUTO","1077501","BC","-3.2","0","NA","6.2","0","-20.0","0","","","NA","18.2","0","NA","24.0","7","","","NA","657.5","0.0"
"-127.171","55.289","SUSKWA VALLEY","107G879","BC","-0.9","1","5.6","5.5","1","-16.5","1","51.8","1","NA","63.6","1","NA","44.0","18","","","NA","565.6","0.0"
"-122.738","50.302","PEMBERTON AIRPORT (WIND)","1086081","BC","-0.4","0","NA","4.5","0","-13.8","0","","","NA","","","NA","","","","","NA","571.8","0.0"
"-122.734","50.306","PEMBERTON AIRPORT CS","1086082","BC","0.0","6","NA","4.9","6","-12.8","6","","","NA","46.1","6","NA","22.0","10","","","NA","449.0","0.0"
"-124.136","52.114","PUNTZI MOUNTAIN (AUT)","1086558","BC","-7.9","7","NA","6.8","7","-29.4","7","","","NA","12.1","7","NA","30.0","3","","","NA","622.2","0.0"
"-124.403","51.675","TATLAYOKO LAKE RCS","1088015","BC","-3.6","0","NA","6.8","0","-26.9","0","","","NA","","","NA","19.0","","","","NA","671.0","0.0"
"-121.515","53.069","BARKERVILLE","1090660","BC","-4.7","1","2.8","6.0","1","-26.5","1","78.4","1","NA","93.7","1","NA","","14","","","NA","682.0","0.0"
"-125.959","54.383","BURNS LAKE DECKER LAKE","1091174","BC","-5.6","0","NA","5.7","0","-29.5","0","","","NA","23.2","0","NA","37.0","7","","","NA","732.3","0.0"
"-124.286","54.455","FORT ST JAMES AUTO","1092975","BC","-3.6","0","NA","8.0","0","-24.2","0","","","NA","29.3","0","NA","15.0","7","","","NA","668.5","0.0"
"-124.293","54.459","FORT ST JAMES GOLF CLUB","1092977","BC","-2.5","2","NA","7.8","2","-24.1","2","","","NA","27.4","2","NA","","8","","","NA","594.7","0.0"
"-122.286","52.531","MCLEESE LAKE GRANITE MT","1095018","BC","-2.2","14","NA","10.0","9","-25.0","10","67.2","9","NA","100.8","9","NA","71.0","9","","","NA","344.2","0.0"
"-122.678","53.884","PRINCE GEORGE","1096439","BC","-4.1","0","NA","6.1","0","-27.4","0","","","NA","20.5","0","NA","","7","","","NA","686.3","0.0"
"-122.672","53.889","PRINCE GEORGE AIRPORT AUTO","1096453","BC","-4.0","0","NA","6.3","0","-27.2","0","","","NA","34.1","0","NA","25.0","10","","","NA","681.2","0.0"
"-122.791","53.900","PRINCE GEORGE MASSEY AUTO","1096454","BC","-2.5","0","NA","7.9","0","-22.4","0","","","NA","52.5","0","NA","28.0","11","","","NA","636.5","0.0"
"-122.510","53.026","QUESNEL","1096629","BC","-3.4","0","NA","9.8","0","-25.6","0","","","NA","29.1","0","NA","","5","","","NA","663.6","0.0"
"-122.506","53.027","QUESNEL AIRPORT AUTO","1096631","BC","-3.5","0","NA","9.7","0","-25.8","0","","","NA","53.0","0","NA","34.0","9","","","NA","665.3","0.0"
"-121.686","52.184","SPOKIN LAKE 4E","1097646","BC","-5.1","0","2.5","6.5","0","-29.0","0","36.0","0","99.0","57.6","0","126.0","40.0","14","","","NA","716.5","0.0"
"-122.054","52.183","WILLIAMS LAKE A","1098941","BC","-3.1","2","NA","7.4","2","-23.0","2","32.8","0","NA","39.9","0","NA","11.0","6","","","NA","611.8","0.0"
"-122.360","49.025","ABBOTSFORD A","1100031","BC","4.8","0","NA","12.1","0","-6.9","0","0.0","0","NA","127.3","0","NA","1.0","20","","","NA","409.7","0.0"
"-122.360","49.025","ABBOTSFORD A","1100032","BC","4.8","0","NA","12.1","0","-6.9","0","","","NA","","","NA","","","","","NA","409.7","0.0"
"-121.760","49.243","AGASSIZ RCS","1100119","BC","4.7","0","1.3","10.9","0","-4.4","0","","","NA","94.2","0","NA","","13","","","NA","412.0","0.0"
"-121.760","49.243","AGASSIZ CDA","1100120","BC","-1.5","30","-4.9","9.0","26","-4.0","27","11.0","26","NA","11.2","26","NA","11.0","2","","","NA","19.5","0.0"
"-122.955","50.129","WHISTLER - NESTERS","1100875","BC","-0.4","0","NA","5.9","0","-13.7","0","","","NA","104.5","1","NA","34.0","11","","","NA","570.7","0.0"
"-123.111","50.144","CALLAGHAN VALLEY","1101300","BC","-0.8","0","NA","7.1","0","-14.6","0","","","NA","257.7","0","NA","93.0","19","","","NA","582.7","0.0"
"-122.698","49.109","CLOVERDALE EAST","1101708","BC","6.3","9","NA","12.5","9","-0.5","9","0.0","9","NA","87.8","9","NA","","11","","","NA","256.4","0.0"
"-121.979","49.079","CULTUS LAKE","1102221","BC","3.8","0","NA","10.7","0","-6.8","0","","","NA","96.4","10","NA","","12","","","NA","441.1","0.0"
"-123.002","49.126","DELTA BURNS BOG","1102415","BC","4.7","0","NA","12.9","0","-8.1","0","","","NA","112.4","0","NA","","16","","","NA","410.9","0.0"
"-123.093","49.011","DELTA TSAWWASSEN BEACH","1102425","BC","6.4","0","1.3","13.0","0","-3.0","0","3.0","0","29.0","128.4","0","95.0","3.0","21","","","NA","358.5","0.0"
"-122.551","49.145","FORT LANGLEY TELEGRAPH TRAIL","1102912","BC","5.1","0","NA","12.0","0","-6.0","0","2.0","0","NA","122.4","0","NA","0.0","16","","","NA","399.9","0.0"
"-122.573","49.264","HANEY UBC RF ADMIN","1103332","BC","4.8","2","1.6","11.5","2","-6.0","2","1.2","2","NA","194.0","2","NA","0.0","22","","","NA","382.4","0.0"
"-122.271","49.153","MISSION WEST ABBEY","1105192","BC","4.3","0","1.0","10.5","0","-6.5","0","3.4","0","15.0","147.0","0","58.0","1.0","21","","","NA","425.9","0.0"
"-123.078","49.381","N VANC GROUSE MTN RESORT","1105658","BC","-0.2","1","0.1","6.0","1","-10.0","1","101.6","1","NA","268.4","1","NA","0.0","24","","","NA","546.4","0.0"
"-123.115","49.315","N VANCOUVER WHARVES","1105669","BC","","","NA","","","","","0.0","0","0.0","213.4","0","86.0","0.0","20","","","NA","",""
"-122.690","49.208","PITT MEADOWS CS","1106178","BC","5.0","0","NA","13.1","0","-6.0","0","","","NA","159.1","0","NA","","21","","","NA","402.7","0.0"
"-123.265","49.330","POINT ATKINSON","1106200","BC","6.4","0","NA","14.0","0","-1.7","0","","","NA","7.1","27","NA","","1","","","NA","358.6","0.0"
"-123.087","49.179","RICHMOND DALLYN 2","1106764","BC","","","NA","","","","","2.2","0","NA","140.8","0","NA","2.0","18","","","NA","",""
"-122.881","49.279","PORT MOODY GLENAYRE","1106CL2","BC","5.3","0","1.5","14.0","0","-5.5","0","4.0","0","22.0","210.5","0","74.0","0.0","23","","","NA","392.5","0.0"
"-123.093","49.171","RICHMOND NATURE PARK","1106PF7","BC","5.7","1","1.7","15.5","1","-8.0","1","2.4","1","NA","128.2","1","NA","","17","","","NA","369.1","0.0"
"-123.303","49.106","SANDHEADS CS","1107010","BC","6.2","0","NA","11.6","0","-1.4","0","","","NA","","","NA","","","","","NA","366.6","0.0"
"-122.110","49.113","SUMAS CANAL","1107785","BC","6.2","21","NA","14.0","14","-3.0","15","3.0","14","NA","117.0","14","NA","","15","","","NA","118.0","0.0"
"-123.187","49.183","VANCOUVER SEA ISLAND CCG","1108380","BC","5.5","0","NA","14.3","0","-5.6","0","","","NA","114.6","0","NA","","18","","","NA","386.5","0.0"
"-123.184","49.195","VANCOUVER INTL A","1108395","BC","5.4","0","NA","13.8","0","-5.9","0","2.8","0","NA","122.7","0","NA","2.0","20","","","NA","391.0","0.0"
"-123.122","49.295","VANCOUVER HARBOUR CS","1108446","BC","6.1","0","NA","13.8","0","-2.3","0","","","NA","154.1","0","NA","","18","","","NA","369.8","0.0"
"-123.193","49.347","WEST VANCOUVER AUT","1108824","BC","5.4","1","NA","13.5","1","-4.3","1","","","NA","218.2","1","NA","","18","","","NA","377.2","0.0"
"-122.947","50.068","WHISTLER ROUNDHOUSE","1108906","BC","-3.8","0","NA","4.5","0","-17.0","0","176.0","0","NA","216.0","0","NA","181.0","17","","","NA","675.1","0.0"
"-122.784","49.018","WHITE ROCK CAMPBELL SCIENTIFIC","1108910","BC","6.4","0","NA","14.4","0","-4.0","0","","","NA","78.6","3","NA","0.0","13","","","NA","360.9","0.0"
"-121.498","49.368","HOPE A","1113542","BC","3.2","3","NA","8.0","3","-6.6","3","","","NA","69.6","3","NA","","12","","","NA","414.6","0.0"
"-121.493","49.370","HOPE AIRPORT","1113543","BC","3.3","1","NA","8.1","1","-6.5","1","","","NA","67.4","1","NA","","13","","","NA","439.9","0.0"
"-121.233","49.267","HOPE SLIDE","1113581","BC","-0.1","0","1.7","7.0","0","-13.0","0","32.0","0","46.0","56.6","0","32.0","4.0","12","","","NA","561.0","0.0"
"-121.934","50.684","LILLOOET","1114619","BC","0.7","0","NA","7.3","0","-12.3","0","","","NA","13.4","21","NA","","6","","","NA","534.8","0.0"
"-121.582","50.224","LYTTON A","1114738","BC","1.5","0","NA","9.1","0","-11.6","0","","","NA","23.3","0","NA","","5","","","NA","511.7","0.0"
"-121.582","50.224","LYTTON RCS","1114746","BC","1.6","0","NA","10.1","0","-11.9","0","","","NA","22.7","2","NA","","6","","","NA","508.9","0.0"
"-120.333","49.673","JELLICOE","1123721","BC","-2.4","0","NA","8.5","0","-23.0","0","14.0","0","NA","21.8","0","NA","39.0","6","","","NA","632.8","0.0"
"-119.378","49.957","KELOWNA","1123939","BC","-0.9","0","NA","8.6","0","-14.9","0","","","NA","13.0","0","NA","","4","","","NA","586.0","0.0"
"-119.400","49.941","KELOWNA UBCO","1123996","BC","-0.3","0","NA","9.0","0","-13.5","0","","","NA","15.4","0","NA","0.0","5","","","NA","566.0","0.0"
"-120.778","50.113","MERRITT","1125073","BC","-1.4","0","NA","10.0","0","-16.9","0","","","NA","0.4","27","NA","","0","","","NA","600.4","0.0"
"-120.801","50.114","MERRITT STP","1125079","BC","-0.9","5","2.1","10.0","5","-15.0","5","0.0","5","NA","0.0","5","NA","","0","","","NA","490.9","0.0"
"-119.441","49.028","OSOYOOS CS","1125852","BC","0.6","0","1.5","10.7","0","-12.2","0","","","NA","31.1","0","NA","0.0","6","","","NA","538.9","0.0"
"-119.717","49.783","PEACHLAND","1126070","BC","1.5","0","1.7","11.0","0","-12.5","0","7.0","0","29.0","37.0","0","85.0","0.0","10","","","NA","512.7","0.0"
"-119.602","49.463","PENTICTON A","1126146","BC","0.8","1","NA","11.1","1","-12.2","1","2.8","0","NA","12.9","0","NA","","5","","","NA","516.5","0.0"
"-120.513","49.468","PRINCETON A","1126510","BC","-2.8","0","2.2","6.0","0","-21.0","0","4.0","0","12.0","2.2","0","6.0","28.0","1","","","NA","646.0","0.0"
"-120.513","49.468","PRINCETON A","1126518","BC","-3.1","0","NA","6.4","0","-20.9","0","","","NA","","","NA","","","","","NA","653.0","0.0"
"-119.194","50.223","VERNON AUTO","1128582","BC","-1.1","0","NA","6.8","0","-14.7","0","","","NA","21.6","0","NA","","7","","","NA","593.2","0.0"
"-119.056","50.359","VERNON SILVER STAR LODGE","1128584","BC","-4.8","0","NA","2.0","0","-21.0","0","131.2","0","NA","131.2","0","NA","162.0","19","","","NA","705.3","0.0"
"-120.510","49.465","PRINCETON CS","112FN0M","BC","-3.3","0","NA","6.5","0","-21.0","0","","","NA","3.4","0","NA","29.0","1","","","NA","660.9","0.0"
"-119.649","49.563","SUMMERLAND CS","112G8L1","BC","0.6","0","2.1","10.3","0","-12.6","0","","","NA","13.7","0","NA","0.0","5","","","NA","539.0","0.0"
"-118.772","49.004","MIDWAY","1135126","BC","-0.7","0","3.5","7.0","0","-17.5","0","15.0","0","50.0","43.4","0","116.0","19.0","14","","","NA","579.9","0.0"
"-118.228","49.017","BILLINGS","1140876","BC","-0.7","2","2.7","8.5","2","-14.5","2","6.8","2","NA","34.0","2","NA","20.0","12","","","NA","541.7","0.0"
"-117.633","49.296","CASTLEGAR A","1141455","BC","-0.1","0","1.5","5.5","0","-15.5","0","12.4","0","22.0","64.8","0","86.0","16.0","11","","","NA","560.3","0.0"
"-117.774","49.343","CASTLEGAR BCHPA DAM","1141457","BC","0.8","0","2.0","7.0","0","-17.0","0","6.0","0","18.0","43.6","0","66.0","2.0","16","","","NA","533.2","0.0"
"-117.633","49.296","CASTLEGAR A","1141460","BC","-0.5","0","NA","5.2","0","-14.7","0","","","NA","","","NA","","","","","NA","572.2","0.0"
"-116.972","50.239","DUNCAN LAKE DAM","1142574","BC","-0.8","0","2.2","5.5","0","-19.0","0","42.0","0","75.0","72.4","0","78.0","34.0","15","","","NA","581.3","0.0"
"-117.817","50.269","NAKUSP CS","1145297","BC","-0.5","0","NA","6.5","0","-14.5","0","","","NA","53.5","0","NA","23.0","11","","","NA","572.8","0.0"
"-117.206","49.586","NELSON NE","1145442","BC","0.8","0","NA","7.5","0","-9.5","0","4.0","0","NA","54.0","0","NA","18.0","12","","","NA","532.7","0.0"
"-117.370","49.996","NEW DENVER","1145460","BC","-0.4","0","1.4","5.5","0","-14.0","0","25.0","0","43.0","66.0","0","66.0","15.0","17","","","NA","569.7","0.0"
"-117.305","49.491","NELSON CS","1145M29","BC","0.8","0","NA","7.5","0","-10.7","0","","","NA","","","NA","1.0","","","","NA","533.5","0.0"
"-117.739","49.112","WARFIELD RCS","1148705","BC","-0.6","0","NA","4.7","0","-16.5","0","","","NA","64.1","0","NA","27.0","10","","","NA","576.6","0.0"
"-116.501","49.082","CRESTON CAMPBELL SCIENTIFIC","114B1F0","BC","-0.1","0","NA","6.7","0","-14.0","0","","","NA","29.8","0","NA","0.0","8","","","NA","561.4","0.0"
"-117.399","49.512","NELSON RIXEN CREEK","114EMDM","BC","-1.0","0","NA","7.5","0","-14.0","0","32.4","0","NA","74.4","0","NA","39.0","16","","","NA","588.6","0.0"
"-115.782","49.612","CRANBROOK A","1152105","BC","-5.1","2","NA","5.8","2","-29.7","2","34.6","0","NA","31.8","0","NA","42.0","4","","","NA","670.7","0.0"
"-115.789","49.618","CRANBROOK AIRPORT AUTO","1152106","BC","-4.6","0","NA","6.5","0","-28.0","0","","","NA","28.7","0","NA","40.0","4","","","NA","701.8","0.0"
"-115.073","49.489","FERNIE","1152850","BC","-2.4","13","2.7","6.5","13","-24.5","13","16.6","13","NA","18.4","13","NA","49.0","6","","","NA","367.8","0.0"
"-115.461","49.524","FT STEELE DANDY CRK","1153034","BC","-2.9","15","NA","5.0","9","-30.0","8","25.0","8","NA","25.0","8","NA","20.0","3","","","NA","333.6","0.0"
"-115.962","49.632","KIMBERLEY PCC","1154203","BC","-4.5","15","2.4","5.0","15","-30.0","15","24.0","15","NA","24.0","15","NA","35.0","2","","","NA","359.5","0.0"
"-114.884","49.745","SPARWOOD CS","1157631","BC","-4.1","4","NA","6.2","4","-27.8","4","","","NA","8.7","4","NA","18.0","3","","","NA","595.9","0.0"
"-114.883","49.833","SPARWOOD A","1157635","BC","-4.3","0","NA","6.2","0","-27.9","0","","","NA","","","NA","","","","","NA","692.8","0.0"
"-121.281","50.708","ASHCROFT","1160515","BC","-0.4","0","NA","9.1","0","-13.2","0","","","NA","4.0","26","NA","","1","","","NA","569.6","0.0"
"-119.290","52.129","BLUE RIVER A","1160899","BC","-3.5","2","3.8","3.0","2","-26.0","2","57.0","2","NA","85.8","2","NA","60.0","15","","","NA","622.1","0.0"
"-119.293","52.125","BLUE RIVER A","1160902","BC","-3.5","0","NA","3.0","0","-25.8","0","","","NA","","","NA","","","","","NA","667.2","0.0"
"-119.290","52.129","BLUE RIVER CS","1160H99","BC","-2.8","0","NA","5.6","0","-26.1","0","","","NA","80.9","0","NA","52.0","14","","","NA","646.3","0.0"
"-120.082","51.653","CLEARWATER AUTO","1161650","BC","-1.9","0","NA","7.5","0","-19.3","0","","","NA","","","NA","","","","","NA","616.1","0.0"
"-121.685","51.266","CLINTON A","1161662","BC","-5.1","0","NA","8.8","0","-25.8","0","","","NA","23.5","0","NA","","5","","","NA","715.9","0.0"
"-121.505","51.144","CLINTON RCS","1161663","BC","-3.6","0","NA","5.9","0","-23.1","0","","","NA","25.4","0","NA","35.0","5","","","NA","668.1","0.0"
"-120.449","50.703","KAMLOOPS A","1163781","BC","0.5","0","NA","9.7","0","-13.0","0","1.1","0","NA","5.3","0","NA","0.0","2","","","NA","543.8","0.0"
"-120.442","50.702","KAMLOOPS AUT","1163842","BC","0.6","0","NA","9.5","0","-12.7","0","","","NA","7.0","0","NA","","2","","","NA","538.4","0.0"
"-121.217","51.681","100 MILE HOUSE 6NE","1165793","BC","-4.2","0","NA","9.5","0","-26.0","0","24.2","0","NA","42.4","0","NA","23.0","8","","","NA","686.9","0.0"
"-119.778","51.576","VAVENBY","1168520","BC","-1.1","0","4.1","8.0","0","-17.5","0","18.6","0","68.0","38.4","0","97.0","7.0","11","","","NA","591.6","0.0"
"-120.172","50.630","KAMLOOPS PRATT ROAD","116C8P0","BC","-0.9","0","NA","7.0","0","-17.0","0","7.8","0","NA","18.2","0","NA","0.0","6","","","NA","584.6","0.0"
"-119.291","50.703","SALMON ARM CS","116FRMN","BC","-1.0","0","1.6","8.4","0","-15.8","0","","","NA","54.7","0","NA","10.0","11","","","NA","588.1","0.0"
"-116.982","51.299","GOLDEN A","1173210","BC","-4.4","0","3.6","3.5","0","-26.5","0","17.4","0","38.0","15.8","0","34.0","37.0","5","","","NA","693.6","0.0"
"-116.982","51.299","GOLDEN A","1173214","BC","-4.6","1","NA","3.6","1","-26.6","1","","","NA","","","NA","","","","","NA","677.8","0.0"
"-116.984","51.300","GOLDEN AIRPORT","1173220","BC","-3.9","1","NA","4.1","1","-25.3","1","","","NA","17.6","1","NA","30.0","7","","","NA","658.4","0.0"
"-118.585","52.053","MICA DAM","1175122","BC","-1.3","5","3.6","5.0","3","-19.0","2","113.0","3","NA","113.0","3","NA","110.0","13","","","NA","501.5","0.0"
"-118.183","50.967","REVELSTOKE A","1176745","BC","-1.7","0","NA","4.5","0","-17.3","0","","","NA","75.0","0","NA","","11","","","NA","609.5","0.0"
"-118.176","50.958","REVELSTOKE AIRPORT AUTO","1176755","BC","-1.5","0","NA","4.5","0","-16.9","0","","","NA","83.2","0","NA","74.0","15","","","NA","605.1","0.0"
"-116.345","51.443","YOHO PARK","11790J1","BC","-7.5","0","NA","2.8","0","-31.5","0","","","NA","1.5","0","NA","68.0","0","","","NA","790.4","0.0"
"-121.627","55.687","CHETWYND A","1181508","BC","-5.8","0","4.4","8.5","0","-22.0","0","36.4","0","133.0","19.0","0","90.0","26.0","8","","","NA","738.0","0.0"
"-121.627","55.687","CHETWYND A","1181513","BC","-6.3","3","NA","8.5","3","-22.2","3","","","NA","","","NA","","","","","NA","679.3","0.0"
"-120.183","55.742","DAWSON CREEK A","1182289","BC","-7.4","1","NA","8.9","1","-22.1","1","","","NA","13.9","2","NA","","3","","","NA","763.2","0.0"
"-120.740","56.238","FORT ST. JOHN A","1183001","BC","-6.6","0","NA","7.2","0","-21.8","0","26.4","1","NA","26.4","1","NA","16.0","6","","","NA","762.6","0.0"
"-120.750","56.248","FORT ST JOHN AIRPORT","1183002","BC","-6.6","0","NA","7.2","0","-21.5","0","","","NA","19.8","0","NA","26.0","5","","","NA","762.5","0.0"
"-123.133","55.299","MACKENZIE","1184791","BC","-5.2","0","NA","7.3","0","-29.8","0","","","NA","38.2","0","NA","","8","","","NA","718.5","0.0"
"-123.138","55.305","MACKENZIE AIRPORT AUTO","1184793","BC","-4.8","0","NA","7.4","0","-29.1","0","","","NA","74.7","0","NA","52.0","14","","","NA","707.9","0.0"
"-130.031","58.422","DEASE LAKE A","1192341","BC","-9.5","0","NA","4.9","0","-26.6","0","","","NA","19.3","0","NA","","4","","","NA","853.8","0.0"
"-122.597","58.836","FORT NELSON A","1192946","BC","-13.7","0","NA","8.3","0","-27.4","0","28.4","0","NA","30.1","0","NA","56.0","7","","","NA","983.4","0.0"
"-122.574","58.841","FORT NELSON","1192948","BC","-13.3","0","NA","8.0","0","-25.2","0","","","NA","24.3","0","NA","47.0","6","","","NA","971.0","0.0"
"-130.025","58.426","DEASE LAKE (AUT)","119BLM0","BC","-9.4","0","NA","5.1","0","-26.6","0","","","NA","17.7","0","NA","36.0","5","","","NA","848.8","0.0"
"-140.869","62.410","BEAVER CREEK A","2100155","YT","-21.0","0","NA","-7.8","0","-32.5","0","","","NA","","","NA","","","","","NA","1208.8","0.0"
"-139.040","61.371","BURWASH A","2100181","YT","-14.8","2","NA","2.4","2","-32.9","2","","","NA","0.0","2","NA","","0","","","NA","952.6","0.0"
"-139.017","61.367","BURWASH AIRPORT AUTO","2100184","YT","-15.1","5","NA","4.3","5","-33.0","5","","","NA","4.0","6","NA","29.0","1","","","NA","860.6","0.0"
"-136.192","62.115","CARMACKS CS","2100301","YT","-14.6","0","NA","5.7","0","-30.2","0","","","NA","14.1","0","NA","47.0","4","","","NA","1011.0","0.0"
"-139.130","64.042","DAWSON CITY A","2100407","YT","-15.0","1","NA","-1.8","1","-29.2","1","","","NA","","","NA","","","","","NA","989.3","0.0"
"-133.376","62.208","FARO (AUT)","2100518","YT","-11.5","0","NA","4.9","0","-25.8","0","","","NA","","","NA","","","","","NA","915.9","0.0"
"-133.373","62.207","FARO A","2100527","YT","-11.9","0","NA","4.7","0","-26.2","0","","","NA","","","NA","","","","","NA","925.4","0.0"
"-137.580","60.773","HAINES JUNCTION","2100630","YT","-11.6","19","NA","1.4","19","-22.0","19","","","NA","","","NA","","","","","NA","355.3","0.0"
"-140.150","69.164","IVVAVIK NAT. PARK","2100660","YT","-22.5","2","NA","-12.0","2","-35.2","2","","","NA","14.3","2","NA","38.0","3","","","NA","1173.8","0.0"
"-140.197","69.612","KOMAKUK BEACH","2100682","YT","-21.1","0","NA","-9.6","0","-32.6","0","","","NA","","","NA","","","","","NA","1210.9","0.0"
"-130.037","63.244","MACMILLAN PASS","2100693","YT","-12.0","3","NA","-0.3","3","-34.2","3","","","NA","25.7","3","NA","60.0","7","","","NA","840.8","0.0"
"-140.848","68.801","MARGARET LAKE","2100697","YT","-20.6","1","NA","-7.9","1","-33.1","1","","","NA","","","NA","43.0","","","","NA","1158.9","0.0"
"-135.868","63.616","MAYO A","2100701","YT","-12.7","0","NA","2.8","0","-30.5","0","18.9","0","NA","12.8","0","NA","31.0","5","","","NA","952.2","0.0"
"-135.869","63.617","MAYO A","2100702","YT","-12.7","0","NA","2.8","0","-30.5","0","","","NA","","","NA","","","","","NA","952.2","0.0"
"-139.839","67.571","OLD CROW RCS","2100805","YT","-20.6","4","NA","-13.1","4","-38.0","4","","","NA","20.2","4","NA","27.0","8","","","NA","1042.6","0.0"
"-139.840","67.570","OLD CROW A","2100807","YT","-20.7","3","NA","-13.2","3","-37.7","3","","","NA","","","NA","","","","","NA","1084.5","0.0"
"-137.050","61.033","OTTER FALLS NCPC","2100840","YT","-8.0","1","8.1","5.0","1","-21.0","1","7.0","1","NA","7.0","1","NA","0.0","2","","","NA","779.4","0.0"
"-137.367","62.817","PELLY RANCH FORT SELKIRK","2100881","YT","-16.1","2","NA","2.5","2","-31.8","2","","","NA","","","NA","58.0","","","","NA","988.6","0.0"
"-136.218","66.981","ROCK RIVER","2100935","YT","-18.8","4","NA","-7.5","4","-25.7","4","","","NA","","","NA","","","","","NA","994.2","0.0"
"-137.217","68.950","SHINGLE POINT A","2100950","YT","-21.7","0","NA","-12.6","0","-36.0","0","","","NA","","","NA","","","","","NA","1229.4","0.0"
"-139.127","64.061","DAWSON","2100LRP","YT","-14.9","0","NA","-1.5","0","-29.1","0","","","NA","55.8","0","NA","58.0","11","","","NA","1020.9","0.0"
"-132.733","60.167","TESLIN (AUT)","2101102","YT","-9.0","0","NA","6.2","0","-20.8","0","","","NA","17.2","0","NA","45.0","8","","","NA","836.7","0.0"
"-132.742","60.173","TESLIN A","2101106","YT","-8.9","0","NA","6.4","0","-20.1","0","","","NA","","","NA","","","","","NA","834.8","0.0"
"-128.823","60.116","WATSON LAKE A","2101201","YT","-12.2","5","NA","7.0","5","-25.4","5","","","NA","","","NA","","","","","NA","784.3","0.0"
"-128.823","60.116","WATSON LAKE A","2101202","YT","-12.6","1","NA","6.2","1","-26.0","1","","","NA","","","NA","","","","","NA","917.2","0.0"
"-128.832","60.116","WATSON LAKE (AUT)","2101204","YT","-12.3","0","NA","7.4","0","-25.9","0","","","NA","42.7","0","NA","48.0","11","","","NA","939.0","0.0"
"-135.067","60.709","WHITEHORSE A","2101303","YT","-7.8","0","NA","7.2","0","-21.6","0","","","NA","","","NA","","","","","NA","799.5","0.0"
"-135.098","60.733","WHITEHORSE AUTO","2101310","YT","-7.3","0","NA","5.8","0","-21.3","0","","","NA","3.6","0","NA","37.0","1","","","NA","784.4","0.0"
"-135.006","68.223","AKLAVIK A","2200105","NT","-22.7","0","NA","-11.5","0","-38.6","0","","","NA","","","NA","","","","","NA","1261.3","0.0"
"-124.717","70.167","CAPE PARRY A","2200675","NT","-22.3","0","NA","-10.7","0","-30.8","0","","","NA","","","NA","","","","","NA","1250.0","0.0"
"-126.123","67.021","COLVILLE LAKE","2200824","NT","-21.2","5","NA","-11.3","5","-37.4","5","","","NA","35.3","5","NA","","13","","","NA","1018.4","0.0"
"-126.129","67.021","COLVILLE LAKE A","2200827","NT","-22.7","7","NA","-12.2","7","-38.2","7","","","NA","4.1","1","NA","","2","","","NA","975.6","0.0"
"-123.433","65.209","DELINE CS","2201022","NT","-20.0","0","NA","-9.8","0","-34.6","0","","","NA","13.4","0","NA","29.0","4","","","NA","1178.3","0.0"
"-123.436","65.211","DELINE A","2201023","NT","-19.9","1","NA","-10.2","1","-34.7","1","","","NA","","","NA","","","","","NA","1137.5","0.0"
"-124.468","61.257","DEADMEN VALLEY","22010H0","NT","-16.6","0","NA","5.8","0","-38.0","0","","","NA","","","NA","36.0","","","","NA","1073.8","0.0"
"-128.648","66.241","FORT GOOD HOPE A","2201406","NT","-22.2","0","NA","-10.6","0","-38.2","0","","","NA","","","NA","","","","","NA","1245.7","0.0"
"-128.644","66.242","FORT GOOD HOPE CS","2201450","NT","-22.0","0","NA","-10.5","0","-37.8","0","","","NA","20.6","0","NA","58.0","8","","","NA","1241.4","0.0"
"-123.467","60.233","FORT LIARD","2201579","NT","-15.4","1","NA","10.7","1","-29.8","1","","","NA","8.8","1","NA","36.0","5","","","NA","1002.7","0.0"
"-123.470","60.236","FORT LIARD A","2201581","NT","-15.3","2","NA","10.6","2","-29.7","2","","","NA","","","NA","","","","","NA","964.3","0.0"
"-134.860","67.407","FORT MCPHERSON A","2201606","NT","-22.2","0","NA","-10.4","0","-36.2","0","","","NA","","","NA","","","","","NA","1246.2","0.0"
"-125.569","64.910","TULITA A","2201705","NT","-20.8","0","NA","-9.8","0","-33.7","0","","","NA","","","NA","","","","","NA","1203.5","0.0"
"-117.602","61.317","FORT PROVIDENCE","2201799","NT","-16.4","0","NA","-5.4","0","-28.5","0","","","NA","","","NA","","","","","NA","1065.6","0.0"
"-109.168","62.711","FORT RELIANCE (AUT)","2201903","NT","-19.5","5","NA","-3.9","5","-37.0","5","","","NA","","","NA","43.0","","","","NA","974.8","0.0"
"-113.690","61.181","FORT RESOLUTION A","2202010","NT","-15.8","0","NA","-3.6","0","-34.0","0","","","NA","","","NA","","","","","NA","1049.3","0.0"
"-121.237","61.760","FORT SIMPSON CLIMATE","2202102","NT","-17.3","0","NA","-7.0","0","-30.4","0","","","NA","11.5","0","NA","30.0","4","","","NA","1095.5","0.0"
"-121.237","61.760","FORT SIMPSON A","2202103","NT","-17.5","7","NA","-7.5","7","-30.8","7","24.1","3","NA","12.1","3","NA","56.0","7","","","NA","852.8","0.0"
"-121.237","61.760","FORT SIMPSON A","2202104","NT","-17.4","0","NA","-7.5","0","-30.8","0","","","NA","","","NA","","","","","NA","1097.5","0.0"
"-111.962","60.020","FORT SMITH A","2202201","NT","-15.3","3","NA","-3.5","3","-33.6","3","25.4","0","NA","11.2","0","NA","51.0","5","","","NA","932.9","0.0"
"-111.929","60.026","FORT SMITH CLIMATE","2202202","NT","-15.0","0","NA","-2.1","0","-33.4","0","","","NA","16.0","0","NA","32.0","6","","","NA","1022.2","0.0"
"-111.962","60.020","FORT SMITH A","2202203","NT","-15.2","1","NA","-2.0","1","-33.6","1","","","NA","","","NA","","","","","NA","995.8","0.0"
"-105.133","63.600","HANBURY RIVER","2202351","NT","-24.6","4","NA","-10.8","4","-38.5","4","","","NA","4.6","4","NA","5.0","2","","","NA","1151.4","0.0"
"-115.783","60.840","HAY RIVER A","2202401","NT","-15.5","1","NA","0.9","1","-30.7","1","3.2","0","NA","3.8","0","NA","25.0","2","","","NA","1005.4","0.0"
"-115.777","60.839","HAY RIVER CLIMATE","2202402","NT","-15.4","0","NA","1.8","0","-30.1","0","","","NA","10.5","0","NA","18.0","3","","","NA","1035.8","0.0"
"-115.783","60.840","HAY RIVER A","2202403","NT","-15.8","0","NA","0.9","0","-31.1","0","","","NA","","","NA","","","","","NA","1047.6","0.0"
"-113.726","61.920","INNER WHALEBACKS","2202560","NT","-15.8","0","NA","-4.4","0","-32.7","0","","","NA","3.6","0","NA","","0","","","NA","1048.5","0.0"
"-133.483","68.304","INUVIK A","2202571","NT","-22.4","0","NA","-10.5","0","-36.8","0","","","NA","","","NA","","","","","NA","1251.4","0.0"
"-133.517","68.317","INUVIK CLIMATE","2202578","NT","-21.8","0","NA","-10.9","0","-33.4","0","","","NA","22.8","0","NA","43.0","6","","","NA","1235.1","0.0"
"-117.245","63.134","WHATI","2202678","NT","-19.2","0","NA","-6.0","0","-37.4","0","","","NA","4.5","0","NA","29.0","2","","","NA","1151.8","0.0"
"-110.682","62.418","LUTSELK'E A","2202690","NT","-19.0","4","NA","-4.0","4","-37.9","4","","","NA","","","NA","","","","","NA","998.9","0.0"
"-128.974","69.925","NICHOLSON PENINSULA 2","2202751","NT","-23.4","0","NA","-11.4","0","-36.1","0","","","NA","","","NA","","","","","NA","1284.6","0.0"
"-126.799","65.281","NORMAN WELLS A","2202801","NT","-21.9","1","NA","-7.5","1","-37.9","1","32.9","0","NA","20.3","0","NA","54.0","6","","","NA","1197.5","0.0"
"-126.753","65.288","NORMAN WELLS CLIMATE","2202810","NT","-21.4","0","NA","-7.5","0","-37.7","0","","","NA","17.4","0","NA","56.0","5","","","NA","1221.1","0.0"
"-124.076","69.361","PAULATUK A","2203055","NT","-22.3","1","NA","-7.5","1","-33.0","1","","","NA","","","NA","","","","","NA","1210.4","0.0"
"-124.083","69.358","PAULATUK","2203058","NT","-22.1","0","NA","-7.3","0","-32.7","0","","","NA","4.2","0","NA","","1","","","NA","1241.9","0.0"
"-135.444","69.633","PELLY ISLAND","2203095","NT","-22.7","6","NA","-14.2","6","-34.3","6","","","NA","","","NA","","","","","NA","1017.2","0.0"
"-127.209","61.963","RABBIT KETTLE","2203342","NT","-18.7","2","NA","-4.5","2","-32.4","2","","","NA","","","NA","40.0","","","","NA","1064.5","0.0"
"-117.328","64.112","GAMETI","2203359","NT","-20.1","0","NA","-5.2","0","-42.7","0","","","NA","29.7","0","NA","35.0","6","","","NA","1182.0","0.0"
"-117.310","64.116","GAMETI A","2203365","NT","-22.1","11","NA","-5.3","11","-43.6","11","","","NA","","","NA","","","","","NA","802.0","0.0"
"-133.026","69.433","TUKTOYAKTUK A","2203911","NT","-23.9","0","NA","-12.9","0","-39.5","0","","","NA","","","NA","","","","","NA","1298.5","0.0"
"-133.017","69.433","TUKTOYAKTUK","2203914","NT","-23.5","0","NA","-12.5","0","-39.1","0","","","NA","11.0","0","NA","18.0","4","","","NA","1287.6","0.0"
"-122.359","69.199","TUKTUT NOGAIT","2203918","NT","-23.0","2","NA","-9.8","2","-36.2","2","","","NA","3.6","29","NA","30.0","1","","","NA","1187.7","0.0"
"-114.077","64.191","WEKWEETI A","2203980","NT","-20.1","0","NA","-5.5","0","-38.9","0","","","NA","14.8","0","NA","","3","","","NA","1182.1","0.0"
"-123.437","63.210","WRIGLEY A","2204005","NT","-19.9","0","NA","-11.0","0","-29.8","0","","","NA","","","NA","","","","","NA","1176.0","0.0"
"-114.440","62.463","YELLOWKNIFE A","2204101","NT","-18.0","0","NA","-4.9","0","-38.1","0","17.8","0","NA","6.6","0","NA","54.0","3","","","NA","1115.2","0.0"
"-114.449","62.474","YELLOWKNIFE AIRPORT","2204108","NT","-17.9","0","NA","-4.8","0","-37.7","0","","","NA","4.0","0","NA","31.0","1","","","NA","1111.7","0.0"
"-123.742","61.242","YOHIN","2204300","NT","-18.0","6","NA","7.9","6","-31.6","6","","","NA","","","NA","","","","","NA","900.4","0.0"
"-130.911","69.604","LIVERPOOL BAY","220B68C","NT","-26.4","30","NA","-21.9","30","-30.9","30","","","NA","","","NA","","","","","NA","44.4","0.0"
"-130.228","67.179","LITTLE CHICAGO","220B6Q3","NT","-21.2","1","NA","-12.8","1","-38.5","1","","","NA","","","NA","","","","","NA","1175.9","0.0"
"-121.239","60.441","SAMBAA K'E","220CQHR","NT","-14.3","0","NA","3.9","0","-31.6","0","","","NA","23.3","0","NA","45.0","5","","","NA","1001.5","0.0"
"-122.851","61.125","LINDBURG LANDING","220N003","NT","-18.8","7","NA","4.9","7","-34.8","7","","","NA","","","NA","44.0","","","","NA","884.2","0.0"
"-133.502","68.746","TRAIL VALLEY","220N005","NT","-24.2","16","NA","-14.8","16","-35.2","16","","","NA","5.2","17","NA","29.0","2","","","NA","633.1","0.0"
"-94.072","61.094","ARVIAT A","2300427","NU","-27.7","17","NA","-7.1","17","-38.4","17","","","NA","0.8","17","NA","","0","","","NA","639.1","0.0"
"-96.000","64.317","BAKER LAKE CLIMATE","2300501","NU","-27.1","0","NA","-7.5","0","-40.0","0","","","NA","1.9","21","NA","4.0","1","","","NA","1398.9","0.0"
"-96.078","64.299","BAKER LAKE A","2300503","NU","-27.5","11","NA","-8.2","11","-39.7","11","7.6","6","NA","10.6","6","NA","22.0","4","","","NA","910.4","0.0"
"-96.078","64.299","BAKER LAKE A","2300504","NU","-27.0","1","NA","-7.2","1","-39.7","1","","","NA","","","NA","","","","","NA","1350.7","0.0"
"-108.015","66.838","BATHURST INLET","2300551","NU","-25.6","4","NA","-10.7","4","-37.1","4","","","NA","13.1","17","NA","7.0","6","","","NA","1177.3","0.0"
"-90.731","63.347","CHESTERFIELD INLET A","2300710","NU","-27.2","2","NA","-8.0","2","-42.3","2","","","NA","","","NA","","","","","NA","1309.5","0.0"
"-115.144","67.817","KUGLUKTUK A","2300903","NU","-24.7","7","NA","-7.2","7","-38.5","7","25.8","6","NA","24.4","6","NA","35.0","7","","","NA","1025.2","0.0"
"-115.135","67.817","KUGLUKTUK CLIMATE","2300904","NU","-25.5","0","NA","-7.2","0","-38.3","0","","","NA","8.5","0","NA","22.0","2","","","NA","1347.1","0.0"
"-115.144","67.817","KUGLUKTUK A","2300905","NU","-25.6","0","NA","-7.2","0","-38.5","0","","","NA","","","NA","","","","","NA","1351.6","0.0"
"-83.359","64.193","CORAL HARBOUR A","2301002","NU","-32.5","16","NA","-11.3","16","-44.9","16","7.4","11","NA","6.8","11","NA","40.0","2","","","NA","757.3","0.0"
"-83.359","64.193","CORAL HARBOUR A","2301004","NU","-30.3","0","NA","-11.3","0","-45.2","0","","","NA","","","NA","","","","","NA","1498.0","0.0"
"-83.350","64.183","CORAL HARBOUR RCS","2301010","NU","-29.9","0","NA","-11.1","0","-44.1","0","","","NA","","","NA","23.0","","","","NA","1483.9","0.0"
"-100.884","61.132","ENNADAI LAKE (AUT)","2301102","NU","-22.5","4","NA","-6.4","4","-42.3","4","","","NA","6.5","4","NA","3.0","2","","","NA","1093.7","0.0"
"-94.067","61.100","ARVIAT CLIMATE","2301153","NU","-23.8","0","NA","-7.1","0","-38.5","0","","","NA","5.8","0","NA","37.0","1","","","NA","1295.3","0.0"
"-95.850","68.636","GJOA HAVEN A","2302337","NU","-31.1","0","NA","-17.5","0","-39.9","0","","","NA","3.1","0","NA","","1","","","NA","1522.2","0.0"
"-95.850","68.636","GJOA HAVEN CLIMATE","2302340","NU","-31.1","0","NA","-17.5","0","-39.5","0","","","NA","1.8","0","NA","","0","","","NA","1522.5","0.0"
"-100.087","68.318","HAT ISLAND","2302370","NU","-32.3","22","NA","-25.2","22","-38.5","22","","","NA","","","NA","","","","","NA","452.8","0.0"
"-89.796","68.538","KUGAARUK CLIMATE","2303094","NU","-32.5","0","NA","-16.9","0","-46.1","0","","","NA","6.9","0","NA","1.0","1","","","NA","1566.5","0.0"
"-89.805","68.536","KUGAARUK A","2303095","NU","-32.6","0","NA","-17.1","0","-46.0","0","","","NA","","","NA","","","","","NA","1569.8","0.0"
"-92.115","62.811","RANKIN INLET A","2303405","NU","-26.0","0","NA","-8.0","0","-41.0","0","9.4","21","NA","8.0","21","NA","","2","","","NA","1365.0","0.0"
"-102.429","65.100","ROBERTSON LAKE (AUT)","2303610","NU","-27.0","1","NA","-7.2","1","-40.4","1","","","NA","1.0","0","NA","","0","","","NA","1349.6","0.0"
"-79.250","56.537","SANIKILUAQ A","2303660","NU","-18.9","7","NA","-2.4","7","-33.3","7","","","NA","","","NA","","","","","NA","886.0","0.0"
"-79.260","56.537","SANIKILUAQ","2303668","NU","-18.2","8","NA","-2.1","8","-34.2","8","","","NA","","","NA","","","","","NA","831.9","0.0"
"-93.433","68.817","SHEPHERD BAY A","2303685","NU","-32.1","0","NA","-18.2","0","-45.0","0","","","NA","","","NA","","","","","NA","1552.1","0.0"
"-92.598","62.240","WHALE COVE A","2303990","NU","-25.1","1","NA","-7.3","1","-38.7","1","","","NA","","","NA","","","","","NA","1291.5","0.0"
"-111.246","65.755","LUPIN CS","230N002","NU","-24.9","2","NA","-8.3","2","-37.9","2","","","NA","3.0","2","NA","53.0","1","","","NA","1243.6","0.0"
"-62.333","82.500","ALERT CLIMATE","2400305","NU","-29.4","0","NA","-16.7","0","-40.5","0","","","NA","13.6","0","NA","21.0","3","","","NA","1468.3","0.0"
"-62.333","82.500","ALERT UA","2400306","NU","","","NA","","","","","20.4","0","NA","15.0","0","NA","18.0","3","","","NA","",""
"-85.047","73.006","ARCTIC BAY","2400399","NU","-32.0","0","NA","-19.2","0","-39.9","0","","","NA","","","NA","","","","","NA","1549.4","0.0"
"-85.012","72.993","ARCTIC BAY CS","2400404","NU","-33.2","0","NA","-19.0","0","-41.9","0","","","NA","0.6","0","NA","7.0","0","","","NA","1586.9","0.0"
"-77.230","69.224","BRAY ISLAND","2400561","NU","-29.9","17","NA","-15.4","17","-39.4","17","","","NA","","","NA","","","","","NA","669.9","0.0"
"-64.146","63.340","BREVOORT ISLAND","2400565","NU","-22.9","0","NA","-13.1","0","-33.2","0","","","NA","","","NA","","","","","NA","1268.5","0.0"
"-64.033","67.547","QIKIQTARJUAQ CLIMATE","2400573","NU","-29.1","0","NA","-19.4","0","-40.1","0","","","NA","6.0","0","NA","61.0","2","","","NA","1460.6","0.0"
"-64.032","67.547","QIKIQTARJUAQ A","2400577","NU","-29.1","0","NA","-19.4","0","-40.3","0","","","NA","1.6","0","NA","","1","","","NA","1459.2","0.0"
"-105.137","69.108","CAMBRIDGE BAY A","2400601","NU","-30.4","6","NA","-16.0","6","-38.7","6","4.6","5","NA","3.4","5","NA","25.0","1","","","NA","1211.1","0.0"
"-105.138","69.108","CAMBRIDGE BAY GSN","2400602","NU","-30.5","0","NA","-15.7","0","-38.8","0","","","NA","1.2","0","NA","1.0","0","","","NA","1502.2","0.0"
"-105.137","69.108","CAMBRIDGE BAY A","2400603","NU","-30.7","0","NA","-16.0","0","-38.7","0","","","NA","","","NA","","","","","NA","1509.3","0.0"
"-76.530","64.231","KINNGAIT","2400636","NU","-24.2","0","NA","-9.6","0","-35.5","0","","","NA","9.7","0","NA","10.0","4","","","NA","1308.4","0.0"
"-76.525","64.230","KINNGAIT AIRPORT","2400637","NU","-24.0","0","NA","-9.5","0","-35.0","0","","","NA","31.1","0","NA","","2","","","NA","1302.2","0.0"
"-61.383","66.650","CAPE DYER","2400650","NU","-24.0","0","NA","-13.6","0","-35.2","0","","","NA","","","NA","","","","","NA","1303.5","0.0"
"-78.293","73.668","CAPE LIVERPOOL","2400675","NU","-29.1","4","NA","-18.8","4","-44.1","4","","","NA","6.6","7","NA","50.0","1","","","NA","1270.7","0.0"
"-107.823","69.036","CAPE PEEL WEST","2400697","NU","-33.8","30","NA","-31.8","30","-35.8","30","","","NA","","","NA","","","","","NA","51.8","0.0"
"-68.517","70.483","CLYDE RIVER CLIMATE","2400802","NU","-28.9","0","NA","-12.7","0","-38.9","0","","","NA","","","NA","35.0","","","","NA","1453.8","0.0"
"-68.517","70.486","CLYDE RIVER A","2400804","NU","-28.7","2","NA","-13.1","2","-38.1","2","","","NA","2.2","2","NA","","1","","","NA","1355.2","0.0"
"-71.167","68.650","DEWAR LAKES","2401030","NU","-29.1","0","NA","-14.8","0","-39.5","0","","","NA","","","NA","","","","","NA","1460.3","0.0"
"-85.934","79.989","EUREKA CLIMATE","2401199","NU","-35.7","0","NA","-12.1","0","-49.2","0","","","NA","5.4","0","NA","5.0","1","","","NA","1663.2","0.0"
"-85.812","79.994","EUREKA A","2401208","NU","-34.3","0","NA","-10.1","0","-47.6","0","","","NA","","","NA","","","","","NA","1621.6","0.0"
"-94.198","72.018","FORT ROSS","2402051","NU","-29.5","1","NA","-18.8","1","-36.2","1","","","NA","13.9","1","NA","","5","","","NA","1425.3","0.0"
"-100.267","70.633","GATESHEAD ISLAND","2402332","NU","-30.7","13","NA","-18.2","13","-36.2","13","","","NA","2.7","14","NA","","0","","","NA","875.9","0.0"
"-82.902","76.423","GRISE FIORD CLIMATE","2402351","NU","-29.9","0","NA","-14.7","0","-40.3","0","","","NA","1.4","0","NA","5.0","0","","","NA","1484.2","0.0"
"-81.244","68.776","SANIRAJAK","2402353","NU","-34.8","0","NA","-16.2","0","-44.6","0","","","NA","","","NA","38.0","","","","NA","1636.6","0.0"
"-81.243","68.776","SANIRAJAK AIRPORT","2402354","NU","-34.8","2","NA","-16.2","2","-44.4","2","","","NA","0.4","3","NA","","0","","","NA","1530.9","0.0"
"-82.908","76.426","GRISE FIORD A","2402360","NU","-28.7","0","NA","-15.0","0","-38.0","0","","","NA","","","NA","","","","","NA","1446.7","0.0"
"-81.816","69.365","IGLOOLIK A","2402546","NU","-34.3","0","NA","-19.0","0","-42.7","0","","","NA","","","NA","","","","","NA","1619.8","0.0"
"-68.544","63.747","IQALUIT CLIMATE","2402592","NU","-27.2","0","NA","-10.5","0","-40.1","0","","","NA","29.1","5","NA","34.0","8","","","NA","1400.4","0.0"
"-68.556","63.757","IQALUIT A","2402596","NU","-27.4","0","NA","-10.6","0","-40.0","0","","","NA","","","NA","","","","","NA","1406.4","0.0"
"-103.554","78.792","ISACHSEN (AUT)","2402604","NU","-29.8","19","NA","-22.9","18","-36.0","19","","","NA","0.0","19","NA","","0","","","NA","573.5","0.0"
"-69.877","62.848","KIMMIRUT A","2402673","NU","-22.7","0","NA","-9.9","0","-36.9","0","","","NA","","","NA","","","","","NA","1261.5","0.0"
"-75.141","68.899","LONGSTAFF BLUFF","2402684","NU","-31.9","0","NA","-19.7","0","-41.6","0","","","NA","","","NA","","","","","NA","1547.4","0.0"
"-65.711","66.143","PANGNIRTUNG","2403049","NU","-26.3","4","NA","-14.0","4","-35.8","4","","","NA","3.4","4","NA","","1","","","NA","1195.2","0.0"
"-65.714","66.145","PANGNIRTUNG A","2403054","NU","-27.4","0","NA","-14.2","0","-36.7","0","","","NA","","","NA","","","","","NA","1408.5","0.0"
"-77.958","72.693","POND INLET CLIMATE","2403204","NU","-32.7","0","NA","-19.9","0","-41.0","0","","","NA","3.0","0","NA","27.0","1","","","NA","1571.6","0.0"
"-77.969","72.689","POND INLET A","2403206","NU","-32.3","0","NA","-19.7","0","-40.4","0","","","NA","0.4","0","NA","","0","","","NA","1558.7","0.0"
"-105.715","75.377","REA POINT","2403450","NU","-31.7","16","NA","-23.3","16","-40.2","16","","","NA","1.0","16","NA","","0","","","NA","745.4","0.0"
"-86.225","66.521","NAUJAAT A","2403495","NU","-30.0","0","NA","-15.9","0","-39.0","0","","","NA","","","NA","","","","","NA","1487.3","0.0"
"-94.969","74.717","RESOLUTE BAY A","2403497","NU","-31.4","2","NA","-21.6","2","-41.9","2","","","NA","","","NA","","","","","NA","1431.5","0.0"
"-94.969","74.717","RESOLUTE BAY A","2403498","NU","-31.4","4","NA","-21.6","4","-41.9","4","1.2","1","NA","1.2","1","NA","","1","","","NA","1334.9","0.0"
"-94.983","74.716","RESOLUTE CS","2403505","NU","-31.6","0","NA","-20.4","0","-42.2","0","","","NA","0.3","6","NA","0.0","0","","","NA","1538.3","0.0"
"-79.033","69.083","ROWLEY ISLAND","2403625","NU","-31.6","0","NA","-16.9","0","-41.2","0","","","NA","","","NA","","","","","NA","1536.7","0.0"
"-105.296","73.766","STEFANSSON ISLAND","2403756","NU","-31.7","9","NA","-22.7","9","-38.6","9","","","NA","0.8","10","NA","5.0","0","","","NA","1092.6","0.0"
"-91.816","81.161","SVARTEVAEG","2403833","NU","-32.3","0","NA","-20.7","0","-44.9","0","","","NA","2.0","0","NA","15.0","0","","","NA","1559.2","0.0"
"-93.577","69.547","TALOYOAK A","2403855","NU","-31.9","15","NA","-19.0","15","-41.1","15","11.1","7","NA","6.9","7","NA","10.0","1","","","NA","798.4","0.0"
"-93.577","69.547","TALOYOAK A","2403856","NU","-32.0","0","NA","-19.0","0","-41.1","0","","","NA","","","NA","","","","","NA","1551.0","0.0"
"-89.446","65.879","WAGER BAY (AUT)","2403945","NU","-29.1","2","NA","-13.3","2","-40.8","2","","","NA","6.0","3","NA","19.0","2","","","NA","1365.8","0.0"
"-119.989","74.139","NANGMAGVIK LAKE","2500440","NT","-28.8","21","NA","-18.0","21","-39.5","21","","","NA","0.6","21","NA","","0","","","NA","467.9","0.0"
"-112.161","74.457","CAPE PROVIDENCE","2501419","NT","-22.7","30","NA","-19.3","30","-26.2","30","","","NA","0.2","30","NA","","0","","","NA","40.7","0.0"
"-117.806","70.763","ULUKHAKTOK A","2502503","NT","-25.9","4","NA","-14.9","4","-35.1","4","","","NA","","","NA","","","","","NA","1184.2","0.0"
"-117.800","70.761","HOLMAN CS","2502505","NT","-25.8","0","NA","-14.8","0","-35.1","0","","","NA","17.9","0","NA","12.0","5","","","NA","1358.2","0.0"
"-125.254","71.993","SACHS HARBOUR CLIMATE","2503648","NT","-25.6","0","NA","-14.2","0","-36.7","0","","","NA","4.3","0","NA","46.0","2","","","NA","1352.7","0.0"
"-125.241","71.994","SACHS HARBOUR A","2503649","NT","-25.5","6","NA","-14.3","6","-36.6","6","","","NA","","","NA","","","","","NA","1087.6","0.0"
"-119.538","73.231","THOMSEN RIVER","2503886","NT","-31.2","12","NA","-18.8","11","-40.2","12","","","NA","2.4","13","NA","20.0","2","","","NA","935.3","0.0"
"-119.347","76.238","MOULD BAY CS","250M001","NT","-29.5","3","NA","-18.6","3","-41.9","3","","","NA","0.1","3","NA","61.0","0","","","NA","1330.9","0.0"
"-112.967","54.283","ABEE AGDM","3010010","AB","-10.4","0","NA","6.4","0","-27.9","0","","","NA","2.6","21","NA","","1","","","NA","880.1","0.0"
"-111.181","53.113","ALBERT HALL AGCM","3010060","AB","-10.3","1","NA","5.1","1","-26.6","1","","","NA","6.3","1","NA","","2","","","NA","850.1","0.0"
"-111.779","52.315","ALLIANCE AGCM","3010162","AB","-8.0","1","NA","5.5","1","-24.8","1","","","NA","3.2","1","NA","","1","","","NA","778.9","0.0"
"-112.279","53.917","ANDREW AGDM","3010237","AB","-10.4","2","NA","5.2","2","-26.6","2","","","NA","6.6","2","NA","","3","","","NA","823.9","0.0"
"-111.465","52.582","BELLSHILL AGCM","3010650","AB","-8.7","2","NA","4.6","2","-25.7","2","","","NA","3.7","2","NA","","1","","","NA","773.4","0.0"
"-110.101","52.124","BODO AGDM","3010730","AB","-10.1","0","NA","4.7","0","-26.0","0","","","NA","3.4","0","NA","","1","","","NA","872.2","0.0"
"-114.441","53.089","BRETON PLOTS","3010816","AB","-6.0","0","NA","10.4","0","-24.8","0","","","NA","9.2","0","NA","","3","","","NA","744.7","0.0"
"-113.922","53.931","BUSBY AGCM","3010979","AB","-8.3","2","NA","6.8","2","-24.6","2","","","NA","4.7","2","NA","","1","","","NA","762.0","0.0"
"-110.510","52.334","CADOGAN AGCM","3010992","AB","-9.4","0","NA","5.6","0","-25.7","0","","","NA","4.1","0","NA","","1","","","NA","848.8","0.0"
"-112.817","53.050","CAMROSE","3011240","AB","-9.0","0","2.6","6.0","0","-24.1","0","","","NA","1.9","0","8.0","36.0","0","","","NA","835.9","0.0"
"-110.713","51.937","CONSORT AGDM","3011815","AB","-9.8","1","NA","3.9","1","-26.2","1","","","NA","5.4","1","NA","","1","","","NA","833.9","0.0"
"-111.449","52.074","CORONATION CLIMATE","3011887","AB","-9.8","0","NA","3.8","0","-25.6","0","","","NA","3.1","0","NA","16.0","1","","","NA","862.0","0.0"
"-113.903","52.733","CRESTOMERE AGCM","3011892","AB","-7.2","1","NA","8.0","1","-21.4","1","","","NA","6.3","10","NA","","3","","","NA","755.6","0.0"
"-113.176","52.183","DELBURNE AGCM","3012050","AB","-6.8","1","NA","6.8","1","-21.2","1","","","NA","4.4","1","NA","","2","","","NA","744.3","0.0"
"-110.588","53.659","DEWBERRY AGCM","3012073","AB","-10.9","0","NA","5.4","0","-25.7","0","","","NA","12.1","0","NA","","4","","","NA","895.4","0.0"
"-110.433","52.778","EDGERTON AGCM","3012192","AB","-10.3","0","NA","5.9","0","-25.2","0","","","NA","5.4","0","NA","","1","","","NA","878.7","0.0"
"-113.606","53.307","EDMONTON INTERNATIONAL CS","3012206","AB","-8.8","2","NA","7.7","2","-24.4","2","","","NA","0.9","2","NA","15.0","0","","","NA","777.2","0.0"
"-113.517","53.573","EDMONTON BLATCHFORD","3012209","AB","-6.9","0","NA","8.1","0","-20.6","0","","","NA","","","NA","","","","","NA","772.2","0.0"
"-113.579","53.310","EDMONTON INTL A","3012216","AB","-9.0","0","NA","7.5","0","-24.5","0","3.6","0","NA","3.6","0","NA","25.0","2","","","NA","837.5","0.0"
"-113.538","53.490","EDMONTON SOUTH CAMPUS","3012220","AB","-9.7","1","NA","5.6","1","-25.6","1","","","NA","6.8","1","NA","","3","","","NA","831.8","0.0"
"-113.856","53.668","EDMONTON VILLENEUVE A","3012229","AB","-8.0","0","NA","9.7","0","-22.1","0","","","NA","10.7","0","NA","","2","","","NA","806.7","0.0"
"-114.108","53.548","EDMONTON STONY PLAIN","301222F","AB","-6.2","14","3.8","4.0","14","-21.0","14","5.2","14","NA","4.0","14","NA","10.0","2","","","NA","410.6","0.0"
"-112.868","53.683","ELK ISLAND NAT PARK","3012275","AB","-8.4","0","3.6","8.4","0","-25.0","0","","","NA","3.3","0","18.0","36.0","1","","","NA","819.1","0.0"
"-111.000","52.967","FABYAN","3012515","AB","-10.4","0","3.7","4.5","0","-26.5","0","6.4","0","34.0","7.4","0","38.0","0.0","2","","","NA","881.5","0.0"
"-112.858","52.744","FERINTOSH AGCM","3012590","AB","-8.6","0","NA","5.8","0","-22.9","0","","","NA","3.8","0","NA","","1","","","NA","825.5","0.0"
"-111.813","52.041","FLEET AGCM","3012635","AB","-9.6","0","NA","3.8","0","-26.5","0","","","NA","6.4","0","NA","","2","","","NA","855.1","0.0"
"-112.123","52.548","FORESTBURG AGCM","3012653","AB","-8.3","0","NA","5.6","0","-24.7","0","","","NA","2.1","0","NA","","0","","","NA","814.6","0.0"
"-113.183","53.717","FORT SASKATCHEWAN","3012710","AB","","","","","","-24.0","9","2.0","9","NA","2.0","9","NA","0.0","1","","","NA","",""
"-110.621","53.071","GILT EDGE NORTH AGCM","3012790","AB","-9.8","0","NA","5.2","0","-25.0","0","","","NA","6.2","0","NA","","1","","","NA","862.5","0.0"
"-114.320","53.295","ST. FRANCIS","3012799","AB","-5.6","0","NA","9.6","0","-22.2","0","","","NA","4.8","4","NA","","2","","","NA","730.2","0.0"
"-112.278","52.987","GLADSTONE AGCM","3012810","AB","-9.2","0","NA","5.5","0","-24.6","0","","","NA","5.0","8","NA","","1","","","NA","843.5","0.0"
"-114.539","53.833","GLENEVIS AGCM","3012818","AB","-6.5","0","NA","11.0","0","-21.4","0","","","NA","","","NA","","","","","NA","759.5","0.0"
"-110.803","52.113","GOOSEBERRY LAKE AGCM","3012871","AB","-10.3","1","NA","4.8","1","-25.3","1","","","NA","3.9","1","NA","","1","","","NA","850.4","0.0"
"-112.164","52.116","HALKIRK AGCM","3012999","AB","-8.7","1","NA","4.7","1","-24.9","1","","","NA","4.8","1","NA","","1","","","NA","801.4","0.0"
"-111.212","51.780","HEMARUKA AGCM","3013140","AB","-9.8","1","NA","4.4","1","-26.4","1","","","NA","4.3","2","NA","","2","","","NA","834.9","0.0"
"-112.246","53.185","HOLDEN AGDM","3013340","AB","-9.3","0","NA","5.3","0","-25.3","0","","","NA","4.7","0","NA","","0","","","NA","845.2","0.0"
"-110.784","52.578","HUGHENDEN AGCM","3013362","AB","-9.6","0","NA","5.5","0","-27.8","0","","","NA","5.4","0","NA","","1","","","NA","854.4","0.0"
"-111.872","52.848","KILLAM AGDM","3013640","AB","-9.5","1","NA","4.9","1","-26.0","1","","","NA","","","NA","","","","","NA","826.3","0.0"
"-111.113","52.290","KESSLER AGCM","3013644","AB","-8.5","0","NA","6.9","0","-24.1","0","","","NA","","","NA","","","","","NA","822.0","0.0"
"-111.548","53.047","KINSELLA RESEARC STATION","3013647","AB","-9.7","0","NA","4.7","0","-25.9","0","","","NA","6.1","0","NA","","1","","","NA","859.7","0.0"
"-110.416","53.353","KITSCOTY AGCM","3013660","AB","-10.4","0","NA","4.3","0","-27.2","0","","","NA","9.1","0","NA","","5","","","NA","879.3","0.0"
"-113.474","54.003","LEGAL AGCM","3013790","AB","-8.4","0","NA","5.8","0","-23.4","0","","","NA","5.5","0","NA","","1","","","NA","818.3","0.0"
"-110.579","53.943","LINDBERGH AGDM","3013921","AB","-11.5","0","NA","5.5","0","-27.7","0","","","NA","16.4","0","NA","","5","","","NA","913.5","0.0"
"-110.073","53.309","LLOYDMINSTER","3013959","AB","-10.6","2","NA","4.3","2","-26.7","2","","","NA","3.2","2","NA","","1","","","NA","829.6","0.0"
"-110.073","53.309","LLOYDMINSTER A","3013961","AB","-10.4","0","3.8","4.5","0","-26.5","0","9.8","0","58.0","11.0","0","70.0","17.0","7","","","NA","881.9","0.0"
"-111.255","53.456","MANNVILLE AGCM","3014195","AB","-9.7","0","NA","5.3","0","-26.2","0","","","NA","7.6","0","NA","","3","","","NA","859.0","0.0"
"-110.550","52.017","MONITOR","3014600","AB","","","NA","","","","","1.6","0","9.0","2.8","0","15.0","0.0","2","","","NA","",""
"-113.165","53.262","NEW SAREPTA AGCM","3014795","AB","-8.2","0","NA","6.7","0","-23.0","0","","","NA","5.7","0","NA","","2","","","NA","812.0","0.0"
"-113.350","53.650","OLIVER AGDM","3014921","AB","-8.3","1","NA","8.3","1","-25.4","1","","","NA","","","NA","","","","","NA","789.0","0.0"
"-111.726","53.425","RANFURLY AUTO","3015401","AB","-9.3","0","NA","5.0","0","-25.9","0","","","NA","6.2","0","NA","19.0","2","","","NA","846.0","0.0"
"-110.343","52.587","RIBSTONE SOUTH AGCM","3015480","AB","-10.5","0","NA","5.3","0","-26.5","0","","","NA","3.6","0","NA","","0","","","NA","884.8","0.0"
"-110.102","53.019","RIVERCOURSE AGCM","3015501","AB","-10.6","0","NA","4.0","0","-25.6","0","","","NA","7.7","0","NA","","3","","","NA","885.4","0.0"
"-114.912","52.421","ROCKY MTN HOUSE (AUT)","3015523","AB","-7.7","0","NA","10.0","0","-26.3","0","","","NA","14.3","0","NA","22.0","3","","","NA","797.1","0.0"
"-112.422","52.792","ROSALIND AGCM","3015600","AB","-8.5","0","NA","6.2","0","-25.3","0","","","NA","2.2","0","NA","","0","","","NA","822.5","0.0"
"-111.453","54.282","ST. LINA AGCM","3015673","AB","-9.7","0","NA","6.1","0","-26.1","0","","","NA","4.6","8","NA","","1","","","NA","858.5","0.0"
"-111.272","54.011","ST. PAUL AGCM","3015676","AB","-11.3","0","NA","5.4","0","-28.3","0","","","NA","17.9","2","NA","","4","","","NA","907.7","0.0"
"-110.755","51.590","SEDALIA AGCM","3015797","AB","-9.8","0","NA","3.8","0","-25.7","0","","","NA","5.1","1","NA","","2","","","NA","862.9","0.0"
"-112.539","53.333","SHONTS AGCM","3015900","AB","-9.3","0","NA","5.9","0","-25.5","0","","","NA","4.6","0","NA","","2","","","NA","847.4","0.0"
"-112.499","54.278","SMOKY LAKE AGDM","3016022","AB","-8.8","1","NA","6.3","1","-25.7","1","","","NA","11.9","1","NA","","5","","","NA","803.4","0.0"
"-111.683","51.816","SPONDIN AGCM","3016070","AB","-9.3","0","NA","4.1","0","-26.9","0","","","NA","2.2","29","NA","","1","","","NA","847.2","0.0"
"-112.596","52.347","STETTLER AGDM","3016124","AB","-7.9","1","NA","5.4","1","-23.7","1","","","NA","3.5","21","NA","","0","","","NA","776.5","0.0"
"-113.895","53.217","THORSBY AGCM","3016441","AB","-7.4","0","NA","7.2","0","-21.9","0","","","NA","4.3","0","NA","","2","","","NA","788.2","0.0"
"-114.718","53.439","TOMAHAWK AGDM","3016505","AB","-6.8","0","NA","8.9","0","-24.4","0","","","NA","5.6","0","NA","","2","","","NA","768.1","0.0"
"-110.081","53.664","TULLIBY LAKE AGCM","3016593","AB","-11.5","0","NA","5.3","0","-27.7","0","","","NA","16.4","0","NA","","6","","","NA","913.7","0.0"
"-113.033","53.500","UNCAS","3016650","AB","","","NA","","","","","11.0","0","NA","13.8","0","NA","33.0","6","","","NA","",""
"-111.678","53.625","TWO HILLS AGDM","3016655","AB","-9.4","0","NA","4.3","0","-27.5","0","","","NA","7.4","0","NA","","3","","","NA","849.2","0.0"
"-110.882","53.344","VERMILION AGDM","3016802","AB","-10.6","0","NA","4.8","0","-27.0","0","","","NA","8.0","0","NA","","3","","","NA","887.0","0.0"
"-111.732","53.182","VIKING AGCM","3016841","AB","-9.3","0","NA","4.9","0","-25.2","0","","","NA","5.6","0","NA","","0","","","NA","845.8","0.0"
"-111.921","54.130","VILNA AGCM","3016852","AB","-9.0","3","NA","6.5","3","-26.7","3","","","NA","11.3","10","NA","","3","","","NA","755.7","0.0"
"-112.098","53.505","VEGREVILLE","3016GF0","AB","-10.0","0","3.3","5.2","0","-25.6","0","","","NA","3.2","0","21.0","25.0","0","","","NA","867.7","0.0"
"-113.444","52.980","WETASKIWIN AGCM","3017282","AB","-8.1","0","NA","7.1","0","-21.4","0","","","NA","6.7","1","NA","","3","","","NA","809.2","0.0"
"-111.224","51.491","YOUNGSTOWN AGCM","3017705","AB","-9.1","0","NA","3.5","0","-26.7","0","","","NA","5.6","0","NA","","1","","","NA","840.3","0.0"
"-114.108","53.547","EDMONTON STONY PLAIN CS","301A001","AB","-6.3","0","NA","8.5","0","-22.0","0","","","NA","3.1","0","NA","11.0","1","","","NA","752.1","0.0"
"-110.206","51.670","ESTHER 1","301B460","AB","-9.6","2","NA","4.0","2","-26.0","2","","","NA","2.0","2","NA","24.0","1","","","NA","801.3","0.0"
"-111.096","52.829","WAINWRIGHT CFB AIRFIELD 21","301S001","AB","-9.4","1","NA","4.9","1","-26.9","1","","","NA","4.1","1","NA","38.0","1","","","NA","821.0","0.0"
"-113.821","54.308","PIBROCH AGCM","301X001","AB","-10.8","10","NA","6.8","10","-27.0","10","","","NA","3.8","10","NA","0.0","1","","","NA","604.2","0.0"
"-110.317","51.066","ACADIA VALLEY","3020035","AB","-8.2","0","NA","3.9","0","-24.6","0","","","NA","5.0","1","NA","","1","","","NA","813.4","0.0"
"-111.006","50.810","ATLEE AGCM","3020405","AB","-7.4","0","NA","4.3","0","-24.4","0","","","NA","4.3","0","NA","","1","","","NA","788.4","0.0"
"-113.357","51.379","BEISEKER AGCM","3020610","AB","-7.6","0","NA","6.2","0","-24.3","0","","","NA","7.1","0","NA","","2","","","NA","793.2","0.0"
"-112.803","51.998","BIG VALLEY AGCM","3020679","AB","-7.5","0","NA","6.5","0","-20.9","0","","","NA","4.5","0","NA","","1","","","NA","790.6","0.0"
"-110.686","50.798","BUFFALO AGCM","3020950","AB","-7.3","0","NA","8.5","0","-22.3","0","","","NA","9.5","0","NA","","3","","","NA","785.2","0.0"
"-111.221","51.024","CABIN LAKE AGCM","3021000","AB","-9.6","0","NA","3.8","0","-26.9","0","","","NA","","","NA","","","","","NA","855.9","0.0"
"-110.797","51.067","CAPPON","3021200","AB","-9.0","1","NA","6.6","1","-29.1","1","","","NA","10.7","2","NA","","3","","","NA","808.9","0.0"
"-110.824","51.276","CEREAL AGCM","3021463","AB","-9.5","0","NA","4.2","0","-26.0","0","","","NA","7.4","0","NA","","3","","","NA","851.2","0.0"
"-112.252","51.775","CRAIGMYLE AGCM","3021912","AB","-8.1","0","NA","5.4","0","-23.2","0","","","NA","6.7","0","NA","","4","","","NA","808.5","0.0"
"-112.677","51.445","DRUMHELLER EAST","30221LG","AB","-8.9","1","NA","5.1","1","-22.9","1","","","NA","0.2","27","NA","","0","","","NA","806.7","0.0"
"-112.097","51.053","FINNEGAN AGCM","3022650","AB","-8.5","0","NA","7.0","0","-24.7","0","","","NA","","","NA","","","","","NA","823.0","0.0"
"-112.135","51.453","HAND HILLS AGCM","3022990","AB","-7.0","1","NA","5.8","1","-24.0","1","","","NA","6.5","1","NA","","3","","","NA","750.0","0.0"
"-114.486","52.310","HESPERO AGCM","3023200","AB","-8.4","1","NA","9.8","1","-22.2","1","","","NA","5.8","1","NA","","2","","","NA","790.9","0.0"
"-112.500","51.183","HUSSAR AGDM","3023402","AB","-5.9","1","NA","6.2","1","-22.4","1","","","NA","5.4","4","NA","","2","","","NA","717.0","0.0"
"-110.359","51.913","KIRRIEMUIR AGCM","3023660","AB","-10.1","0","NA","4.2","0","-26.0","0","","","NA","2.9","17","NA","","1","","","NA","872.4","0.0"
"-113.756","52.449","LACOMBE CDA 2","3023722","AB","-7.9","0","NA","8.0","0","-24.8","0","","","NA","5.0","0","NA","12.0","1","","","NA","802.0","0.0"
"-114.473","52.553","LEEDALE AGDM","3023740","AB","-9.5","1","NA","8.5","1","-24.8","1","","","NA","7.5","1","NA","0.0","4","","","NA","826.1","0.0"
"-113.656","51.619","LINDEN AGCM","3023850","AB","-8.2","1","NA","6.6","1","-22.6","1","","","NA","6.4","1","NA","","2","","","NA","786.7","0.0"
"-110.341","49.458","LODGE CREEK","3023900","AB","-8.6","0","NA","6.1","0","-28.8","0","","","NA","9.1","1","NA","","2","","","NA","825.9","0.0"
"-112.675","51.660","MORRIN AGDM","3024668","AB","-8.7","1","NA","5.0","1","-22.9","1","","","NA","4.2","1","NA","","1","","","NA","802.4","0.0"
"-114.085","51.759","OLDS AGDM","3024925","AB","-5.4","1","NA","6.4","1","-23.8","1","","","NA","8.1","1","NA","","1","","","NA","702.2","0.0"
"-110.350","51.383","OYEN AGDM","3024965","AB","-9.1","0","NA","3.5","0","-25.6","0","","","NA","4.4","0","NA","0.0","1","","","NA","840.5","0.0"
"-111.621","50.740","PATRICIA AGCM","3025013","AB","-6.8","0","NA","6.3","0","-22.5","0","","","NA","3.2","0","NA","","1","","","NA","769.7","0.0"
"-111.705","51.125","POLLOCKVILLE AGDM","3025243","AB","-10.1","0","NA","3.8","0","-28.3","0","","","NA","3.6","0","NA","","0","","","NA","870.6","0.0"
"-113.600","52.433","PRENTISS","3025297","AB","-6.0","3","NA","6.5","3","-23.3","3","","","NA","6.5","12","NA","","2","","","NA","671.4","0.0"
"-113.894","52.182","RED DEER REGIONAL A","3025484","AB","-8.6","1","NA","7.2","1","-23.5","1","","","NA","4.4","1","NA","","2","","","NA","797.1","0.0"
"-113.620","53.692","ST. ALBERT RESEARCH STATION","3025750","AB","-8.4","0","NA","7.8","0","-24.4","0","","","NA","3.8","0","NA","","1","","","NA","818.9","0.0"
"-110.091","50.307","SCHULER AGDM","3025768","AB","-7.0","1","NA","5.7","1","-23.9","1","","","NA","4.6","1","NA","","1","","","NA","749.5","0.0"
"-111.646","51.463","SHEERNESS AGCM","3025890","AB","-7.6","0","NA","4.2","0","-24.9","0","","","NA","5.2","1","NA","","1","","","NA","794.9","0.0"
"-111.388","51.301","SUNNYNOOK AGCM","3026264","AB","-10.2","0","NA","4.0","0","-26.5","0","","","NA","6.1","0","NA","","3","","","NA","874.7","0.0"
"-113.206","51.768","THREE HILLS","3026479","AB","-8.5","0","NA","6.0","0","-22.6","0","","","NA","5.6","0","NA","","1","","","NA","820.4","0.0"
"-111.955","50.895","VERGER","3026800","AB","-8.7","1","NA","5.0","1","-25.0","1","","","NA","1.6","1","NA","","0","","","NA","799.6","0.0"
"-114.683","51.778","SUNDRE A","3026KNQ","AB","-6.9","0","NA","11.0","0","-29.5","0","","","NA","","","NA","10.0","","","","NA","770.5","0.0"
"-113.591","51.936","WIMBORNE AGCM","3027582","AB","-6.4","0","NA","9.6","0","-21.9","0","","","NA","8.6","5","NA","","3","","","NA","757.3","0.0"
"-113.434","49.528","ARDENVILLE","3030200","AB","-2.0","1","NA","11.1","1","-26.5","1","","","NA","11.6","1","NA","","3","","","NA","600.9","0.0"
"-114.013","50.512","AZURE","3030450","AB","-2.6","0","NA","12.8","0","-28.7","0","","","NA","8.4","1","NA","","3","","","NA","638.4","0.0"
"-112.300","49.800","BARNWELL AGDM","3030525","AB","-3.1","1","NA","10.8","1","-24.6","1","","","NA","6.9","1","NA","","2","","","NA","632.5","0.0"
"-113.224","50.026","BARONS AGCM","3030529","AB","-3.3","0","NA","12.2","0","-26.3","0","","","NA","6.1","0","NA","","2","","","NA","660.5","0.0"
"-112.465","50.893","BASSANO AGCM","3030540","AB","-8.1","0","NA","4.6","0","-23.8","0","","","NA","3.7","0","NA","","1","","","NA","808.6","0.0"
"-114.152","50.707","BLACK DIAMOND","3030680","AB","-4.6","0","NA","10.6","0","-31.3","0","","","NA","7.8","4","NA","","2","","","NA","700.2","0.0"
"-113.640","50.546","BLACKIE AGCM","3030690","AB","-5.8","0","NA","11.1","0","-31.6","0","","","NA","9.3","2","NA","","2","","","NA","739.0","0.0"
"-113.050","49.567","BLOOD TRIBE AGDM","3030720","AB","-2.3","0","NA","11.8","0","-22.8","0","","","NA","9.4","0","NA","","3","","","NA","629.4","0.0"
"-111.450","49.734","BOW ISLAND","3030768","AB","-4.4","0","NA","7.7","0","-21.1","0","","","NA","5.0","0","NA","","1","","","NA","695.5","0.0"
"-113.817","49.617","BROCKET AGDM","3030830","AB","","","NA","","","","","","","NA","5.5","1","NA","","2","","","NA","",""
"-110.484","50.339","BULL SPRINGS AGCM","3030879","AB","-6.1","0","NA","5.9","0","-22.2","0","","","NA","5.1","7","NA","","2","","","NA","748.1","0.0"
"-111.849","50.555","BROOKS","3030QLP","AB","-5.8","0","NA","9.8","0","-20.2","0","","","NA","2.5","0","NA","0.0","1","","","NA","736.6","0.0"
"-114.013","51.123","CALGARY INTL A","3031092","AB","-3.8","1","NA","9.7","1","-22.3","1","6.4","1","NA","18.3","0","NA","20.0","4","","","NA","654.6","0.0"
"-114.000","51.109","CALGARY INT'L CS","3031094","AB","-4.0","0","NA","9.9","0","-24.6","0","","","NA","11.1","0","NA","13.0","2","","","NA","683.1","0.0"
"-114.371","51.105","CALGARY SPRINGBANK A","3031109","AB","-6.1","0","NA","7.2","0","-30.5","0","","","NA","188.0","0","NA","","31","","","NA","748.0","0.0"
"-113.286","49.201","CARDSTON","3031322","AB","-0.9","3","NA","13.5","3","-24.2","3","","","NA","3.2","3","NA","","1","","","NA","529.7","0.0"
"-113.376","49.001","CARWAY","3031402","AB","-2.1","10","NA","11.7","10","-27.7","10","","","NA","0.8","10","NA","23.0","0","","","NA","422.7","0.0"
"-113.350","50.282","CHAMPION AGDM","3031480","AB","-4.7","0","NA","9.5","0","-27.0","0","","","NA","5.9","0","NA","","2","","","NA","703.7","0.0"
"-113.639","50.004","CLARESHOLM","3031640","AB","-2.7","0","NA","14.2","0","-31.1","0","","","NA","13.4","0","NA","8.0","4","","","NA","641.1","0.0"
"-114.222","51.076","COP UPPER","3031875","AB","-2.9","10","NA","9.1","10","-24.3","10","","","NA","12.5","10","NA","","3","","","NA","438.2","0.0"
"-112.433","50.183","ENCHANT AGDM","3032422","AB","-2.8","0","NA","12.3","0","-23.6","0","","","NA","6.4","0","NA","","2","","","NA","645.6","0.0"
"-112.033","49.800","FINCASTLE AGDM","3032550","AB","-3.3","1","NA","10.2","1","-21.1","1","","","NA","5.1","2","NA","","2","","","NA","640.0","0.0"
"-111.486","49.483","FOREMOST AGDM","3032642","AB","-4.4","0","NA","7.1","0","-20.6","0","","","NA","3.5","0","NA","","2","","","NA","695.8","0.0"
"-113.379","49.786","FORT MACLEOD AGCM","3032683","AB","-2.2","0","NA","13.2","0","-28.6","0","","","NA","8.7","0","NA","","3","","","NA","625.0","0.0"
"-112.941","50.934","GLEICHEN AGCM","3032801","AB","-6.7","1","NA","6.4","1","-23.6","1","","","NA","7.5","1","NA","","2","","","NA","740.5","0.0"
"-111.733","49.874","GRASSY LAKE","3032927","AB","-4.0","2","NA","9.7","2","-21.5","2","","","NA","6.6","2","NA","","1","","","NA","636.7","0.0"
"-112.733","49.900","IRON SPRINGS AGDM","3033498","AB","-2.8","1","NA","12.2","1","-23.3","1","","","NA","6.1","1","NA","","2","","","NA","624.5","0.0"
"-114.292","50.869","PRIDDIS OBSERVATORY","3033505","AB","-2.7","6","NA","10.8","6","-25.3","6","","","NA","8.0","6","NA","","2","","","NA","516.5","0.0"
"-110.261","49.989","IRVINE AGCM","3033550","AB","-4.1","0","NA","11.2","0","-20.7","0","","","NA","9.6","0","NA","","2","","","NA","683.7","0.0"
"-113.631","51.191","KEOMA AGCM","3033620","AB","-7.2","1","NA","8.2","1","-26.2","1","","","NA","7.1","2","NA","","2","","","NA","755.8","0.0"
"-112.299","50.600","LATHOM AGCM","3033770","AB","-5.7","1","NA","8.3","1","-21.8","1","","","NA","6.4","7","NA","","1","","","NA","709.7","0.0"
"-112.799","49.630","LETHBRIDGE","3033875","AB","-1.8","0","NA","11.0","0","-21.3","0","","","NA","4.0","0","NA","","2","","","NA","615.2","0.0"
"-112.763","49.647","LETHBRIDGE AGTECH AGCM","3033877","AB","-1.9","1","NA","12.3","1","-42.1","1","","","NA","8.0","1","NA","","4","","","NA","597.8","0.0"
"-112.768","49.695","LETHBRIDGE CDA","3033890","AB","-1.1","2","NA","12.8","2","-20.7","2","","","NA","","","NA","","","","","NA","553.8","0.0"
"-112.783","49.700","LETHBRIDGE CDA 2","3033892","AB","","","NA","","","","","8.0","0","NA","9.0","0","NA","4.0","4","","","NA","",""
"-112.750","49.683","LETHBRIDGE DEMO FARM AGDM","3033897","AB","-1.5","0","NA","11.9","0","-21.1","0","","","NA","11.2","17","NA","","5","","","NA","604.5","0.0"
"-110.721","50.019","MEDICINE HAT","3034479","AB","-4.4","0","NA","8.4","0","-20.0","0","","","NA","5.4","0","NA","","3","","","NA","695.1","0.0"
"-110.717","50.025","MEDICINE HAT RCS","3034485","AB","-4.5","0","NA","7.6","0","-19.9","0","","","NA","5.2","0","NA","0.0","2","","","NA","696.8","0.0"
"-113.349","50.673","MOSSLEIGH AGCM","3034577","AB","-5.5","1","NA","9.0","1","-26.2","1","","","NA","9.4","3","NA","","2","","","NA","705.5","0.0"
"-114.099","51.369","NIER AGDM","3034795","AB","-3.4","0","NA","10.0","0","-29.0","0","","","NA","7.6","0","NA","","1","","","NA","662.5","0.0"
"-113.997","49.521","PINCHER CREEK","3035198","AB","-2.0","0","NA","9.9","0","-31.1","0","","","NA","4.3","0","NA","","1","","","NA","620.9","0.0"
"-114.005","49.522","PINCHER CREEK CLIMATE","3035208","AB","-2.0","0","NA","9.7","0","-31.1","0","","","NA","","","NA","","","","","NA","621.1","0.0"
"-112.983","50.606","QUEENSTOWN","3035340","AB","-3.9","0","3.6","9.5","0","-25.5","0","9.0","0","63.0","9.0","0","63.0","0.0","3","","","NA","679.4","0.0"
"-112.803","50.598","QUEENSTOWN","3035342","AB","-6.7","20","NA","7.2","20","-27.0","20","","","NA","6.7","20","NA","","2","","","NA","271.8","0.0"
"-112.117","50.367","RAINIER AGCM","3035355","AB","-5.4","0","NA","8.4","0","-21.0","0","","","NA","7.3","0","NA","","1","","","NA","725.8","0.0"
"-111.213","50.099","RALSTON AGCM","3035362","AB","-4.8","0","NA","7.3","0","-20.9","0","","","NA","7.0","0","NA","","2","","","NA","706.5","0.0"
"-112.683","49.483","RAYMOND AGDM","3035422","AB","-1.3","0","NA","13.3","0","-20.5","0","","","NA","7.8","0","NA","","2","","","NA","599.4","0.0"
"-111.701","50.265","ROLLING HILLS AGCM","3035530","AB","-5.1","1","NA","8.6","1","-20.6","1","","","NA","6.0","2","NA","","1","","","NA","691.5","0.0"
"-112.050","50.833","ROSEMARY AGDM","3035650","AB","-8.7","1","NA","4.8","1","-25.0","1","","","NA","1.6","2","NA","","0","","","NA","799.7","0.0"
"-110.917","49.917","SEVEN PERSONS AGDM","3035845","AB","-4.8","0","NA","7.4","0","-20.7","0","","","NA","7.2","0","NA","","2","","","NA","708.3","0.0"
"-110.215","50.732","SOCIAL PLAINS AGCM","3036040","AB","-7.5","0","NA","6.0","0","-24.7","0","","","NA","4.5","0","NA","","2","","","NA","789.2","0.0"
"-112.982","51.228","STANDARD AGCM","3036086","AB","-5.2","0","NA","8.1","0","-22.1","0","","","NA","10.0","13","NA","","2","","","NA","720.4","0.0"
"-113.883","50.183","STAVELY AAFC","3036099","AB","-1.4","0","NA","10.7","0","-25.6","0","","","NA","15.6","0","NA","11.0","4","","","NA","601.5","0.0"
"-113.283","51.033","STRATHMORE AGDM","3036205","AB","-5.7","0","NA","6.7","0","-23.6","0","","","NA","5.4","29","NA","","2","","","NA","735.0","0.0"
"-112.124","49.792","TABER","3036360","AB","-2.2","16","NA","10.5","11","-21.0","12","13.0","11","NA","14.0","11","NA","0.0","3","","","NA","302.4","0.0"
"-111.321","50.456","TIDE LAKE AGCM","3036485","AB","-6.4","0","NA","6.8","0","-23.0","0","","","NA","4.6","0","NA","","1","","","NA","757.7","0.0"
"-112.133","50.050","VAUXHALL CDA CS","3036682","AB","-4.0","1","NA","9.5","1","-21.9","1","","","NA","","","NA","","","","","NA","660.8","0.0"
"-112.117","49.500","WRENTHAM AGDM","3037675","AB","-3.1","0","NA","10.1","0","-23.7","0","","","NA","5.1","0","NA","0.0","2","","","NA","653.7","0.0"
"-113.961","50.729","OKOTOKS","303M9JM","AB","-2.8","0","5.2","11.5","0","-28.0","0","0.0","0","0.0","0.0","0","0.0","0.0","0","","","NA","646.2","0.0"
"-112.788","49.871","PICTURE BUTTE WEST","303N1G3","AB","-2.8","0","NA","13.0","0","-26.0","0","10.0","0","NA","10.0","0","NA","10.0","4","","","NA","644.3","0.0"
"-112.817","49.050","DEL BONITA AGDM","3042045","AB","-3.5","0","NA","8.8","0","-24.7","0","","","NA","4.9","0","NA","","1","","","NA","666.9","0.0"
"-110.678","49.364","MANYBERRIES AGCM","3044203","AB","-8.3","0","NA","8.0","0","-30.6","0","","","NA","6.0","0","NA","","2","","","NA","814.0","0.0"
"-111.652","49.137","MASINASIN AGDM","3044232","AB","-2.6","0","NA","9.6","0","-23.0","0","","","NA","3.7","0","NA","0.0","1","","","NA","637.2","0.0"
"-112.050","49.133","MILK RIVER","3044533","AB","-3.0","2","NA","11.4","2","-26.2","2","","","NA","4.9","2","NA","14.0","1","","","NA","609.9","0.0"
"-110.467","49.117","ONEFOUR CDA","3044923","AB","-8.0","3","NA","7.3","3","-25.1","3","","","NA","6.2","3","NA","14.0","2","","","NA","727.3","0.0"
"-111.126","49.225","PAKOWKI LAKE AGCM","3045000","AB","-4.9","0","NA","7.5","0","-21.3","0","","","NA","3.9","0","NA","","1","","","NA","709.5","0.0"
"-111.025","49.029","PINHORN AGCM","3045100","AB","-2.8","7","NA","12.1","7","-22.8","7","","","NA","2.6","7","NA","","0","","","NA","498.4","0.0"
"-112.160","49.283","WARNER AGCM","3046951","AB","-2.1","1","NA","11.5","1","-26.9","1","","","NA","5.1","1","NA","","1","","","NA","603.8","0.0"
"-115.552","51.193","BANFF CS","3050519","AB","-6.1","0","NA","7.5","0","-33.7","0","","","NA","6.7","0","NA","27.0","1","","","NA","748.2","0.0"
"-114.175","49.468","BEAVER MINES","3050602","AB","-1.7","0","NA","10.1","0","-33.5","0","","","NA","13.6","0","NA","1.0","2","","","NA","610.0","0.0"
"-115.067","51.083","BOW VALLEY","3050778","AB","-2.7","0","NA","10.3","0","-34.0","0","","","NA","7.5","0","NA","","2","","","NA","641.2","0.0"
"-114.482","49.628","CROWSNEST","3051R4R","AB","-3.9","0","NA","8.4","0","-30.6","0","","","NA","0.0","29","NA","","0","","","NA","678.4","0.0"
"-118.030","52.926","JASPER WARDEN","3053536","AB","-5.1","0","NA","9.3","0","-29.6","0","","","NA","3.5","0","NA","18.0","1","","","NA","715.4","0.0"
"-115.035","51.028","KANANASKIS","3053600","AB","-1.8","1","4.2","10.5","1","-31.5","1","9.0","1","NA","8.4","1","NA","","2","","","NA","594.5","0.0"
"-116.040","52.492","NORDEGG CS","3054843","AB","-2.9","1","NA","11.6","1","-20.3","1","","","NA","27.1","1","NA","51.0","4","","","NA","628.1","0.0"
"-114.416","50.368","PEKISKO","3055119","AB","-3.4","10","NA","9.4","10","-29.8","10","","","NA","11.5","10","NA","51.0","3","","","NA","449.9","0.0"
"-113.809","49.131","WATERTON PARK GATE","3056214","AB","-1.7","0","NA","13.1","0","-34.8","0","","","NA","24.3","0","NA","0.0","3","","","NA","609.9","0.0"
"-115.787","54.144","WHITECOURT A","3057376","AB","-7.3","0","NA","8.7","0","-22.7","0","","","NA","","","NA","","","","","NA","785.3","0.0"
"-115.190","50.943","NAKISKA RIDGETOP","305MGFF","AB","-7.7","5","NA","0.6","5","-27.1","5","","","NA","","","NA","","","","","NA","668.3","0.0"
"-113.382","54.635","ATHABASCA AGCM","3060330","AB","-8.0","2","NA","7.5","2","-24.4","2","","","NA","4.7","4","NA","","1","","","NA","754.9","0.0"
"-112.825","54.782","ATMORE AGDM","3060406","AB","-9.9","0","NA","7.0","0","-27.8","0","","","NA","8.5","0","NA","36.0","4","","","NA","864.3","0.0"
"-114.448","54.095","BARRHEAD CS","3060535","AB","-9.4","0","NA","8.3","0","-23.4","0","","","NA","3.5","0","NA","6.0","1","","","NA","850.7","0.0"
"-117.867","53.350","BRULE BLACK CAT","3060903","AB","-4.5","6","5.7","12.0","6","-29.5","0","3.0","0","16.0","4.4","0","21.0","18.0","3","","","NA","561.5","0.0"
"-114.678","54.131","CAMPSIE AUTO","3061201","AB","-9.6","0","NA","9.1","0","-23.9","0","","","NA","4.2","0","NA","15.0","2","","","NA","856.4","0.0"
"-115.894","53.623","CARROT CREEK","3061350","AB","-6.9","1","NA","9.3","1","-23.9","1","","","NA","6.3","1","NA","","2","","","NA","747.4","0.0"
"-116.465","53.579","EDSON","3062239","AB","-6.6","0","NA","9.9","0","-24.3","0","","","NA","2.2","0","NA","","1","","","NA","762.9","0.0"
"-116.453","53.580","EDSON CLIMATE","3062246","AB","-6.5","0","NA","10.0","0","-24.1","0","","","NA","10.6","0","NA","17.0","2","","","NA","758.9","0.0"
"-114.983","53.600","ENTWISTLE","3062451","AB","-6.6","0","4.7","9.0","0","-22.0","0","11.0","0","41.0","11.0","0","39.0","26.0","3","","","NA","762.0","0.0"
"-115.062","53.614","EVANSBURG2 AGCM","3062476","AB","-8.6","2","NA","9.1","2","-24.7","2","","","NA","5.5","3","NA","","2","","","NA","771.2","0.0"
"-114.769","54.410","FORT ASSINIBOINE AGCM","3062660","AB","-8.7","1","NA","9.5","1","-25.4","1","","","NA","6.1","1","NA","","2","","","NA","799.6","0.0"
"-111.213","56.651","FORT MCMURRAY CS","3062696","AB","-11.1","0","NA","4.0","0","-28.9","0","","","NA","8.6","0","NA","18.0","3","","","NA","901.4","0.0"
"-111.223","56.653","FORT MCMURRAY A","3062697","AB","-11.0","0","NA","4.3","0","-28.5","0","","","NA","16.7","0","NA","","3","","","NA","898.1","0.0"
"-118.447","53.795","HENDRICKSON CREEK","3063135","AB","-6.8","0","NA","10.9","0","-34.1","0","","","NA","14.7","0","NA","47.0","6","","","NA","769.8","0.0"
"-116.479","55.396","HIGH PRAIRIE AGDM","3063165","AB","-9.0","1","NA","6.8","1","-22.7","1","","","NA","9.3","1","NA","","3","","","NA","811.2","0.0"
"-113.543","54.821","ISLAND LAKE SOUTH","3063600","AB","-8.8","0","NA","7.6","0","-25.0","0","","","NA","7.1","0","NA","12.0","3","","","NA","831.3","0.0"
"-112.981","54.563","KINIKINIK","3063640","AB","-7.8","1","NA","6.1","1","-24.5","1","","","NA","5.7","1","NA","","2","","","NA","774.8","0.0"
"-112.024","54.769","LAC LA BICHE CLIMATE","3063686","AB","-10.1","2","NA","6.3","2","-26.5","2","","","NA","7.4","19","NA","20.0","3","","","NA","813.7","0.0"
"-111.559","57.041","MILDRED LAKE","3064528","AB","-10.4","0","NA","3.7","0","-27.5","0","","","NA","13.7","0","NA","28.0","3","","","NA","879.8","0.0"
"-113.321","54.964","PLEASANT VIEW","3065200","AB","-8.0","1","NA","6.9","1","-25.8","1","","","NA","10.4","1","NA","","4","","","NA","781.1","0.0"
"-111.700","54.500","RICH LAKE AGDM","3065475","AB","-11.1","1","NA","5.2","1","-27.4","1","","","NA","11.6","1","NA","","3","","","NA","874.3","0.0"
"-111.835","53.851","ISPAS","3065712","AB","-9.1","1","NA","5.6","1","-25.5","1","","","NA","12.4","1","NA","","5","","","NA","813.9","0.0"
"-114.777","55.293","SLAVE LAKE","3065995","AB","-8.7","0","NA","8.5","0","-22.1","0","","","NA","6.9","0","NA","","2","","","NA","828.7","0.0"
"-114.777","55.293","SLAVE LAKE RCS","3065997","AB","-8.8","0","NA","8.0","0","-21.9","0","","","NA","11.1","0","NA","15.0","3","","","NA","831.3","0.0"
"-113.520","54.300","TAWATINAW AGCM","3066367","AB","-8.5","0","NA","7.0","0","-24.1","0","","","NA","4.7","14","NA","","2","","","NA","822.9","0.0"
"-118.348","53.386","WILLOW CREEK 1","306GE70","AB","-8.7","1","NA","7.5","1","-35.3","1","","","NA","11.8","1","NA","34.0","3","","","NA","799.5","0.0"
"-113.941","54.683","DUCK LAKE AGCM","306X001","AB","-9.2","23","NA","8.1","23","-27.9","23","","","NA","2.7","23","NA","0.0","1","","","NA","217.6","0.0"
"-117.236","55.577","BALLATER AGCM","3070495","AB","-9.7","3","NA","8.2","2","-25.9","3","","","NA","11.3","0","NA","","3","","","NA","775.1","0.0"
"-119.396","55.197","BEAVERLODGE RCS","3070600","AB","-6.6","0","NA","7.7","0","-23.1","0","","","NA","14.1","0","NA","15.0","4","","","NA","763.5","0.0"
"-117.886","56.118","BROWNVALE AGCM","3070800","AB","-8.2","0","NA","6.3","0","-24.3","0","","","NA","10.5","0","NA","","3","","","NA","811.9","0.0"
"-117.933","56.529","CLEAR HILLS AGCM","3071661","AB","-7.2","0","NA","6.4","0","-25.2","0","","","NA","7.9","0","NA","","3","","","NA","779.9","0.0"
"-117.543","56.715","DEADWOOD AGCM","3071957","AB","-6.8","0","NA","7.8","0","-22.7","0","","","NA","8.2","0","NA","","3","","","NA","769.7","0.0"
"-117.887","55.808","EAGLESHAM AGCM","3072151","AB","-8.6","0","NA","7.0","0","-22.7","0","","","NA","12.7","0","NA","","4","","","NA","824.1","0.0"
"-118.439","56.081","FAIRVIEW AGDM","3072525","AB","-8.3","0","NA","6.1","0","-25.4","0","","","NA","12.0","0","NA","","4","","","NA","815.8","0.0"
"-111.117","58.767","FORT CHIPEWYAN","3072655","AB","-14.4","0","NA","-0.9","0","-35.9","0","","","NA","5.2","0","NA","","3","","","NA","1005.0","0.0"
"-111.117","58.767","FORT CHIPEWYAN RCS","3072659","AB","-14.4","0","NA","-0.5","0","-35.7","0","","","NA","13.2","0","NA","49.0","5","","","NA","1005.7","0.0"
"-116.040","58.382","FORT VERMILION","3072723","AB","-13.3","0","NA","2.0","0","-28.3","0","","","NA","13.0","0","NA","30.0","5","","","NA","969.8","0.0"
"-118.885","55.180","GRANDE PRAIRIE A","3072921","AB","-8.9","0","NA","6.7","0","-23.6","0","15.5","0","NA","14.2","0","NA","24.0","3","","","NA","833.8","0.0"
"-117.298","57.265","HAWK HILLS AGCM","3073071","AB","-9.7","0","NA","7.7","0","-28.3","0","","","NA","10.4","0","NA","","2","","","NA","860.0","0.0"
"-117.165","58.622","HIGH LEVEL A","3073140","AB","-13.0","0","NA","6.4","0","-30.8","0","","","NA","6.4","0","NA","","3","","","NA","959.9","0.0"
"-117.164","58.631","HIGH LEVEL","3073148","AB","-13.5","0","NA","6.2","0","-32.2","0","","","NA","13.9","0","NA","41.0","5","","","NA","977.7","0.0"
"-117.120","55.913","JEAN COTE AGCM","3073535","AB","-7.8","1","NA","6.4","1","-25.2","1","","","NA","8.2","1","NA","","2","","","NA","774.8","0.0"
"-117.677","57.788","KEG RIVER AGCM","3073644","AB","-10.8","1","NA","7.9","1","-29.1","1","","","NA","17.2","1","NA","","3","","","NA","865.4","0.0"
"-116.343","58.172","LA CRETE AGCM","3073730","AB","-11.4","1","NA","5.5","1","-25.7","1","","","NA","10.5","1","NA","","4","","","NA","881.1","0.0"
"-119.255","55.422","LA GLACE AGCM","3073740","AB","-8.3","2","NA","7.1","2","-30.6","2","","","NA","18.1","3","NA","","4","","","NA","762.9","0.0"
"-117.451","56.974","MANNING AGDM","3074190","AB","-10.5","1","NA","7.7","1","-29.0","1","","","NA","","","NA","","","","","NA","853.8","0.0"
"-119.745","56.314","CLEARDALE AGDM","3074935","AB","-7.7","1","NA","7.9","1","-23.7","1","","","NA","15.5","1","NA","","3","","","NA","770.0","0.0"
"-117.448","56.227","PEACE RIVER A","3075041","AB","-9.3","0","NA","6.4","0","-23.9","0","4.5","0","NA","4.5","0","NA","14.0","3","","","NA","844.8","0.0"
"-117.452","56.193","ROMA","3075043","AB","-8.4","0","NA","6.6","0","-22.1","0","","","NA","5.9","0","NA","11.0","2","","","NA","818.6","0.0"
"-118.293","55.621","PEORIA AGDM","3075160","AB","-9.0","0","NA","7.9","0","-26.2","0","","","NA","2.0","25","NA","","0","","","NA","838.3","0.0"
"-115.278","56.552","RED EARTH","3075488","AB","-9.0","0","NA","5.9","0","-29.5","0","","","NA","18.5","0","NA","35.0","6","","","NA","837.7","0.0"
"-116.481","58.452","ROCKY LANE AGCM","3075550","AB","-13.2","0","NA","2.6","0","-31.5","0","","","NA","13.3","0","NA","","6","","","NA","966.7","0.0"
"-118.668","55.777","RYCROFT AGCM","3075601","AB","-8.6","0","NA","7.7","0","-23.7","0","","","NA","14.9","0","NA","","4","","","NA","824.0","0.0"
"-119.345","56.076","SAVANNA AGCM","3075770","AB","-7.1","0","NA","5.9","0","-22.5","0","","","NA","17.0","0","NA","","4","","","NA","779.6","0.0"
"-118.408","55.352","TEEPEE CREEK AGCM","3076366","AB","-8.9","0","NA","6.1","0","-25.5","0","","","NA","12.8","0","NA","","4","","","NA","834.9","0.0"
"-116.848","58.021","TOMPKINS LANDING AGCM","3076530","AB","-10.7","0","NA","6.6","0","-32.0","0","","","NA","12.8","7","NA","","3","","","NA","888.3","0.0"
"-117.199","55.098","VALLEYVIEW AGDM","3076680","AB","-7.5","0","NA","8.0","0","-23.9","0","","","NA","10.0","0","NA","","3","","","NA","791.3","0.0"
"-113.866","58.711","GARDEN RIVER","307KPFP","AB","-14.1","3","NA","-0.1","3","-33.9","3","","","NA","","","NA","","","","","NA","897.7","0.0"
"-110.283","54.417","COLD LAKE A","3081680","AB","-11.4","0","3.7","4.4","0","-27.0","0","14.0","0","62.0","14.0","0","87.0","40.0","3","","","NA","912.2","0.0"
"-110.868","54.367","DUPRE AGCM","3081690","AB","-11.5","0","NA","5.4","0","-27.9","0","","","NA","14.4","0","NA","","3","","","NA","914.3","0.0"
"-110.323","54.177","BEAVERDAM AGCM","308X001","AB","-11.9","23","NA","5.4","23","-25.6","23","","","NA","3.5","23","NA","0.0","1","","","NA","239.5","0.0"
"-104.710","50.201","BRATT'S LAKE CLIMATE","4010811","SK","-11.9","0","NA","2.1","0","-30.3","0","","","NA","6.2","0","NA","22.0","1","","","NA","927.8","0.0"
"-102.571","50.368","BROADVIEW","4010879","SK","-12.5","0","1.6","2.0","0","-29.3","0","","","NA","5.6","0","38.0","14.0","2","","","NA","946.8","0.0"
"-105.383","50.550","BUFFALO POUND LAKE","4010984","SK","","","NA","","","-26.0","1","0.0","1","NA","0.0","1","NA","0.0","0","","","NA","",""
"-102.966","49.210","ESTEVAN A","4012403","SK","-12.0","0","NA","2.5","0","-30.7","0","","","NA","0.9","0","NA","","0","","","NA","929.0","0.0"
"-102.967","49.217","ESTEVAN","4012410","SK","-11.7","0","NA","2.3","0","-30.5","0","","","NA","4.9","0","NA","19.0","2","","","NA","921.9","0.0"
"-103.650","50.550","INDIAN HEAD CDA","4013480","SK","-11.8","0","3.1","2.6","0","-28.3","0","","","NA","1.3","0","7.0","7.0","0","","","NA","922.8","0.0"
"-103.753","51.257","KELLIHER","4013660","SK","-13.2","0","2.2","1.5","0","-31.5","0","9.8","0","44.0","11.2","0","50.0","48.0","2","","","NA","968.0","0.0"
"-102.733","50.200","KIPLING","4014040","SK","-11.8","0","2.9","1.5","0","-31.0","0","5.0","0","26.0","5.4","0","29.0","0.0","2","","","NA","924.6","0.0"
"-105.250","51.417","LAST MOUNTAIN CS","4014156","SK","-13.8","0","1.2","3.3","0","-31.8","0","","","NA","2.1","0","13.0","22.0","1","","","NA","984.9","0.0"
"-104.633","52.000","LEROY","4014322","SK","-14.0","0","2.4","2.0","0","-32.0","0","9.4","0","55.0","10.0","0","57.0","35.0","4","","","NA","992.4","0.0"
"-103.889","51.152","LIPTON 2","4014481","SK","-13.0","0","2.3","2.0","0","-31.0","0","10.0","0","50.0","10.0","0","49.0","43.0","3","","","NA","959.8","0.0"
"-105.538","50.332","MOOSE JAW CS","4015322","SK","-9.1","0","NA","3.4","0","-23.7","0","","","NA","7.1","0","NA","1.0","2","","","NA","839.8","0.0"
"-105.000","52.333","MUENSTER","4015440","SK","-11.7","20","4.5","-7.0","20","-18.0","20","0.0","20","NA","0.0","20","NA","","0","","","NA","327.0","0.0"
"-102.117","49.317","OXBOW","4015800","SK","-12.1","6","NA","2.5","6","-30.0","6","3.0","6","NA","4.0","6","NA","27.0","3","","","NA","752.6","0.0"
"-103.983","50.567","QU'APPELLE 1","4016322","SK","-10.9","0","3.3","2.0","0","-28.5","0","5.6","0","37.0","5.8","0","37.0","36.0","3","","","NA","895.8","0.0"
"-104.666","50.432","REGINA INTL A","4016566","SK","-12.4","0","NA","2.8","0","-30.6","0","","","NA","","","NA","","","","","NA","941.4","0.0"
"-104.667","50.433","REGINA RCS","4016699","SK","-12.3","0","NA","2.7","0","-30.6","0","","","NA","6.6","0","NA","11.0","2","","","NA","940.3","0.0"
"-105.400","51.667","WATROUS EAST","4018642","SK","-13.4","0","NA","3.6","0","-29.8","0","","","NA","5.0","0","NA","15.0","1","","","NA","972.2","0.0"
"-104.183","49.817","YELLOW GRASS NORTH","4019041","SK","-11.2","0","NA","2.9","0","-29.9","0","","","NA","5.5","0","NA","32.0","2","","","NA","906.4","0.0"
"-102.464","51.265","YORKTON","4019073","SK","-14.0","0","NA","1.6","0","-30.2","0","","","NA","6.7","1","NA","31.0","1","","","NA","993.2","0.0"
"-102.462","51.265","YORKTON","4019075","SK","-13.9","0","NA","1.8","0","-30.3","0","","","NA","2.9","0","NA","","1","","","NA","988.9","0.0"
"-104.200","51.767","WYNYARD (AUT)","40190LN","SK","-11.6","0","NA","1.8","0","-27.3","0","","","NA","3.5","0","NA","7.0","1","","","NA","917.5","0.0"
"-103.800","49.700","WEYBURN","401HP5R","SK","-11.8","0","NA","2.4","0","-29.4","0","","","NA","9.6","0","NA","27.0","2","","","NA","923.3","0.0"
"-105.946","49.729","ASSINIBOIA AIRPORT","4020286","SK","-8.5","0","NA","3.7","0","-25.4","0","","","NA","2.5","0","NA","15.0","1","","","NA","821.4","0.0"
"-107.311","50.832","BEECHY","4020560","SK","-9.0","0","3.1","4.5","0","-25.0","0","0.0","0","0.0","2.6","0","18.0","26.0","1","","","NA","836.6","0.0"
